Name1,Name2,Name3,Address1,Address2,Address3,City,State,ZIP_Code,Contact,Website,Note,Keys,ID,Longitude,Latitude,Match Score
Shelby County Treatment Center,,,750 Highway 31 South,,,Alabaster,AL,35007,(205)216-0200 Intake: (205)216-0202 Hotlines: (888)950-4325 (888)950HEAL,,Methadone and Buprenorphine Clients Only,SA/TX/MM/BU/OP/PH/CO/HV/GL/SE/PW/WN/MN/DU/CJ/SF/MD/PI/AH/SP/,4041AL35007,-86.78738528247351,33.21345712673533,100.0
Northwest Alabama Treatment Center,,,4204 Edmonton Drive,,,Bessemer,AL,35022,(205)425-1200,,Methadone Clients Only,SA/TX/DT/MM/OP/SF/,8772AL35022,-86.93995821612879,33.368655188646365,100.0
Birmingham Metro Treatment Center,,,151 Industrial Drive,,,Birmingham,AL,35211,(205)941-1799,,Methadone and Buprenorphine Clients Only,SA/TX/DT/MM/DM/BU/OP/SF/SP/,3700AL35211,-86.85061106777306,33.44878773365579,100.0
Tri County Treatment Center,,,1101 East Park Drive,,,Birmingham,AL,35235,(205)836-3345,,Methadone and Buprenorphine Clients Only,SA/TX/DT/MM/DM/BU/OP/SF/,6133AL35235,-86.68089638775254,33.58759385235036,100.0
Cullman County Treatment Center,,,1912 Commerce Street NW,,,Cullman,AL,35056,(256)739-5595,,Methadone Clients Only,SA/TX/MM/DM/OP/PW/WN/MN/SF/AH/,8656AL35056,-86.87574698347733,34.203834348523365,92.94
Gadsden Treatment Center,,,1107 West Meighan Boulevard,,,Gadsden,AL,35901,(256)549-0807 Hotline: (256)549-0807,,Methadone Clients Only,SA/TX/MM/DM/OP/PW/WN/MN/SF/PI/AH/,7491AL35901,-86.01800955180912,34.02036605590047,100.0
Gulf Coast Treatment Center,,,12271 Interchange Road,,,Grand Bay,AL,36541,(251)865-0123,,Methadone Clients Only,SA/TX/MM/OP/SF/AH/SP/,6549AL36541,-88.33302599765966,30.500168097438287,98.04
Marion County Treatment Center,,,1879 Military Street South,,,Hamilton,AL,35570,(205)921-3799,,Methadone and Buprenorphine Clients Only,SA/TX/MM/BU/OP/PW/WN/MN/SF/PI/AH/,5447AL35570,-87.98942506591645,34.11666921240657,100.0
Huntsville Metro Treatment Center,,,2227 Drake Avenue,Suite 19,,Huntsville,AL,35805,(256)881-1311,,Methadone and Buprenorphine Clients Only,SA/TX/DT/MM/DM/BU/OP/SF/SP/,0408AL35805,-86.60357727045357,34.699692947184474,99.55
Huntsville Recovery Inc,,,4040 Independence Avenue,,,Huntsville,AL,35816,(256)721-1940,,Methadone Clients Only,SA/TX/MM/OP/PW/SF/,5931AL35816,-86.62985537509907,34.73753560555071,97.61
Walker Recovery Center Inc,,,2195 North Airport Road,,,Jasper,AL,35504,(205)221-1799 Intake: (205)221-1796,,,SA/TX/MM/BU/OP/PW/WN/MN/SF/PI/,5511AL35504,-87.2675299762368,33.873530970424305,100.0
Metro Treatment of Alabama LP,Sumter County Treatment Center,,106 Hospital Road,Suite 101,,Livingston,AL,35470,(205)652-4919,,Methadone and Buprenorphine Clients Only,SA/TX/DT/MM/DM/BU/OP/SF/,2902AL35470,-88.1828794690595,32.60011634361372,98.04
AltaPointe Health Systems Inc,AltaPointe Medication Assisted Trt,,4211 Government Boulevard,,,Mobile,AL,36693,(251)666-2569 Hotline: (251)473-4423,,Methadone Clients Only,SA/TX/MM/OP/PW/WN/SF/MD/PI/SS/AH/,3152AL36693,-88.14878992184461,30.628666822159875,100.0
Mobile Metro Treatment Center,,,1924 Dauphin Island Parkway,Suite C,,Mobile,AL,36605,(251)476-5733,,Methadone and Buprenorphine Clients Only,SA/TX/DT/MM/DM/BU/OP/SF/,3401AL36605,-88.089004820398,30.63037535171698,100.0
Montgomery Metro Treatment Center,,,4303 Norman Bridge Road,,,Montgomery,AL,36105,(334)288-5363,,Methadone and Buprenorphine Clients Only,SA/TX/DT/MM/DM/BU/OP/PW/SF/,6849AL36105,-86.29911972503125,32.32229104373711,100.0
Shoals Treatment Center,,,3430 North Jackson Highway,,,Muscle Shoals,AL,35660,(256)383-6646 Hotline: (256)383-6646,,Methadone Clients Only,SA/TX/MM/OP/PW/SF/PI/SP/,4063AL35660,-87.67615217141622,34.766566746293805,100.0
Houston Treatment Center,,,9283 U.S. Highway 84 West,,,Newton,AL,36352,(334)692-4455 Hotline: (334)692-4455,,Methadone Clients Only,SA/TX/DT/MM/DM/OP/PW/WN/MN/SF/PI/,0898AL36352,-85.60870122974788,31.242292913306517,95.63
Calhoun Treatment Center Inc,,,118 East Choccolocco Street,,,Oxford,AL,36203,(256)831-4601,,Methadone and Buprenorphine Clients Only,SA/TX/DT/MM/DM/BU/OP/PW/WN/SF/PI/MI/AH/,8190AL36203,-85.83361019652041,33.61507245507789,100.0
Tuscaloosa Treatment Center,,,1001 Mimosa Park Road,,,Tuscaloosa,AL,35405,(205)752-5857 Intake: (205)752-5851,,Methadone Clients Only,SA/TX/MM/OP/CO/HV/GL/SE/PW/WN/MN/SF/,5701AL35405,-87.55181937830143,33.15494892799984,100.0
Narcotic Drug Treatment Center Inc,Center for Drug Problems,,520 East 4th Avenue,Suite 102,,Anchorage,AK,99501,(907)276-6430,,Methadone Clients Only,SA/TX/DT/MM/DM/OP/CO/PW/WN/MN/SF/MD/SI/PI/MI/SS/PA/,5954AK99501,-149.87406602589138,61.21851252448672,100.0
IAA Project Special Delivery,,,710 3rd Avenue,,,Fairbanks,AK,99701,(907)452-4222 Intake: (907)452-4222x114,,Methadone Clients Only,SA/TX/MM/DM/OP/HV/SF/MD/PI/MI/SS/,1447AK99701,-147.72514051186158,64.84289779087666,100.0
Community Medical Services,Bullhead Drug Abuse Program,,809 Hancock Road,Suite 1,,Bullhead City,AZ,86442,(928)763-7111,,Methadone and Buprenorphine Clients Only,SA/TX/DT/MM/BU/OP/SF/MD/MC/,7875AZ86442,-114.62157533253617,35.1080044941549,100.0
BAART Behavioral Health Services Inc,,,908-B West Chandler Boulevard,Suite 4,,Chandler,AZ,85225,(480)899-0200 Hotline: (800)520-5455,,Methadone and Buprenorphine Clients Only,SA/TX/DT/MM/DM/BU/OP/PH/CO/HV/SE/PW/WN/MN/SF/MD/MC/PI/AR/SS/AH/,1544AZ85225,-111.85768785507305,33.30697615784918,98.75
Community Medical Services,Flagstaff,,2559 East 7th Avenue,,,Flagstaff,AZ,86004,(928)714-0010,,Methadone and Buprenorphine Clients Only,SA/TX/MM/BU/OP/SF/MD/MC/SI/,7340AZ86004,-111.61072106878498,35.211550916195165,100.0
Community Medical Services,Glendale,,5002 West Glendale Avenue,Suite 101,,Glendale,AZ,85301,(623)915-2106,,Methadone Clients Only,SA/TX/MM/OP/SF/MD/SI/AH/SP/,3628AZ85301,-112.16665897153628,33.5384775342134,100.0
New Hope Behavioral Health Center Inc,,,215 South Power Road,Suite 114,,Mesa,AZ,85206,(480)981-1022 Intake: (480)981-4072,,Methadone Clients Only,SA/TX/DT/MM/DM/OP/AD/PW/SF/AH/SP/,0611AZ85206,-111.68199402824136,33.41130801169729,100.0
Addiction Resources Inc,,,4337 West Indian School Road,Suite 107,,Phoenix,AZ,85031,(602)233-9401,,Methadone and Buprenorphine Clients Only,SA/TX/MM/BU/OP/PW/WN/SF/,0527AZ85031,-112.15314097337105,33.49493254138844,100.0
Alpha Medical Service,,,3825 North 24th Street,,,Phoenix,AZ,85016,(602)955-7997,,Methadone Clients Only,SA/TX/MM/OP/SF/MD/MC/AH/,3567AZ85016,-112.03018046544399,33.49137978790857,100.0
Center for Behavioral Hlth Phoenix Inc,,,1501 East Washington Street,,,Phoenix,AZ,85034,(602)253-6553,,,SA/TX/DT/MM/DM/BU/OP/PW/DU/CJ/SF/,8079AZ85034,-112.0496715754502,33.44819354053965,100.0
Community Medical Services,Larkspur,,2255 West Northern Avenue,Suite A-100,,Phoenix,AZ,85021,(602)248-8886 Intake: (602)866-9378,,Methadone Clients Only,SA/TX/MM/OP/SF/SI/AH/,5564AZ85021,-112.1078220345582,33.553092555866044,100.0
Intensive Treatment Systems LLC,,,19401 North Cave Creek Road,Suite 18,,Phoenix,AZ,85024,(602)996-0099 Intake: (602)248-0550,,Methadone Clients Only,SA/TX/DT/MM/OP/PW/SF/MD/AH/SP/,6122AZ85024,-112.03073735909092,33.662711001775534,100.0
Intensive Treatment Systems LLC,,,651 West Coolidge Street,,,Phoenix,AZ,85013,(602)248-0550,,Methadone Clients Only,SA/TX/MM/OP/WN/MN/SF/MD/SS/AH/SP/,5171AZ85013,-112.08192413304093,33.50476757320793,100.0
Intensive Treatment Systems LLC,,,7102 West Thomas Road,Suite 107,,Phoenix,AZ,85033,(623)247-1234 Intake: (602)248-0550,,Methadone Clients Only,SA/TX/MM/OP/SF/MD/AH/,3765AZ85033,-112.21236599246616,33.480383233856635,100.0
Recovery Rx,,,333 East Virginia Avenue,Suite 110,,Phoenix,AZ,85004,(602)388-4986,,Methadone Clients Only,SA/TX/MM/OP/SF/SS/SP/F42/,3861AZ85004,-112.06779031644938,33.476582166494964,100.0
Southwest Behavioral Health Servs Inc,Methadone Maintenance,,1424 South 7th Avenue,Building C,,Phoenix,AZ,85007,(602)258-3600x224 Intake: (602)258-3600x0,,,MH-SA/TX/MM/BU/OP/WN/DU/CJ/SF/SI/PA/AH/,7322AZ85007,-112.08253156956421,33.434280461368274,100.0
Valle Del Sol Inc,Behavioral Health Program,,1209 South 1st Avenue,,,Phoenix,AZ,85003,(602)258-6797 Intake: (602)523-9312,,,MH-SA/TX/MM/BU/OP/CO/SE/PW/WN/DU/CJ/SF/MD/MC/SI/PI/MI/AH/SP/,2153AZ85003,-112.07508123110743,33.43560467634146,100.0
Community Medical Services,Prescott,,3050 North Navajo Drive,Suites 106-107,,Prescott Valley,AZ,86314,(928)779-7088,,Methadone and Buprenorphine Clients Only,SA/TX/MM/BU/OP/SF/MD/AH/,5984AZ86314,-112.31767454758196,34.58696921569624,100.0
Mission Treatment Center,,,617 North Scottsdale Road,Suite D,,Scottsdale,AZ,85257,(480)990-3720,,Methadone Clients Only,SA/TX/MM/OP/PW/WN/MN/SF/,8326AZ85257,-111.92637662958643,33.454729539088305,100.0
Center for Behavioral Hlth Phoenix Inc,,,2123 East Southern Avenue,,,Tempe,AZ,85282,(480)897-7044,,,SA/TX/DT/MM/DM/BU/OP/PW/DU/CJ/SF/MD/MC/SI/SP/,5628AZ85282,-111.8954739775022,33.39296254021708,100.0
Valle Del Sol Inc,East Clinic,,509 South Rockford Drive,,,Tempe,AZ,85281,(602)258-6797x100 Intake: (602)523-9312,,,MH-SA/TX/MM/BU/OP/AD/CO/PW/WN/MN/SF/MD/MC/SI/PI/AH/SP/,8333AZ85281,-111.896965025709,33.42555782782975,100.0
Behavioral Awareness Center Inc,,,1475 West Saint Marys Road,,,Tucson,AZ,85745,(520)629-9126,,Methadone and Buprenorphine Clients Only,SA/TX/MM/BU/OP/SF/,7159AZ85745,-110.99632073705843,32.228985164421054,100.0
COPE Community Services Inc,Substance Abuse Services,,101 South Stone Avenue,Suite 101,,Tucson,AZ,85701,(520)879-6680x629 Intake: (920)205-4732,,Methadone and Buprenorphine Clients Only,MH-SA/TX/DT/MM/DM/BU/OP/PH/CO/HV/GL/SE/PW/WN/MN/DU/CJ/PA/AH/SP/F30/N23/,1511AZ85701,-110.97099800173694,32.22039455185662,100.0
Center for Behavioral Hlth Tucson Inc,,,368 East Grant Road,Suite C,,Tucson,AZ,85705,(520)624-0250,,,SA/TX/DT/MM/DM/BU/OP/PW/DU/CJ/SF/,1160AZ85705,-110.96583600666645,32.25017247826332,100.0
Community Medical Services,Tucson,,6626 East Carondelet Drive,,,Tucson,AZ,85710,(520)298-1650,,Methadone Clients Only,SA/TX/MM/OP/SF/,2921AZ85710,-110.85106595924641,32.2255925052917,100.0
ETANO Center,,,2340 North Tucson Boulevard,Suites 120-130,,Tucson,AZ,85716,(520)325-3323,,Methadone and Buprenorphine Clients Only,SA/TX/DT/MM/DM/BU/OP/WN/SF/SP/,4049AZ85716,-110.9353409202146,32.24930958104175,100.0
La Frontera Center,Hope Center,,260 South Scott Avenue,,,Tucson,AZ,85701,(520)884-8470,,Methadone Clients Only,SA/TX/DT/MM/DM/OP/MD/SI/PA/AH/SP/F30/,0739AZ85701,-110.96962797966307,32.21828851486476,100.0
New Hope Behavioral Health Center Inc,,,2001 West Orange Grove,Suite 204,,Tucson,AZ,85704,(520)297-3329 Intake: (480)981-1022,,Methadone Clients Only,SA/TX/DT/MM/DM/OP/PW/SF/MC/PI/MI/SP/,2603AZ85704,-111.0088780014817,32.32308250494411,98.84
Pascua Yaqui Tribe of Arizona,Adult Behavioral Health Program,,7490 South Camino de Oeste,,,Tucson,AZ,85757,(520)879-6060 Hotline: (520)591-7206,,,MH-SA/TX/MM/DM/HH/RS/RL/OP/AD/CO/WN/MN/CJ/MC/SI/PA/AH/SP/N39/,3688AZ85757,-111.06321435936893,32.11502250382445,99.52
Yuma Treatment Center,,,1290 West 8th Place,Suite A,,Yuma,AZ,85364,(928)344-4310 Hotline: (866)495-6735,,Methadone Clients Only,SA/TX/DT/MM/DM/OP/HV/PW/WN/DU/SF/MD/AH/SP/,5466AZ85364,-114.63488403457909,32.71305763289,100.0
Catar Clinic,,,1401 South University Avenue,,,Little Rock,AR,72204,(501)664-7833 Intake: (501)664-7833x0,,Methadone and Buprenorphine Clients Only,SA/TX/MM/BU/OP/PW/WN/MN/SF/,2898AR72204,-92.34153004006546,34.739470861265175,100.0
University of Arkansas for,Medical Sciences/ SAT Clinic,,4224 Sheffield Drive,4th Floor Suite 453,,Little Rock,AR,72205,(501)526-8400,,,SA/TX/DT/MM/DM/BU/OP/SF/SS/AH/,6100AR72205,-92.32037795942115,34.74724172577668,96.88
Springdale Treatment Center,,,1353 E Henri de Tonti Boulevard,Suite A,,Springdale,AR,72762,(479)306-4480,,Methadone Clients Only,SA/TX/DT/MM/DM/OP/WN/SF/AH/,8575AR72762,-94.21553974703212,36.175846596311814,100.0
Addiction Research and Treatment Inc,(ART),,3707 Sunset Lane,,,Antioch,CA,94509,(925)522-0124,,Methadone and Buprenorphine Clients Only,SA/TX/DT/MM/DM/BU/OP/CO/PW/SF/SI/PI/SS/SP/F4/F28/F81/,6895CA94509,-121.80420938031936,37.984503888517864,100.0
BAART Behavioral Health Services Inc,,,3707 Sunset Lane,,,Antioch,CA,94509,(925)522-0124,,Methadone and Buprenorphine Clients Only,SA/TX/DT/MM/DM/BU/OP/SF/MD/SP/F4/F28/F81/,6895CA94509,-121.80420938031936,37.984503888517864,100.0
Aegis Medical Systems Inc,,,6500 Morro Road,Suite D,,Atascadero,CA,93422,(805)461-5212,,Methadone Clients Only,SA/TX/DT/MM/DM/OP/SF/MC/SI/PI/SS/,2192CA93422,-120.66561182060549,35.483589235452754,100.0
American Health Services at,Bakersfield Health Services,,1010 1/2 South Union Avenue,,,Bakersfield,CA,93307,(661)321-0234,,Methadone and Buprenorphine Clients Only,MH-SA/TX/DT/MM/DM/BU/OP/CO/HV/GL/SE/PW/MN/CJ/SF/MC/SI/SS/SP/,2855CA93307,-119.00288925970858,35.34384972910927,100.0
Berkeley Addiction Treatment Services,,,2975 Sacramento Street,,,Berkeley,CA,94702,(510)644-0200,,Methadone and Buprenorphine Clients Only,SA/TX/DT/MM/DM/BU/OP/HV/PW/SF/MD/PI/SP/,7277CA94702,-122.27903371782922,37.853748084909185,100.0
Imperial Valley Methadone Clinic,,,535 Cesar Chavez Boulevard,,,Calexico,CA,92231,(760)357-6566,,Methadone Clients Only,SA/TX/DT/MM/DM/OP/CO/SE/PW/WN/MN/CJ/SF/MD/MC/SI/PI/MI/AR/SS/SP/,7481CA92231,-115.50220885858333,32.670215432665856,100.0
Bi Valley Medical Clinic,Carmichael,,6127 Fair Oaks Boulevard,,,Carmichael,CA,95608,(916)974-8090 Intake: (916)974-8090x3023 Hotline: (916)974-8090,,Methadone and Buprenorphine Clients Only,SA/TX/DT/MM/DM/BU/OP/PW/WN/SF/MD/SS/,4986CA95608,-121.32938814411379,38.61252368363205,100.0
Hayward,,,20094 Mission Boulevard,,,Castro Valley,CA,94546,(510)727-9755x22 Intakes: (510)727-9755x46 (510)727- 9755x23,,Methadone and Buprenorphine Clients Only,SA/TX/DT/MM/DM/BU/OP/SF/MD/PI/F10/F30/F42/,1106CA94546,-122.10248049446491,37.68700193971726,97.13
Aegis Medical Systems Inc,,,584 588 and 590 Rio Lindo Avenue,,,Chico,CA,95926,(530)345-3491,,Methadone Clients Only,SA/TX/DT/MM/DM/OP/CO/PW/WN/MN/SF/MD/MI/SS/SP/F37/,4466CA95926,-121.84816751715158,39.75413566909468,97.63
Third Avenue Clinic Member of CRC,Health Group,,1161 3rd Avenue,,,Chula Vista,CA,91911,(619)498-8260,,Methadone and Buprenorphine Clients Only,SA/TX/DT/MM/DM/BU/OP/PW/SF/MD/MC/SI/PI/MI/AR/SS/AH/SP/F81/,1945CA91911,-117.06822378424371,32.6115680824088,100.0
Colton Clinical Services,,,2275 East Cooley Drive,,,Colton,CA,92324,(909)370-1777 Intake: (909)370-1777x0 Hotline: (877)637-6237,,,SA/TX/DT/MM/DM/BU/OP/PW/SF/MD/PI/MI/AH/SP/F81/,2924CA92324,-117.28870103009451,34.05940598531599,100.0
Aegis Medical Systems Inc,,,1019 Jefferson Street,,,Delano,CA,93215,(661)721-0463 Intake: (661)721-0563,,Methadone Clients Only,SA/TX/DT/MM/DM/OP/CO/SF/MD/SS/SP/F81/,2761CA93215,-119.2444395467798,35.769531467721144,100.0
El Cajon Treatment Center,East Office,,234 North Magnolia Avenue,,,El Cajon,CA,92020,(619)579-8373x101 Hotline: (866)575-8182,,Methadone and Buprenorphine Clients Only,SA/TX/DT/MM/DM/BU/OP/CO/HV/GL/SE/PW/WN/MN/SF/MD/SS/SP/,4593CA92020,-116.96237157888831,32.797095935231575,100.0
Imperial Valley Drug and Rehab Clinic,,,1745 South Imperial Avenue,Suite 112,,El Centro,CA,92243,(760)312-9817,,Methadone Clients Only,SA/TX/DT/MM/DM/OP/PW/CJ/SF/MD/MC/SI/SP/,2450CA92243,-115.56948736103678,32.777751843807174,100.0
Imperial Valley Methadone Clinic Inc,Medical Treatment Center,,680 West Main Street,,,El Centro,CA,92243,(760)482-0864 Intake: (760)482-5803,,Methadone Clients Only,SA/TX/DT/MM/DM/OP/CO/SE/PW/WN/MN/CJ/SF/MD/MC/SI/PI/MI/AR/SS/SP/,2776CA92243,-115.59300991501335,32.79285745825294,100.0
Aegis Medical Systems Inc,,,11041 Valley Boulevard,,,El Monte,CA,91731,(626)442-4177 Intake: (626)442-4177x0 Hotline: (877)722-4468,,Methadone Clients Only,SA/TX/DT/MM/DM/OP/CO/PW/WN/MN/CJ/SF/MD/MC/PI/SS/,3928CA91731,-118.03385574279064,34.074309176800014,100.0
Mission Treatment Services Inc,Escondido,,910 East Ohio Avenue,Suite 104,,Escondido,CA,92025,(760)745-7786,,Methadone Clients Only,SA/TX/DT/MM/DM/OP/PW/WN/MN/CJ/SF/MD/MC/PI/MI/SS/SP/,5062CA92025,-117.07010847857288,33.12701596503169,100.0
MedMark Treatment Centers Inc,MedMark Treatment Centers Fairfield,,1143 Missouri Street,,,Fairfield,CA,94533,(707)435-9911 Hotline: (877)331-3630,,Methadone and Buprenorphine Clients Only,SA/TX/DT/MM/DM/BU/OP/PW/SF/SI/SS/PA/SP/F37/F58/F65/,5517CA94533,-122.04829098752155,38.248112480271615,100.0
Addiction Research and Treatment Inc,(ART) BBHS,,1235 E Street,,,Fresno,CA,93706,(559)268-6261,,Methadone and Buprenorphine Clients Only,SA/TX/DT/MM/DM/BU/OP/PW/DU/CJ/SF/MD/SI/SS/SP/F37/F48/,9892CA93706,-119.79918940914763,36.73262046497898,100.0
Addiction Research and Treatment Inc,Bay Area Addiction Research and Trt,,539 North Van Ness Avenue,,,Fresno,CA,93728,(559)266-9581,,Methadone Clients Only,SA/TX/DT/MM/DM/OP/PW/SF/MD/MC/SS/SP/F4/F37/,2650CA93728,-119.79892747467345,36.751197989448535,100.0
Aegis Medical Systems Inc,,,3707 East Shields Avenue,,,Fresno,CA,93726,(559)229-9040 Intake: (559)229-9040x0,,Methadone Clients Only,SA/TX/DT/MM/DM/OP/CO/HV/GL/SE/PW/WN/MN/CJ/SF/MD/MC/SS/SP/F37/,7237CA93726,-119.76318796154258,36.779687491608684,100.0
BAART Behavioral Health Services Inc,Detox Program,,539 North Van Ness Avenue,,,Fresno,CA,93728,(559)266-9581 Intake: (559)266-9581x0,,Methadone Clients Only,SA/TX/DT/MM/DM/OP/PW/SF/MD/MC/SS/SP/F4/F37/,2650CA93728,-119.79892747467345,36.751197989448535,100.0
MedMark Treatment Centers Inc,,,1310 M Street,,,Fresno,CA,93721,(559)264-2700,,Methadone Clients Only,SA/TX/DT/MM/DM/OP/PW/WN/SF/SI/SS/SP/F37/,2001CA93721,-119.79054138054623,36.739280264237635,100.0
Western Pacific Med Corp,Western Pacific Fullerton Medical,,218 East Commonwealth Avenue,,,Fullerton,CA,92832,(714)992-4770 Hotline: (714)992-4770,,Methadone Clients Only,SA/TX/DT/MM/DM/OP/HV/PW/SF/MD/PI/SS/PA/SP/F4/,8233CA92832,-117.92112601824158,33.870352536379464,100.0
Western Pacific Med Corp,Western Pacific Glendale Medical,,4628 San Fernando Road,,,Glendale,CA,91204,(818)240-8843 Hotline: (818)240-8843,,Methadone Clients Only,SA/TX/DT/MM/DM/OP/HV/PW/SF/MD/PI/SS/PA/SP/F4/,7209CA91204,-118.26391006739055,34.136266277235144,100.0
Western Health Harbor City Clinic,,,1647 West Anaheim Street,,,Harbor City,CA,90710,(310)534-5590 Intake: (310)534-5590x0,,Methadone and Buprenorphine Clients Only,MH-SA/TX/DT/MM/DM/BU/OP/SF/MD/MC/SI/PI/MI/SS/SP/F36/,9765CA90710,-118.28720845199085,33.778691964537714,99.03
Hawaiian Gardens Medical and Mental Health Services,,,21505 Norwalk Boulevard,,,Hawaiian Gardens,CA,90716,(562)916-7581,,Methadone Clients Only,SA/TX/DT/MM/DM/OP/SF/MD/SP/F81/,3992CA90716,-118.07206749826307,33.834009987224825,100.0
Successful Alternatives for,Addiction Counseling Servs Inc (SAACS),,795 Fletcher Lane,,,Hayward,CA,94544,(510)247-8300,,Methadone Clients Only,SA/TX/DT/MM/DM/OP/PW/SF/MD/SS/,6199CA94544,-122.08051940523107,37.66548085849054,100.0
Aegis Medical Systems Inc,,,11959 Mariposa Road,Suite 2,,Hesperia,CA,92345,(760)956-2462 Intake: (760)956-2462x0,,Methadone Clients Only,SA/TX/DT/MM/DM/OP/CO/HV/SE/PW/WN/MN/CJ/SF/SI/PI/MI/SP/,9977CA92345,-117.3462307254533,34.46803386531209,100.0
Aegis Medical Systems Inc,,,614 West Manchester Boulevard,Suite 104,,Inglewood,CA,90301,(310)412-0879,,Methadone Clients Only,MH-SA/TX/DT/MM/DM/OP/CO/PW/WN/MN/CJ/SF/MD/MC/SS/SP/,4931CA90301,-118.36726698017084,33.96153247168356,100.0
El Dorado Community Service Center,Inglewood Medical/Mental Health Servs,,4450 West Century Boulevard,,,Inglewood,CA,90304,(310)671-0555x229 Intakes: (310)671-0555 (310)671-2797,,Methadone and Buprenorphine Clients Only,MH-SA/TX/DT/MM/DM/BU/OP/SF/MC/PI/SP/,9273CA90304,-118.35400102583412,33.94541252122507,100.0
Aegis Medical Systems Inc,La Mirada Methadone Treatment Program,,14240 East Imperial Highway,,,La Mirada,CA,90638,(562)946-1587 Intake: (800)821-0775,,Methadone Clients Only,SA/TX/DT/MM/DM/OP/WN/MN/SF/MD/MC/SI/SS/AH/SP/,3070CA90638,-118.02825491317932,33.91703100106978,98.87
BAART Bay Area Addict Research Trt,Addiction Research and Treatment Inc,,15229 East Amar Road,,,La Puente,CA,91744,(626)855-5090,,Methadone Clients Only,SA/TX/MM/OP/PW/SF/MD/SP/F17/F36/F81/,1948CA91744,-117.95262155858437,34.03786678261465,100.0
Western Pacific Lancaster,,,45335 North Sierra Highway,,,Lancaster,CA,93534,(661)949-8599 Hotline: (661)949-8599,,Methadone Clients Only,SA/TX/DT/MM/DM/OP/HV/PW/SF/MD/PI/SS/PA/SP/F4/,0572CA93534,-118.13837039270544,34.70685265243158,98.87
Western Pacific Medical Corporation,Western Pacific Antelope Valley Med,,45335 North Sierra Highway,,,Lancaster,CA,93534,(661)949-8599,,Methadone Clients Only,SA/TX/DT/MM/DM/OP/HV/PW/SF/MD/PI/SS/PA/SP/F4/,0572CA93534,-118.13837039270544,34.70685265243158,98.87
Lawndale Medical and Mental Health Services,,,4023 Marine Avenue,,,Lawndale,CA,90260,(310)675-9555,,Methadone and Buprenorphine Clients Only,MH-SA/TX/DT/MM/DM/BU/OP/SF/MC/PI/SP/,5646CA90260,-118.34461999980014,33.89467744803744,100.0
Department of Veterans Affairs,Long Beach Healthcare System,,5901 East 7th Street,Unit 116A-SATC,,Long Beach,CA,90822,(562)826-5610,,,SA/TX/DT/MM/DM/BU/OP/PH/CO/SF/MD/MC/SI/PI/MI/PA/,3584CA90822,-118.12000226493237,33.7754489707049,99.52
West County Medical Clinic,Substance Abuse Program,,100 East Market Street,,,Long Beach,CA,90805,(562)428-4222,,Methadone and Buprenorphine Clients Only,SA/TX/DT/MM/DM/BU/OP/PW/SF/MD/SP/,0663CA90805,-118.19365093339657,33.854231067257764,100.0
West County Medical Corporation,,,2272 Pacific Avenue,Suite A,,Long Beach,CA,90806,(562)427-8018,,Methadone and Buprenorphine Clients Only,SA/TX/DT/MM/DM/BU/OP/PW/SF/MD/PI/AH/SP/,5928CA90806,-118.19364247759502,33.798541000019085,100.0
Addiction Research and Treatment Inc,,,1926 West Beverly Boulevard,,,Los Angeles,CA,90057,(213)353-1140 Intake: (213)607-2010,,Methadone Clients Only,SA/TX/MM/OP/PW/SF/SI/PI/SP/,3964CA90057,-118.26849915937919,34.065823966667864,98.87
Addiction Research and Treatment Inc,,,4920 South Avalon Boulevard,,,Los Angeles,CA,90011,(323)235-5035 Intake: (310)235-5035,,Methadone and Buprenorphine Clients Only,SA/TX/MM/BU/OP/PW/SF/MD/SS/SP/F25/,0470CA90011,-118.26521253132496,33.998127986676124,98.87
American Health Services,Hollywood Medical Mental Health Servs,,5015 West Pico Boulevard,,,Los Angeles,CA,90019,(323)653-1677,,Methadone Clients Only,SA/TX/DT/MM/DM/OP/CO/PW/SF/SI/SP/,7671CA90019,-118.34638397132343,34.047807484887485,100.0
BuenaCare,AltaMed Health Services,,1701 Zonal Avenue,,,Los Angeles,CA,90033,(323)223-6146,,Methadone and Buprenorphine Clients Only,GH/TX/MM/BU/OP/CJ/SF/MD/MC/PI/SS/SP/,4574CA90033,-118.21031257426844,34.06188539418482,100.0
Matrix Institute,,,5220 West Washington Boulevard,Suite 101,,Los Angeles,CA,90016,(323)933-9186 Hotlines: (800)310-7700 (310)207-4322,,Methadone and Buprenorphine Clients Only,SA/TX/DT/MM/DM/BU/OP/CO/HV/PW/WN/MN/CJ/SF/MD/MC/SS/PA/SP/,5328CA90016,-118.35469948982576,34.0414235340624,100.0
Narcotics Prevention Project/Methadone,Maintenance Treatment Program,,942 South Atlantic Boulevard,,,Los Angeles,CA,90022,(323)263-9700 Intakes: (323)263-9700x0 (866)677-6190,,Methadone and Buprenorphine Clients Only,SA/TX/DT/MM/DM/BU/OP/CO/HV/GL/SE/PW/WN/MN/CJ/SF/MD/MC/SS/SP/,1178CA90022,-118.15762066196535,34.01924967021644,100.0
Tri City Institute,Pajo Corporation,,2080 Century Park East,Suite 1802,,Los Angeles,CA,90067,(310)553-9500,,Methadone and Buprenorphine Clients Only,SA/TX/DT/MM/DM/BU/OP/DU/SF/MD/SP/F25/,5332CA90067,-118.41206691153894,34.0586280608824,100.0
Tri City Institute,South,,11900 Avalon Boulevard,Suite 200,,Los Angeles,CA,90061,(310)242-0500 Intake: (323)242-0500,,Methadone and Buprenorphine Clients Only,SA/TX/DT/MM/DM/BU/OP/SF/SP/,5808CA90061,-118.26520808891628,33.924511156009736,100.0
VA Greater LA Healthcare System,,,11301 Wilshire Boulevard,,,Los Angeles,CA,90073,(310)478-3711 Intakes: (310)478-3711x83904 (310)478- 3711x83173,,,GH/TX/DT/MM/DM/HH/BU/HI/RS/RL/OP/PH/CO/SE/SF/MD/MC/SI/PI/MI/SS/PA/,2494CA90073,-118.45846195691887,34.052430748721186,99.51
Veterans Affairs Outpatient Clinic,Opiate Treatment Program,,351 East Temple Street,Unit 11-C,,Los Angeles,CA,90012,(213)253-2677,,,GH/TX/MM/BU/OP/CO/SE/CJ/SF/MC/PI/MI/PA/SP/,6088CA90012,-118.23847778059469,34.05149229525194,100.0
Wilshire Treatment Center Inc,,,11901 Santa Monica Boulevard,Suite 204,,Los Angeles,CA,90025,(310)268-2446x268 Intakes: (310)268-2446 (310)268-2456,,Methadone and Buprenorphine Clients Only,SA/TX/DT/MM/DM/BU/OP/SF/MD/SP/F4/F25/,9099CA90025,-118.46079728494438,34.04205322453848,100.0
Addiction Research and Treatment Inc,Bay Area Addiction Research and Trt,,11315 South Atlantic Avenue,,,Lynwood,CA,90262,(310)537-5883,,Methadone Clients Only,SA/TX/MM/OP/PW/SF/MD/AH/SP/F36/,7968CA90262,-118.1869090433172,33.92273394107947,98.87
Addiction Treatment Serv of Marysville,(ATS),,1496 North Beale Road,,,Marysville,CA,95901,(530)749-8640,,Methadone Clients Only,SA/TX/DT/MM/DM/OP/PW/CJ/SF/MD/,5127CA95901,-121.56161874951916,39.127420560372975,100.0
Aegis Medical Systems Inc,,,320 H Street,Suite 2,,Marysville,CA,95901,(530)742-7747,,Methadone Clients Only,SA/TX/DT/MM/DM/OP/SF/MD/MC/MI/SS/,3029CA95901,-121.59487512036924,39.13824608043687,100.0
San Mateo Medical Center,Methadone Treatment Program,,795 Willow Road,Building 332,,Menlo Park,CA,94025,(650)578-7190,,Methadone Clients Only,SA/TX/DT/MM/DM/OP/CO/HV/GL/SE/PW/WN/MN/CJ/SF/SI/SP/,6092CA94025,-122.1575348767263,37.46499402906239,100.0
Aegis Medical Systems Inc,,,1343 West Main Street,Suites A and B,,Merced,CA,95340,(209)725-1060 Intake: (818)206-0360,,Methadone Clients Only,SA/TX/DT/MM/DM/OP/WN/MN/SF/MD/SS/SP/F37/,4715CA95340,-120.49623593711118,37.306204325196475,100.0
Aegis Medical Systems Inc,,,103 and 111 Modesto Avenue,,,Modesto,CA,95354,(209)527-4597 Hotline: (800)821-0775,,Methadone Clients Only,SA/TX/DT/MM/DM/OP/PW/WN/MN/SF/MD/MC/MI/SS/SP/F37/F67/,1128CA95354,-120.99338170187241,37.64966081252775,98.33
Stanislaus County (BHRS),Genesis Narcotic Replacement Therapy,,800 Scenic Drive,Building 4,,Modesto,CA,95350,(209)525-6146,,Methadone Clients Only,SA/TX/DT/MM/DM/OP/SF/MD/PI/MI/AH/SP/,2802CA95350,-120.98380797588443,37.647222474984396,100.0
WCHS Inc,,,40700 California Oaks Road,Suites 201 202 and 203,,Murrieta,CA,92562,(951)894-5072 Hotline: (877)637-6237,,,SA/TX/DT/MM/DM/OP/PW/WN/SF/SI/PI/,7763CA92562,-117.20448480285371,33.57064006947205,100.0
El Dorado Community Service Center,Santa Clarita Med/Mental Health Servs,,24625 Arch Street,,,Newhall,CA,91321,(661)288-2644 Intakes: (661)288-2644x0 (818)779-0555x0,,,MH/TX/DT/MM/DM/BU/OP/PW/SF/,6536CA91321,-118.52927807160722,34.38497426152924,100.0
Sepulveda VA OPC and Nursing Home,Chemical Dependency Treatment Unit,,16111 Plummer Street,,,North Hills,CA,91343,(818)891-7711x7730 Intake: (818)891-7711,,,MH-SA/TX/DT/MM/BU/OP/PH/CO/WN/MI/,4059CA91343,-118.48324863169493,34.24292260047187,100.0
Sepulveda VA OPC and Nursing Home,OTP Treatment/Maintenance,,16111 Plummer Street,,,North Hills,CA,91343,(818)895-9480,,Methadone and Buprenorphine Clients Only,SA/TX/MM/BU/OP/PA/,4059CA91343,-118.48324863169493,34.24292260047187,100.0
Veterans Affairs Medical Center,Chemical Dependency Treatment Program,,16111 Plummer Street,Building 10 B-B101,,North Hills,CA,91343,(818)891-7711x7730 Intakes: (818)895-9480 (818)891-7711x9480,,,MH-SA/TX/DT/MM/DM/BU/OP/PH/MI/,4059CA91343,-118.48324863169493,34.24292260047187,100.0
Western Pacific Med Corp,Western Pacific North Hollywood Med,,11321 Camarillo Street,,,North Hollywood,CA,91602,(818)506-4455 Hotline: (818)506-4455,,Methadone Clients Only,SA/TX/DT/MM/DM/OP/HV/PW/SF/MD/PI/SS/PA/SP/F4/,1996CA91602,-118.37812565191558,34.15767562769252,100.0
Western Pacific Norwalk Medical Clinic,,,11902 East Rosecrans Boulevard,,,Norwalk,CA,90650,(562)929-7188 Hotline: (562)929-7188,,Methadone Clients Only,SA/TX/DT/MM/DM/OP/HV/PW/SF/MD/PI/SS/PA/SP/F4/,9468CA90650,-118.07967860162243,33.90212749312725,96.93
Addiction Research and Treatment Inc,,,1124 International Boulevard,,,Oakland,CA,94606,(510)533-0800,,Methadone Clients Only,SA/TX/DT/MM/DM/OP/PW/SF/SI/PI/SS/SP/F25/F37/F70/N18/,5786CA94606,-122.24843071878344,37.79100966536958,100.0
BAART Behavioral Health Services Inc,,,1124 International Boulevard,,,Oakland,CA,94606,(510)533-0800,,Methadone Clients Only,SA/TX/DT/MM/DM/OP/SF/PI/SS/SP/F25/F37/F70/N18/,5786CA94606,-122.24843071878344,37.79100966536958,100.0
10850 MacArthur Boulevard,,,Suite 200,,,Oakland,CA,94605,(510)875-2300x246 Intake: (510)875-2300x245,,Methadone Clients Only,SA/TX/DT/MM/DM/OP/WN/SF/MD/PI/PA/,6873CA94605,-122.18582999999997,37.77097500000008,85.45
Lifeline Treatment Services Inc,,,9442-9500 International Boulevard,,,Oakland,CA,94603,(510)777-8448 Hotline: (510)712-6601,,Methadone Clients Only,SA/TX/DT/MM/DM/OP/SF/MD/MI/SS/,7049CA94603,-122.17199790392624,37.74652053497108,99.09
VA Mental Health Clinic,,,525 21st Street,,,Oakland,CA,94612,(510)587-3400 Hotline: (800)382-8387,,,MH-SA/TX/MM/BU/OP/PI/MI/,9466CA94612,-122.27043426016888,37.810433795605896,100.0
Aegis Medical Systems Inc,,,125 West F Street,Suite 101,,Ontario,CA,91762,(909)986-4550 Hotline: (877)722-4468,,Methadone Clients Only,SA/TX/DT/MM/DM/OP/CO/HV/PW/WN/MN/CJ/SF/MD/MC/SS/AH/SP/,3044CA91762,-117.65216901789054,34.069392520035265,100.0
Aegis Medical Systems Inc,,,2055 Saviers Road,Suite 10,,Oxnard,CA,93033,(805)483-2253,,Methadone Clients Only,SA/TX/DT/MM/DM/OP/PW/SF/MD/PI/SS/SP/,5598CA93033,-119.17760549074865,34.17922579412313,100.0
Desert Treatment Center,,,1330 North Indian Canyon Drive,Suites A B and C,,Palm Springs,CA,92262,(760)322-9065,,Methadone and Buprenorphine Clients Only,SA/TX/DT/MM/DM/BU/OP/PW/CJ/SF/MD/PI/MI/SP/F81/,4877CA92262,-116.54557255867188,33.841419002898704,100.0
American Health Services,Palmdale Medical,,2720 East Palmdale Boulevard,Suite 129,,Palmdale,CA,93550,(661)947-3333 Hotline: (310)671-0555,,Methadone and Buprenorphine Clients Only,SA/TX/DT/MM/DM/BU/OP/SF/MD/MC/SI/PI/SS/SP/,9374CA93550,-118.08006601318719,34.58016248167484,100.0
Western Pacific Med Corp,Western Pacific Panorama Medical,,9462 Van Nuys Boulevard,,,Panorama City,CA,91402,(818)891-8555 Hotline: (818)891-8555,,Methadone Clients Only,SA/TX/DT/MM/DM/OP/HV/PW/SF/MD/PI/SS/PA/SP/F4/,9110CA91402,-118.45020255933056,34.242319019624176,100.0
Aegis Medical Systems Inc,,,1724 East Washington Boulevard,,,Pasadena,CA,91104,(626)794-1161 Intake: (626)794-1161x0 Hotline: (877)722-4468,,Methadone Clients Only,SA/TX/DT/MM/DM/OP/HV/PW/SF/MD/SP/,4499CA91104,-118.11517218971399,34.16909597076895,100.0
Eastside Health Services,,,5200 San Gabriel Place,Suites B and C,,Pico Rivera,CA,90660,(562)222-1331 Intake: (310)671-0555x0,,Methadone Clients Only,SA/TX/DT/MM/DM/OP/PW/SF/MD/MC/SS/SP/,0933CA90660,-118.084019840734,33.99841846153065,100.0
Tavarua Health Services,Outpatient,,8207 Whittier Boulevard,,,Pico Rivera,CA,90660,(562)695-0737,,Methadone Clients Only,SA/TX/DT/MM/DM/OP/AD/SF/MD/MC/SS/SP/,3991CA90660,-118.09611098752177,34.00693900138462,100.0
Tavarua Health Services,Rehab Services,,8207 Whittier Boulevard,,,Pico Rivera,CA,90660,(562)695-0737,,Methadone Clients Only,SA/TX/DT/MM/DM/OP/SF/MD/SS/SP/F17/,3991CA90660,-118.09611098752177,34.00693900138462,100.0
Aegis Medical Systems Inc,,,1050 North Garey Avenue,,,Pomona,CA,91767,(909)623-6391 Intake: (909)623-6391x0,,Methadone Clients Only,SA/TX/DT/MM/DM/OP/CO/PW/MN/SF/MC/SS/,9109CA91767,-117.75208256102721,34.06841900389102,100.0
Western Pacific Med Corp,Western Pacific Reseda Medical,,7232 Canby Avenue,Suites 4 5 and 6,,Reseda,CA,91335,(818)705-5561 Hotline: (818)705-5561,,Methadone Clients Only,SA/TX/DT/MM/DM/OP/HV/PW/SF/MD/PI/SS/PA/SP/F4/,4951CA91335,-118.53475945002151,34.20217632511732,100.0
Addiction Research and Treatment Inc,,,1313 Cutting Boulevard,,,Richmond,CA,94804,(510)232-0874,,Methadone and Buprenorphine Clients Only,SA/TX/DT/MM/DM/BU/OP/SF/MD/MC/PI/SS/SP/F48/F58/F81/F86/,3209CA94804,-122.35654402633968,37.92523754664014,100.0
BAART Behavioral Health Services Inc,,,1313 Cutting Boulevard,,,Richmond,CA,94804,(510)232-0874,,Methadone and Buprenorphine Clients Only,SA/TX/DT/MM/DM/BU/OP/SF/MD/MC/PI/SS/SP/F48/F58/F81/F86/,3209CA94804,-122.35654402633968,37.92523754664014,100.0
Western Clinical Health Servs (WCHS),DBA Riverside Treatment Center,,1021 West La Cadena Drive,,,Riverside,CA,92501,(951)784-8010,,Methadone and Buprenorphine Clients Only,SA/TX/DT/MM/DM/BU/OP/SF/MD/PI/MI/SP/,6648CA92501,-117.35046088331309,34.00418817881411,100.0
Aegis Medical Systems Inc,Roseville,,1133 Coloma Way,Suite C,,Roseville,CA,95661,(916)774-6647,,Methadone Clients Only,SA/TX/DT/MM/DM/OP/PW/WN/MN/SF/SI/SS/F37/,3583CA95661,-121.2734400300651,38.73639748372905,100.0
Bi Valley Medical Clinic,Norwood,,310 Harris Avenue,Suite A,,Sacramento,CA,95838,(916)649-6793x3324 Intake: (916)649-6793 Hotline: (916)649-6793,,Methadone and Buprenorphine Clients Only,SA/TX/DT/MM/DM/BU/OP/CO/SF/MD/SI/PI/SS/SP/F37/F92/,5735CA95838,-121.45857104168208,38.63813211612316,100.0
MedMark Treatment Centers Inc,Sacramento,,7240 East Southgate Drive,Suites E and G,,Sacramento,CA,95823,(916)391-4293x1227 Intake: (916)391-4293 Hotline: (877)331-3630,,Methadone Clients Only,SA/TX/DT/MM/DM/OP/HV/GL/SE/PW/WN/MN/CJ/SF/MD/SS/PA/SP/F37/F48/F81/,0675CA95823,-121.43837635472342,38.49435984552576,100.0
Treatment Associates Inc,Sacramento Treatment Clinic,,7225 East Southgate Drive,Suite D,,Sacramento,CA,95823,(916)394-1000,,,SA/TX/DT/MM/DM/BU/OP/PH/PW/WN/SF/SI/PI/SS/F37/,8717CA95823,-121.43570244379141,38.494887821606774,100.0
Community Human Services,Off Main Clinic,,1083 South Main Street,,,Salinas,CA,93901,(831)424-4828,,Methadone Clients Only,SA/TX/DT/MM/DM/OP/SF/MC/SI/SP/,9892CA93901,-121.65837373661701,36.660743717411755,100.0
Valley Health Associates,,,338 Monterey Street,,,Salinas,CA,93901,(831)424-6655x22 Intake: (831)424-6655x10 Hotline: (831)424-6655,,,SA/TX/DT/MM/DM/OP/CJ/SF/MD/SI/AH/SP/,2061CA93901,-121.65347074235493,36.672607379347355,100.0
Home Avenue Clinic,,,3940 Home Avenue,,,San Diego,CA,92105,(619)262-8000 Hotline: (866)762-3766,,Methadone and Buprenorphine Clients Only,SA/TX/DT/MM/DM/BU/OP/PW/WN/MN/SF/MD/MC/SS/SP/,7696CA92105,-117.11006875946659,32.720279354937546,100.0
Mission Treatment Services Inc,San Diego,,6691 Convoy Court,,,San Diego,CA,92111,(858)715-1211,,Methadone Clients Only,SA/TX/DT/MM/DM/OP/PW/WN/MN/CJ/SF/MD/MC/PI/MI/SS/SP/,3410CA92111,-117.16770021112993,32.83461094500238,100.0
Progressive Medical Specialists Inc,,,4974 El Cajon Boulevard,Suite A,,San Diego,CA,92115,(619)286-4600 Intake: (877)938-4600,,Methadone and Buprenorphine Clients Only,SA/TX/DT/MM/DM/BU/OP/SF/SI/SS/SP/,7196CA92115,-117.08722379854288,32.756767246293336,100.0
San Diego Health Alliance,West Office,,7020 Friars Road,,,San Diego,CA,92108,(619)718-9890 Hotline: (866)762-3766,,Methadone and Buprenorphine Clients Only,SA/TX/DT/MM/DM/BU/OP/CO/PW/WN/SF/MD/MC/PI/SS/SP/,9060CA92108,-117.16995896639769,32.76950270997806,100.0
BAART Behavioral Health Services Inc,Market Street Clinic,,1111 Market Street,,,San Francisco,CA,94103,(415)863-3883 Intake: (415)863-3883x153,,Methadone and Buprenorphine Clients Only,SA/TX/DT/MM/DM/BU/OP/SF/MD/PI/MI/SS/AH/SP/F17/F81/,5236CA94103,-122.4127548292338,37.780251073548605,100.0
BAART Turk Street Clinic,,,433 Turk Street,,,San Francisco,CA,94102,(415)928-7800,,Methadone and Buprenorphine Clients Only,SA/TX/DT/MM/DM/BU/OP/PW/SF/MD/SS/AH/SP/F28/F42/F81/,2824CA94102,-122.41633029767141,37.78247068532852,100.0
Bayview Hunters Point Foundation,Substance Abuse Programs,,1625 Carroll Street,,,San Francisco,CA,94124,(415)822-8200x12 Intake: (415)822-8200x14,,Methadone Clients Only,SA/TX/DT/MM/DM/OP/HV/SF/SI/AH/,3857CA94124,-122.39364129927502,37.7250379115541,98.04
Fort Help LLC,,,915 Bryant Street,,,San Francisco,CA,94103,(415)777-9953,,Methadone and Buprenorphine Clients Only,MH/TX/DT/MM/DM/BU/OP/CO/PW/SF/SI/SP/F30/,1648CA94103,-122.40502202064027,37.774044525704326,100.0
San Francisco General Hospital (SFGH),Opiate Trt Outpt Prog/Methadone Detox,,1001 Potrero Avenue,Building 93,,San Francisco,CA,94110,(415)206-8412,,Methadone Clients Only,SA/TX/DT/MM/DM/OP/CO/HV/PW/WN/SS/PA/AH/SP/,9344CA94110,-122.40659220256195,37.75606672640709,100.0
San Francisco General Hospital (SFGH),Substance Abuse Servs/Meth Maintenance,,1001 Potrero Avenue,Building 90 Ward 93,,San Francisco,CA,94110,(415)206-8412,,Methadone Clients Only,SA/TX/DT/MM/DM/OP/HV/GL/PW/WN/SF/MD/PI/SS/SP/F17/F70/,9344CA94110,-122.40659220256195,37.75606672640709,100.0
Tom Waddell Health Center,,,50 Ivy Street,,,San Francisco,CA,94102,(415)355-7400,,,GH/TX/MM/DM/BU/OP/SF/MD/MC/SI/SS/PA/F70/,7643CA94102,-122.41855163439091,37.777993518805545,100.0
Westside Methadone Treatment Program,,,1301 Pierce Street,,,San Francisco,CA,94115,(415)563-8200,,Methadone Clients Only,SA/TX/DT/MM/DM/OP/CO/HV/SF/MD/MC/SS/PA/SP/F17/F81/,6625CA94115,-122.43591696137376,37.78236448661534,100.0
Santa Clara Cnty Dept of Alc/Drug Serv,Central Valley Methadone Clinic,,2425 Enborg Lane,,,San Jose,CA,95128,(408)885-5400 Intake: (800)488-9919,,Methadone and Buprenorphine Clients Only,SA/TX/DT/MM/DM/HH/BU/OP/SF/MD/SI/PI/SS/SP/,2986CA95128,-121.93809704014014,37.313171991758594,100.0
CRC Health Group,Capalina Clinic,,1560 Capalina Road,,,San Marcos,CA,92069,(760)744-2104 Intake: (760)744-2106,,,SA/TX/DT/MM/DM/BU/OP/CO/PW/WN/MN/SF/SI/PI/SP/,1216CA92069,-117.19464098904032,33.150886009983246,100.0
Santa Clara Department of Alcohol and Drug Programs/South County Meth Clinic,,,80 West Highland Avenue,,,San Martin,CA,95046,(408)683-4053,,Methadone and Buprenorphine Clients Only,SA/TX/DT/MM/DM/BU/OP/SF/MD/SI/PI/SS/SP/,4039CA95046,-121.60567344241095,37.07391618149045,98.87
Marin Treatment Center,Outpatient Services,,1466 Lincoln Avenue,,,San Rafael,CA,94901,(415)457-3755,,,SA/TX/DT/MM/DM/BU/OP/CJ/SF/MC/SI/SS/SP/,9178CA94901,-122.52207781305628,37.97998130693104,100.0
California Treatment Services,DBA Recovery Solutions of Santa Ana,,2101 East 1st Street,,,Santa Ana,CA,92705,(714)542-3581x107 Intake: (714)542-3581 Hotline: (866)762-3766,,Methadone and Buprenorphine Clients Only,SA/TX/DT/MM/DM/BU/OP/HV/GL/SE/PW/WN/MN/CJ/SF/MD/PI/SS/AH/SP/F66/F81/F92/F96/,8602CA92705,-117.83692301150269,33.74575747351434,100.0
Aegis Medical Systems Inc,Santa Barbara,,4129 State Street,,,Santa Barbara,CA,93110,(805)964-4795,,Methadone Clients Only,SA/TX/DT/MM/DM/OP/PW/SF/MD/MC/SI/SS/,2416CA93110,-119.76075100701335,34.44047253320003,100.0
Janus Community Clinic,,,1000 Emeline Avenue,Suite A,,Santa Cruz,CA,95060,(831)425-0112,,Methadone and Buprenorphine Clients Only,SA/TX/MM/BU/OP/CO/PW/CJ/SF/SI/MI/SP/,8076CA95060,-122.01764431875999,36.9915297427176,100.0
Aegis Medical Systems Inc,Santa Maria Unit,,115 East Fesler Street,,,Santa Maria,CA,93454,(805)922-6597,,Methadone Clients Only,SA/TX/DT/MM/DM/OP/PW/SF/MD/SI/SS/SP/F42/,0579CA93454,-120.43503304032377,34.956487470751924,100.0
Aegis Medical Systems Inc,,,625 East Main Street,,,Santa Paula,CA,93060,(805)525-4669,,Methadone Clients Only,SA/TX/DT/MM/DM/OP/PW/SF/MD/MC/SI/PI/SS/AH/SP/F47/F81/,0296CA93060,-119.06639171720781,34.3519502898455,100.0
Drug Abuse Alternatives Center (DAAC),Redwood Empire Addictions Prog (REAP),,2403 Professional Drive,Suite 103,,Santa Rosa,CA,95403,(707)526-2999 Hotline: (707)526-2999,,Methadone Clients Only,SA/TX/DT/MM/DM/OP/SF/MD/MC/,6468CA95403,-122.72472792431928,38.46329466833895,100.0
Santa Rosa Treatment Program Inc,,,1901 Cleveland Avenue,Suite B,,Santa Rosa,CA,95401,(707)576-0818x302 Intake: (707)576-0818,,Methadone Clients Only,SA/TX/DT/MM/DM/OP/PW/SF/SI/SP/,1786CA95401,-122.72642534353147,38.45466051178735,100.0
Aegis Medical Systems Inc,,,2650 Jones Way,Suite 10,,Simi Valley,CA,93065,(805)522-1844,,Methadone Clients Only,SA/TX/DT/MM/DM/OP/PW/SF/MD/MC/SI/PI/SS/,8103CA93065,-118.74596798734085,34.2886125223192,100.0
Western Pacific Med Corp,Western Pacific Stanton Medical,,10751 Dale Street,,,Stanton,CA,90680,(714)821-5311 Hotline: (714)821-5311,,Methadone Clients Only,SA/TX/DT/MM/DM/OP/HV/PW/SF/MD/PI/SS/PA/SP/F4/,2536CA90680,-117.98452254290913,33.80610579336347,98.04
5th Street Medical Clinic,,,1839 South El Dorado Street,,,Stockton,CA,95206,(209)463-0872,,Methadone Clients Only,SA/TX/MM/OP/CJ/SF/MC/SS/F37/F81/,5179CA95206,-121.28451922968249,37.9331696349816,100.0
Aegis Medical Systems Inc,,,8626 Lower Sacramento Road,Suite 41,,Stockton,CA,95210,(209)478-2487 Intake: (209)478-2487x0 Hotline: (800)821-0775,,Methadone Clients Only,SA/TX/DT/MM/DM/OP/CO/HV/SE/PW/WN/MN/CJ/SF/MD/MI/F37/,0098CA95210,-121.32265864933004,38.02915311326698,100.0
Healthy Connections Inc,,,1947 North California Street,Suites B and C,,Stockton,CA,95204,(209)463-0870,,Methadone Clients Only,SA/TX/DT/MM/DM/OP/PW/SF/MD/SS/,6630CA95204,-121.28966764606987,37.9719036249313,100.0
MedMark Treatment Centers,Stockton,,1107-1111 North El Dorado Street,33 East Magnolia Street Suites 3 and 5,,Stockton,CA,95202,(205)938-0228 Intake: (209)938-0228,,Methadone and Buprenorphine Clients Only,SA/TX/DT/MM/DM/BU/OP/HV/PW/SF/MD/MC/MI/SP/F37/F43/F81/,1783CA95202,-121.292864219958,37.963702169645025,99.05
Narcotic Addiction Trt Agency Inc,(NATA),,8741 Laurel Canyon Boulevard,,,Sun Valley,CA,91352,(818)768-5525 Intake: (818)768-5525x0,,Methadone Clients Only,SA/TX/DT/MM/DM/OP/PW/SF/MD/,3403CA91352,-118.39992555715143,34.228367593245714,100.0
Tarzana Treatment Center Inc,,,18646 Oxnard Street,,,Tarzana,CA,91356,(800)996-1051,,Methadone and Buprenorphine Clients Only,SA/TX/MM/DM/BU/HI/RS/RL/OP/PH/AD/CO/BC/DU/CJ/SF/MD/PI/MI/AR/AH/SP/F70/F81/,0177CA91356,-118.53975447758091,34.17993419066989,100.0
Kings View,Substance Abuse Program Tulare County,,559 East Bardsley Avenue,,,Tulare,CA,93274,(559)688-7531,,Methadone and Buprenorphine Clients Only,SA/TX/MM/DM/BU/OP/CJ/SF/SI/SS/SP/,5757CA93274,-119.34059302291858,36.19621197981583,100.0
Successful Alternatives for,Addiction Counseling Servs Inc (SAACS),,1628 Broadway Street,,,Vallejo,CA,94590,(707)649-8300,,Methadone Clients Only,SA/TX/DT/MM/DM/OP/SF/SI/SS/PA/F65/,0181CA94590,-122.25000249326686,38.12473773868979,100.0
American Health Services,Van Nuys,,6265 Sepulveda Boulevard,Suite 9,,Van Nuys,CA,91411,(818)779-0555 Intake: (818)779-0555x0,,,MH-SA/TX/DT/MM/DM/BU/OP/CO/PW/SF/SS/SP/,2656CA91411,-118.46621744263287,34.184380455028446,100.0
Western Pacific Med Corp,Western Pacific Van Nuys Medical,,14332 Victory Boulevard,,,Van Nuys,CA,91401,(818)989-1996 Hotline: (818)989-1996,,Methadone Clients Only,SA/TX/DT/MM/DM/OP/HV/PW/SF/MD/PI/SS/PA/SP/F4/,0054CA91401,-118.44557499440646,34.18664252114788,100.0
American Health Services LLC,Venice Medical and Mental Health Servs,,717 Lincoln Boulevard,,,Venice,CA,90291,(310)399-9883 Intake: (310)399-9883x0 Hotline: (310)671-0555,,Methadone and Buprenorphine Clients Only,SA/TX/DT/MM/DM/BU/OP/PW/SF/MC/MI/SS/SP/F81/,3833CA90291,-118.464074692905,33.999496625736086,100.0
Western Pacific Med Corp,Western Pacific Ventura Medical,,955 East Thompson Boulevard,,,Ventura,CA,93001,(805)641-9100 Hotline: (805)641-9100,,Methadone Clients Only,SA/TX/DT/MM/DM/OP/HV/PW/SF/MD/PI/SS/PA/SP/F4/,9758CA93001,-119.28616739776274,34.27831552190632,100.0
BAART Programs,Addiction Research and Treatment Inc,,1646 South Court Street,,,Visalia,CA,93277,(559)625-8890,,Methadone Clients Only,SA/TX/DT/MM/DM/OP/PW/SF/MD/PI/SS/AH/SP/F66/F81/,0396CA93277,-119.29132553715786,36.31577584720951,100.0
Aegis Medical Systems Inc,,,1825 East Thelborn Street,,,West Covina,CA,91791,(626)915-3844,,Methadone Clients Only,SA/TX/DT/MM/DM/OP/CO/SE/PW/WN/MN/CJ/SF/MD/PI/SS/PA/SP/F81/,0037CA91791,-117.90686203069372,34.07731748375922,100.0
Aegis Medical Systems Inc,,,1322 North Avalon Boulevard,,,Wilmington,CA,90744,(310)513-1300 Intake: (310)513-1301 Hotline: (877)722-4468,,Methadone Clients Only,MH-SA/TX/DT/MM/DM/OP/PW/SF/MC/SS/SP/,8196CA90744,-118.26316466474115,33.78949357373151,100.0
Transcultural Health Development,,,117 East Harry Bridges Boulevard,,,Wilmington,CA,90744,(310)549-8383 Hotline: (866)762-3766,,Methadone and Buprenorphine Clients Only,SA/TX/DT/MM/DM/BU/OP/WN/MN/SF/MD/SI/PI/SP/F81/,0194CA90744,-118.26095913455866,33.771349812751346,100.0
ARTS Univ of CO Health Science Ctr,,,Potomac Street Center,1330 South Potomac Street,Suite 104-A,Aurora,CO,80012,(303)283-5991,,,SA/TX/MM/BU/OP/WN/DU/CJ/SF/MD/SI/PI/AR/SS/PA/SP/,7248CO80012,-104.83008195465841,39.702006164665114,96.84
Boulder Clinic,,,1317 Spruce Street,,,Boulder,CO,80302,(303)245-0123,,Methadone Clients Only,SA/TX/MM/OP/CO/PW/SF/SI/,2417CO80302,-105.38856135327944,40.11435738260944,98.0
ARTS Univ of CO Health Science Ctr,Westside Center for Change,,393 South Harlan Street,Suite 250,,Denver,CO,80226,(303)935-7004 Intake: (303)935-7004x0,,,SA/TX/DT/MM/DM/BU/OP/WN/CJ/SF/MD/PI/MI/AR/SS/AH/SP/F92/,1688CO80226,-105.0627434836065,39.70992330913894,100.0
Comprehensive Addiction Treatment Serv,(CATS),,2222 East 18th Avenue,,,Denver,CO,80206,(303)394-2714,,Methadone Clients Only,SA/TX/MM/OP/SF/PI/SP/,1331CO80206,-104.9602427258572,39.744721161561706,100.0
Denver Health and Hospital Authority,Outpatient Behavioral Health Services,,777 Bannock Street,Unit 9,,Denver,CO,80204,(303)436-3315 Intakes: (303)436-6393 (303)436-5690,,,MH-SA/TX/MM/BU/OP/AD/HV/GL/PW/WN/MN/DU/CJ/SF/MD/PI/AR/AH/SP/,2322CO80204,-104.9901847005778,39.72817217918502,100.0
North Colorado Behavioral Health of,Fort Collins,,3825 East Mulberry Street,Unit 5-C,,Fort Collins,CO,80524,(970)224-0495,,Methadone and Buprenorphine Clients Only,SA/TX/DT/MM/DM/BU/OP/SF/MD/,0737CO80524,-105.00590998912506,40.58079315842146,100.0
Crossroads Turning Points Inc,,,509 East 13th Street,,,Pueblo,CO,81001,(800)304-3758 Intake: (719)546-6666 Hotline: (719)546-6666,,,SA/TX/DT/MM/RS/RL/OP/CO/HV/GL/SE/PW/WN/MN/DU/CJ/SF/MD/AR/SS/AH/SP/,7189CO81001,-104.60070129698177,38.27906609432736,100.0
Greater Bridgeport Community MH Center,Acute Substance Abuse Treatment Unit,,1635 Central Avenue,5th Floor,,Bridgeport,CT,6610,(203)551-7612 Intakes: (203)551-7428 (203)551-7400,,,MH-SA/TX/DT/MM/DM/HI/CO/MD/MC/SI/PI/AR/SP/,0123CT06610,-73.1676374344008,41.18952900226671,100.0
Liberation Programs Inc,Methadone Program,,399 Mill Hill Avenue,,,Bridgeport,CT,6610,(203)384-9301 Intakes: (203)384-9301x0 (203)696-0024x0 Hotlines: (203)384-9301x555 (203)696- 0024x555,,,MH-SA/TX/DT/MM/DM/OP/CO/HV/WN/DU/SF/MD/MC/PI/SS/PA/SP/,5408CT06610,-73.1652202611628,41.19194969590378,100.0
New Era Rehabilitation Center Inc,(NERC),,3851 Main Street,2nd Floor,,Bridgeport,CT,6606,(203)372-3333 Hotline: (203)372-3333,,Methadone and Buprenorphine Clients Only,MH-SA/TX/DT/MM/DM/BU/OP/CO/PW/WN/SF/MD/MC/SI/PI/MI/AR/SP/F19/,3812CT06606,-73.2115078965257,41.213543741597476,100.0
Regional Network of Programs Inc,Kinsella Treatment Center/Detox,,1438 Park Avenue,,,Bridgeport,CT,6604,(203)335-2173 Intake: (203)335-2173x10,,Methadone and Buprenorphine Clients Only,SA/TX/DT/MM/DM/BU/OP/CO/HV/MN/SF/MD/MC/AR/SS/AH/SP/F67/,9408CT06604,-73.20331106577216,41.17973998709578,100.0
Hartford Dispensary,Bristol Clinic,,1098 Farmington Avenue,,,Bristol,CT,6010,(860)589-6433,,Methadone Clients Only,SA/TX/DT/MM/DM/OP/CO/HV/PW/WN/MN/SF/MD/PI/AR/SS/AH/SP/,1771CT06010,-72.90708488454439,41.69624933120614,100.0
Connecticut Counseling Centers Inc,,,60 Beaverbrook Road,,,Danbury,CT,6810,(203)743-7574,,Methadone Clients Only,SA/TX/DT/MM/DM/OP/CO/HV/PW/WN/MN/CJ/SF/MD/SI/PI/AR/SS/SP/F67/,0126CT06810,-73.42650295860452,41.409478355855406,100.0
Midwestern CT Council on Alc (MCCA),Outpatient,,38 Old Ridgebury Road,,,Danbury,CT,6810,(203)792-4515,,,MH-SA/TX/DT/MM/DM/BU/OP/CO/PW/WN/MN/DU/SF/MD/SI/PI/AR/SP/F67/,8243CT06810,-73.51524764348291,41.38485743977304,100.0
Community Substance Abuse Centers,Ambulatory Detox,,55 Fishfry Street,,,Hartford,CT,6120,(860)247-8300 Intake: (860)247-8300x0,,Methadone Clients Only,SA/TX/DT/MM/DM/OP/SF/MD/SI/SP/,4516CT06120,-72.65904986889059,41.793497764409224,100.0
Hartford Dispensary,,,345 Main Street,,,Hartford,CT,6106,(860)525-2181 Intake: (860)527-5100,,Methadone Clients Only,MH-SA/TX/MM/OP/CO/HV/SE/PW/WN/MN/SF/MD/SI/SP/,7475CT06106,-72.6751255209908,41.760076895244474,100.0
Hartford Dispensary,Henderson/Johnson Clinic MMTP,,"12, 14, 16, 18 Weston Street",,,Hartford,CT,6120,(860)527-5100,,Methadone and Buprenorphine Clients Only,SA/TX/DT/MM/DM/BU/OP/CO/HV/PW/WN/MN/SF/MD/PI/AR/SS/AH/SP/,9756CT06120,-72.66421563581757,41.783706234667356,98.24
Hartford Dispensary,Manchester Clinic,,335 Broad Street,,,Manchester,CT,6040,(860)643-3210,,Methadone Clients Only,SA/TX/DT/MM/DM/OP/CO/HV/PW/WN/MN/SF/MD/PI/AR/SS/SP/,2050CT06040,-72.53378919909403,41.77675432608317,100.0
Connecticut Valley Hospital,Addiction Services Division,,Silver Street,,,Middletown,CT,6457,(860)262-5000 Intakes: (860)262-6321 (860)262-6320,,,SA/TX/DT/MM/DM/BU/HI/CO/WN/MN/SF/MD/MC/SI/PI/AR/SS/PA/AH/SP/,8907CT06457,-72.63058820598785,41.55378885440121,100.0
Hartford Dispensary,New Britain Clinic,,70 Whiting Street,,,New Britain,CT,6051,(860)827-3313 Intake: (860)527-5100,,Methadone Clients Only,SA/TX/DT/MM/DM/OP/CO/HV/PW/WN/MN/SF/MD/PI/AR/SS/AH/SP/,2182CT06051,-72.77634078252198,41.66148701287797,100.0
APT Foundation Inc,APT Meth Main Prog/APT Legion Clinic,,495 Congress Avenue,,,New Haven,CT,6519,(203)781-4740 Intakes: (203)781-4357 (203)781-HELP,,Methadone and Buprenorphine Clients Only,SA/TX/MM/BU/OP/CO/HV/PW/WN/MN/SF/MD/MC/SI/PI/SS/SP/,0011CT06519,-72.93687148622094,41.30091716130314,100.0
APT Foundation Inc,Access and Treatment Services,,1 Long Wharf Drive,Suite 10,,New Haven,CT,6511,(203)781-4357 Intake: (203)781-HELP Hotlines: (203)781-4357 (203)781-HELP,,,SA/TX/DT/MM/BU/OP/CO/WN/MN/SF/MD/MC/SI/PI/SS/SP/,8735CT06511,-72.92897523051569,41.28859098595047,100.0
APT Foundation Inc,Orchard Clinic,,540 Ella T Grasso Boulevard,,,New Haven,CT,6519,(203)781-4695 Intakes: (203)781-4357 (203)781-HELP,,Methadone Clients Only,SA/TX/MM/OP/PW/WN/MN/SF/MD/MC/SI/PI/SS/SP/,4247CT06519,-72.94517325840208,41.2941105111008,100.0
APT Foundation Inc,Park Hill Clinic,,540 Ella T Grasso Boulevard,,,New Haven,CT,6519,(203)781-4710 Intakes: (203)781-4357 (203)781-HELP,,Methadone Clients Only,SA/TX/DT/MM/DM/OP/WN/MN/SF/MD/MC/SI/PI/SS/SP/,4247CT06519,-72.94517325840208,41.2941105111008,100.0
APT Foundation Inc,Women in Treatment,,540 Ella T Grasso Boulevard,,,New Haven,CT,6519,(203)781-4710 Intakes: (203)781-4357 (203)781-HELP,,Methadone Clients Only,SA/TX/MM/OP/HV/PW/WN/SF/MD/MC/SI/PI/SS/SP/,4247CT06519,-72.94517325840208,41.2941105111008,100.0
Chemical Abuse Services Agency Inc,,,426 East Street,,,New Haven,CT,6511,(203)495-7710,,,MH-SA/TX/MM/DM/BU/OP/CO/WN/CJ/SF/MD/SI/AR/PA/SP/,9005CT06511,-72.90966952820763,41.31052051731876,100.0
New Era Rehabilitation Center Inc,,,311 East Street,,,New Haven,CT,6511,(203)562-2101 Intake: (203)372-3333,,Methadone and Buprenorphine Clients Only,SA/TX/MM/BU/OP/SF/MD/MC/SI/PI/SP/,5261CT06511,-72.9099717796361,41.30715124369931,100.0
Hartford Dispensary,New London Clinic,,931 Bank Street,,,New London,CT,6320,(860)447-2233,,Methadone Clients Only,SA/TX/DT/MM/DM/OP/CO/HV/PW/WN/MN/SF/MD/PI/AR/SS/AH/SP/,7127CT06320,-72.1107090320954,41.34630340679846,100.0
Connecticut Counseling Centers Inc,Norwalk Methadone Program,,20 North Main Street,3rd Floor,,Norwalk,CT,6854,(203)838-6508,,Methadone Clients Only,MH-SA/TX/DT/MM/DM/OP/CO/HV/PW/WN/SF/MD/SI/SS/,7368CT06854,-73.41890965133169,41.09960627535112,100.0
Hartford Dispensary,Norwich Clinic,,772 West Thames Street,,,Norwich,CT,6360,(860)886-0446,,Methadone Clients Only,SA/TX/DT/MM/DM/OP/CO/HV/PW/WN/MN/SF/MD/PI/AR/SS/AH/SP/,1726CT06360,-72.09823608961797,41.49697037949079,100.0
Community Prev Addiction Services Inc,Pathways OTP,,391 Pomfret Street,,,Putnam,CT,6260,(860)963-4971,,Methadone Clients Only,SA/TX/DT/MM/OP/SF/MD/MC/SI/,7000CT06260,-71.91776583526179,41.907821475485385,100.0
Liberation Programs Inc,Families in Recovery Program,,141 Franklin Street,Franklin Commons,,Stamford,CT,6901,(203)352-1800 Intake: (203)352-1800x0,,,SA/TX/MM/DM/RL/PW/WN/BC/SF/MD/MC/SI/PI/AR/SS/PA/SP/,6015CT06901,-73.54226785411224,41.059716917136605,100.0
Liberation Programs Inc,Liberation House,,119 Main Street,,,Stamford,CT,6901,(203)391-7935 Intake: (203)356-1980x7940,,,SA/TX/MM/DM/RL/CO/HV/MN/CJ/SF/SI/PI/AR/SS/PA/SP/,5304CT06901,-73.54337177257558,41.052637928045826,100.0
Regional Network of Programs Inc,Center for Human Services,,2 Research Drive,,,Stratford,CT,6615,(203)386-8802x111 Intakes: (203)386-8802x100 (203)386- 8802x124,,Methadone and Buprenorphine Clients Only,SA/TX/MM/BU/OP/CO/HV/PW/WN/MN/SF/MD/SI/PI/AR/SS/AH/SP/,4601CT06615,-73.15530338005874,41.172583895350115,100.0
Connecticut Counseling Centers Inc,Intensive Outpatient Program,,4 Midland Road,,,Waterbury,CT,6705,(203)755-8874,,Methadone Clients Only,MH-SA/TX/DT/MM/DM/OP/CO/HV/WN/SF/MD/SI/SS/AH/SP/,7441CT06705,-72.98795386859507,41.54500428737635,100.0
Connecticut Counseling Centers Inc,Methadone Maintenance/Treatment,,4 Midland Road,,,Waterbury,CT,6705,(203)755-8874,,Methadone Clients Only,MH-SA/TX/DT/MM/DM/OP/CO/HV/WN/SF/MD/SI/SS/AH/SP/,7441CT06705,-72.98795386859507,41.54500428737635,100.0
Connecticut Counseling Centers Inc,Waterbury Methadone Program Detox,,4 Midland Road,,,Waterbury,CT,6705,(203)755-8874,,Methadone Clients Only,MH-SA/TX/DT/MM/DM/OP/CO/HV/WN/SF/MD/SI/SS/AH/SP/,7441CT06705,-72.98795386859507,41.54500428737635,100.0
Connecticut Counseling Centers Inc,Waterbury Outpatient Program,,4 Midland Road,,,Waterbury,CT,6705,(203)755-8874,,Methadone Clients Only,MH-SA/TX/DT/MM/DM/OP/CO/HV/WN/SF/MD/SI/SS/AH/SP/,7441CT06705,-72.98795386859507,41.54500428737635,100.0
VA Healthcare Systems of Connecticut,Substance Abuse Treatment Program,,950 Campbell Avenue,Unit 116-A3,,West Haven,CT,6516,(203)932-5711x3887 Intakes: (203)932-5711x4471 (203)932- 5711x2340,,,MH-SA/TX/DT/MM/DM/HH/BU/HI/OP/PH/SF/PI/MI/SP/,0660CT06516,-72.95730279430694,41.28432778235709,100.0
Hartford Dispensary,Willimantic Clinic,,54 Boston Post Road,Suite 56,,Willimantic,CT,6226,(860)456-7990,,Methadone Clients Only,SA/TX/DT/MM/DM/OP/CO/HV/PW/WN/MN/SF/MD/PI/AR/SS/AH/SP/,3126CT06226,-72.1931890548175,41.722770091948426,100.0
Claymont Treatment Center,,,2999 Philadelphia Pike,,,Claymont,DE,19703,(302)792-0700 Hotline: (877)637-6237,,Methadone and Buprenorphine Clients Only,SA/TX/DT/MM/DM/BU/OP/CO/GL/PW/WN/MN/SF/PI/SP/,8774DE19703,-75.46501424883735,39.79668543664594,100.0
Kent Sussex Counseling Services,,,1241 College Park Drive,,,Dover,DE,19904,(302)735-7790,,,SA/TX/DT/MM/DM/BU/OP/CO/HV/PW/WN/CJ/SF/MD/SI/SP/,7111DE19904,-75.55315155328861,39.179549207528865,100.0
Kent Sussex Counseling Services,,,20728 DuPont Boulevard,,,Georgetown,DE,19947,(302)854-0172,,,SA/TX/MM/BU/OP/AD/SF/MD/MC/SS/,8221DE19947,-75.40006455751158,38.69509628447471,100.0
ARS New Castle LLC,,,263 Quigley Bouelvard,,,New Castle,DE,19720,(302)323-9400,,Methadone and Buprenorphine Clients Only,SA/TX/DT/MM/DM/BU/OP/CO/PW/WN/MN/SF/,2021DE19720,-75.60388243552472,39.66254640354914,88.66
Brandywine Counseling,South Chapel,,24 Brookhill Drive,,,Newark,DE,19702,(302)454-3020x22 Intake: (302)656-2348,,Methadone and Buprenorphine Clients Only,SA/TX/MM/DM/BU/OP/CO/WN/SF/MD/MC/PI/SS/AH/,0563DE19702,-75.72718366781581,39.648635252215094,100.0
Brandywine Counseling and Community Services,,,2713 Lancaster Avenue,,,Wilmington,DE,19805,(302)656-2348,,,MH-SA/TX/MM/BU/OP/PH/CO/HV/PW/MN/CJ/SF/MD/MC/SI/PI/PA/AH/SP/,7463DE19805,-75.5828332973564,39.750247807125724,100.0
Good Hope Institute,,,1320 Good Hope Road SE,,,Washington,DC,20020,(202)610-1886,,Methadone Clients Only,SA/TX/DT/MM/DM/OP/WN/MN/DU/SF/MD/SI/PI/,2935DC20020,-76.98636161023116,38.867187066407496,100.0
Partners in Drug Abuse Rehabilitation,and Counseling (PIDARC),,2112 F Street NW,Suite 102,,Washington,DC,20037,(202)296-4455x3202 Intakes: (202)296-4455x3200 (202)349-3202,,Methadone Clients Only,SA/TX/MM/OP/CO/WN/MN/SF/MD/SI/PI/AR/,4544DC20037,-77.04717843655831,38.89709558286569,100.0
UPO Comprehensive Treatment Center,,,1900 Massachusetts Avenue SE,Building 13,,Washington,DC,20003,(202)682-6599x6588 Intake: (202)682-6599,,Methadone Clients Only,SA/TX/DT/MM/OP/WN/MN/MD/PA/,8501DC20003,-76.97557644777726,38.88522726897395,100.0
Veterans Affairs Medical Center,Substance Abuse Rehabilitation Program,,50 Irving Street NW 3-C North,Unit 116-A,,Washington,DC,20422,(202)745-8336x7168 Intake: (202)745-8336x0,,,MH-SA/TX/DT/MM/DM/BU/HI/OP/CO/HV/WN/SF/MD/MC/SI/PI/MI/PA/,9902DC20422,-77.01119442331195,38.92940115599399,98.25
Operation Par Inc,Medication Assisted Patient Services,,6253 14th Street West,,,Bradenton,FL,34207,(941)753-0877 Intakes: (888)727-6398 (888)PARNEXT,,Methadone and Buprenorphine Clients Only,SA/TX/MM/DM/BU/OP/SF/MD/MC/SI/PI/SS/AH/,0831FL34207,-82.57546250828324,27.430102018374072,100.0
Metro Treatment of Florida LP,DBA Pensacola Metro Treatment,,2420 South Highway 29,,,Cantonment,FL,32533,(850)968-3565,,Methadone and Buprenorphine Clients Only,SA/TX/DT/MM/DM/BU/OP/SF/,9591FL32533,-87.28798774410403,30.564733017499037,100.0
Operation Par Inc,Medication Assisted Patient Services,,6150 150th Avenue North,Suite MAPS,,Clearwater,FL,33760,(727)507-4673,,Methadone and Buprenorphine Clients Only,SA/TX/MM/DM/BU/OP/SF/MD/MC/SI/PI/MI/SS/AH/,3582FL33760,-82.71992201112207,27.908712545367173,100.0
Central Florida Treatment Center,,,7 North Cocoa Boulevard,,,Cocoa,FL,32922,(321)631-4578,,Methadone and Buprenorphine Clients Only,SA/TX/DT/MM/DM/BU/OP/SF/MD/SP/,8643FL32922,-80.73271635022614,28.35858785470881,100.0
Daytona Methadone Treatment Center,,,737 International Speedway Boulevard,,,Daytona Beach,FL,32114,(386)254-1931,,Methadone and Buprenorphine Clients Only,SA/TX/DT/MM/DM/BU/OP/SF/SP/F67/,0703FL32114,-81.03123171303011,29.206963441896647,99.55
Metro Treatment of Florida LP,Sunrise Treatment Center,,2175-7 North University Drive,,,Fort Lauderdale,FL,33322,(954)578-7684,,Methadone and Buprenorphine Clients Only,SA/TX/DT/MM/DM/BU/OP/SF/SP/,5435FL33322,-80.25730027299922,26.152374562383343,99.78
Central Florida Treatment Center,Fort Pierce,,1302 North Lawnwood Circle,Suite B,,Fort Pierce,FL,34950,(772)468-6800,,Methadone and Buprenorphine Clients Only,SA/TX/DT/MM/DM/BU/OP/SF/MD/SP/,4082FL34950,-80.34459039584941,27.435060752292575,100.0
Meridian Behavioral Healthcare Inc,Addictions Outpatient and Residential,,4400 SW 13th Street,,,Gainesville,FL,32608,(352)374-5600x8230 Intakes: (352)374-5600x2 (800)330-5615x2 Hotlines: (352)374-5600x2 (800)330-5615x2,,,MH-SA/TX/DT/MM/BU/RS/RL/OP/PH/PW/BC/SF/MD/SI/PI/MI/SS/AH/SP/F19/,5923FL32608,-82.34141990651463,29.611531044175674,100.0
Broward Treatment Center,,,1101 South 21st Avenue,,,Hollywood,FL,33020,(954)922-0522,,Methadone and Buprenorphine Clients Only,SA/TX/DT/MM/DM/BU/OP/SF/SP/,5854FL33020,-80.14853390871937,26.001927305945173,100.0
Jacksonville Metro Treatment Center,,,3609 Emerson Street,,,Jacksonville,FL,32207,(904)398-7015,,Methadone and Buprenorphine Clients Only,SA/TX/DT/MM/DM/BU/OP/SF/SP/,0067FL32207,-81.62727924139577,30.29122271588604,100.0
River Region Human Services Inc,Outpatient Services,,390 Park Street,,,Jacksonville,FL,32204,(904)899-6300x4452 Intake: (904)899-6300,,,SA/TX/MM/OP/AD/CO/SE/WN/DU/SF/MD/SS/AH/SP/,5028FL32204,-81.67705182064192,30.322661767864023,100.0
Mid Florida Metro Treatment Center,,,306 East Oak Street,,,Kissimmee,FL,34744,(407)933-8331x18 Intake: (407)933-8331,,Methadone and Buprenorphine Clients Only,SA/TX/DT/MM/DM/BU/OP/SF/SP/F19/,1604FL34744,-81.40103725781712,28.30073658763459,100.0
Central Florida Treatment Center,,,3155 Lake Worth Road,Suite 2,,Lake Worth,FL,33461,(561)439-8440,,Methadone and Buprenorphine Clients Only,SA/TX/DT/MM/DM/BU/OP/SF/MD/SP/,2963FL33461,-80.09176964875856,26.617699757506138,100.0
Lakeland Centers,,,3506 Lakeland Hills Boulevard,,,Lakeland,FL,33805,(863)687-9900,,Methadone Clients Only,SA/TX/MM/DM/OP/SF/,5244FL33805,-81.95351037287787,28.088123033795558,100.0
Comprehensive Psychiatric Center,,,4790 NW 7th Street,Suite 102,,Miami,FL,33126,(305)529-5810,,Methadone Clients Only,SA/TX/DT/MM/DM/OP/SF/MI/SP/F19/,4398FL33126,-80.27379290213518,25.77861236677435,100.0
Comprehensive Psychiatric Center,North,,240 NW 183rd Street,,,Miami,FL,33169,(305)651-2332,,Methadone Clients Only,SA/TX/DT/MM/DM/OP/SF/MI/SP/,2566FL33169,-80.20608531320751,25.94238230769632,100.0
Comprehensive Psychiatric Center,South,,9735 East Fern Street,,,Miami,FL,33157,(305)238-5121,,Methadone Clients Only,SA/TX/DT/MM/DM/OP/SF/MI/SP/,0798FL33157,-80.34943220221875,25.605601377601594,100.0
Operation Par Inc,Medication Assisted Patient Services,,535 Pine Island Road,Suite M,,North Fort Myers,FL,33903,(239)656-7700 Intake: (239)656-7700x5905,,Methadone and Buprenorphine Clients Only,SA/TX/MM/DM/BU/OP/SF/MD/MC/SI/PI/MI/AR/SS/AH/,1039FL33903,-81.89781455210581,26.681915904030827,100.0
Quad County Treatment Center,,,913 East Silver Springs Boulevard,,,Ocala,FL,34470,(352)732-6565,,Methadone and Buprenorphine Clients Only,SA/TX/DT/MM/DM/BU/OP/SF/AR/SP/,2343FL34470,-82.12864797661484,29.18705746959307,100.0
Center for Drug Free Living Inc,(CFDFL)/Addiction Receiving Facility,,712 West Gore Street,,,Orlando,FL,32805,(407)245-0012,,,MH-SA/TX/DT/MM/DM/BU/RS/RL/CO/HV/GL/SE/PW/WN/MN/CJ/SF/MD/MC/SI/PI/MI/AR/PA/AH/SP/,6169FL32805,-81.3894466782871,28.531076944680425,100.0
Central Florida Treatment Center,Outpatient Methadone Maintenance,,1800 West Colonial Drive,,,Orlando,FL,32804,(407)843-0041,,Methadone and Buprenorphine Clients Only,SA/TX/DT/MM/DM/BU/OP/SF/MD/SP/,0754FL32804,-81.40388450650677,28.55287752046844,100.0
Orlando Methadone Treatment Center,,,601 South Semoran Boulevard,Suite A,,Orlando,FL,32807,(407)275-8939,,Methadone and Buprenorphine Clients Only,SA/TX/DT/MM/DM/BU/OP/SF/AR/SP/,5748FL32807,-81.31041924530186,28.535843313921173,100.0
Central Florida Treatment Center,Palm Bay,,2198 Harris Avenue,,,Palm Bay,FL,32905,(321)951-9750 Intake: (800)229-9793,,Methadone and Buprenorphine Clients Only,SA/TX/DT/MM/DM/BU/OP/SF/MD/,6894FL32905,-80.60586990816793,28.034317627565088,99.55
Bay Area Treatment Center,,,8800 49th Street,Suites 106 and 108,,Pinellas Park,FL,33782,(727)544-0044,,Methadone and Buprenorphine Clients Only,SA/TX/DT/MM/DM/BU/OP/SF/SP/F28/,8393FL33782,-82.70024750507466,27.85246201225205,99.55
Metro Treatment of Florida LP,DBA Pompano Treatment Center,,380 SW 12th Avenue,,,Pompano Beach,FL,33069,(954)782-9774,,Methadone and Buprenorphine Clients Only,SA/TX/DT/MM/DM/BU/OP/SF/SP/,0462FL33069,-80.13888960710663,26.225411894836224,100.0
Operation Par Inc,Medication Assisted Patient Services,,7720 Washington Street,,,Port Richey,FL,34668,(727)816-1200,,Methadone and Buprenorphine Clients Only,SA/TX/MM/DM/BU/OP/SF/MD/MC/SI/PI/SS/AH/,5680FL34668,-82.71965823262902,28.269183038859246,100.0
Leon County Treatment Center,,,3976 Woodville Highway,,,Tallahassee,FL,32305,(850)878-7776,,Methadone and Buprenorphine Clients Only,SA/TX/DT/MM/DM/BU/OP/SF/,2210FL32305,-84.27424922784537,30.38494416996129,100.0
Drug Abuse Comprehensive Coord Office,(DACCO)/Medication Assisted Trt Prog,,4422 East Columbus Drive,1st Floor,,Tampa,FL,33605,(813)984-1818,,,MH-SA/TX/MM/BU/RL/OP/PH/CO/HV/SE/PW/WN/DU/CJ/SF/MD/SI/PI/SS/PA/AH/SP/,3460FL33605,-82.40865199007497,27.96679749990229,100.0
Drug Abuse Comprehensive Coord Office,(DACCO)/Tampa Outpatient,,4422 East Columbus Drive,2nd Floor,,Tampa,FL,33605,(813)984-1818,,,MH-SA/TX/MM/OP/AD/CO/HV/GL/PW/WN/DU/CJ/SF/MD/PI/SS/AH/SP/F19/,3460FL33605,-82.40865199007497,27.96679749990229,100.0
Drug Abuse Comprehensive Coord Office,(DACCO)/Women Residential Trt Program,,4422 East Columbus Drive,,,Tampa,FL,33605,(813)984-1818,,,MH-SA/TX/MM/DM/BU/RS/CO/HV/GL/PW/WN/BC/CJ/SF/PI/SS/AH/SP/,3460FL33605,-82.40865199007497,27.96679749990229,100.0
Tampa Metro Treatment Center,,,7207 and 7225 North Nebraska Avenue,,,Tampa,FL,33604,(813)236-1182,,Methadone and Buprenorphine Clients Only,SA/TX/DT/MM/DM/BU/OP/SF/SP/,1793FL33604,-82.45126256833369,28.01379101724075,98.33
Metro Treatment of Florida LP,DBA West Palm Beach Treatment Center,,1497 Forest Hill Boulevard,Suite E,,West Palm Beach,FL,33406,(561)433-5687,,Methadone and Buprenorphine Clients Only,SA/TX/DT/MM/DM/BU/OP/SF/SP/F19/,8710FL33406,-80.07405860352993,26.654531306892142,100.0
Albany Addiction Associates,DBA Private Clinic Albany,,2607 Ledo Road,,,Albany,GA,31707,(229)903-0022,,Methadone and Buprenorphine Clients Only,SA/TX/MM/DM/BU/OP/WN/SF/,8096GA31707,-84.20282996455339,31.622597468841253,100.0
DM and ADR Inc,,,1710 Commerce Road,,,Athens,GA,30607,(706)552-0688,,Methadone Clients Only,SA/TX/DT/MM/DM/OP/SF/,5344GA30607,-83.37988180265747,33.993899945166895,100.0
Georgia Therapy Associates Inc,,,111 Athens West Parkway,,,Athens,GA,30606,(706)208-0103,,Methadone Clients Only,SA/TX/DT/MM/DM/OP/SF/,5711GA30606,-83.4478639827333,33.94372013115489,100.0
GPA Treatment Inc,,,4255 Chamblee Tucker Road,,,Atlanta,GA,30340,(770)493-1922 Hotline: (404)579-1594,,Methadone Clients Only,SA/TX/MM/OP/PW/SF/,5752GA30340,-84.22273664931893,33.880412706118214,100.0
New Day Treatment Center,,,2563 Martin Luther King Jr Drive,,,Atlanta,GA,30311,(404)699-7774,,Methadone and Buprenorphine Clients Only,SA/TX/DT/MM/DM/BU/OP/SF/MD/MI/,8011GA30311,-84.47173298544796,33.75340989965645,99.55
Southside Medical Center Southside,Behavioral Life Style Enrichment Ctr,,2685 Metropolitan Parkway,Suite C,,Atlanta,GA,30315,(404)627-1385x7056 Intake: (404)627-1385x32,,,SA/TX/MM/DM/OP/DU/SF/MD/MC/PI/SS/,6383GA30315,-84.41029899959001,33.682392003798114,99.55
Medicine Wheel Clinic,,,85 Auburn Park Drive,,,Auburn,GA,30011,(770)277-7958,,Methadone Clients Only,MH-SA/TX/DT/MM/DM/OP/CO/SF/,5508GA30011,-83.8417587819706,34.00734267384175,100.0
Augusta Metro Treatment Center,,,525 Ellis Street,,,Augusta,GA,30901,(706)722-3855,,Methadone and Buprenorphine Clients Only,SA/TX/DT/MM/DM/BU/OP/SF/,7107GA30901,-81.9603754030356,33.47242537116282,100.0
Bainbridge Treatment Center,,,931 West Street,,,Bainbridge,GA,39819,(229)248-4220,,Methadone Clients Only,SA/TX/MM/OP/PW/SF/,2573GA39819,-84.57635621719143,30.89677540179507,99.55
Treatment Center of Brunswick,,,100 Cornerstone Drive,,,Brunswick,GA,31523,(912)262-0311,,Methadone Clients Only,SA/TX/MM/OP/SF/,9212GA31523,-81.53894630332428,31.236733664403086,100.0
Toxicology Associates of North Georgia,,,Carrollton Villa Rica Highway,2536 Carrollton Villa Rica Highway,,Carrollton,GA,30116,(770)214-9788 Intake: (770)214-9788x0,,Methadone Clients Only,SA/TX/DT/MM/DM/OP/PW/SF/,0967GA30116,-84.99123666935847,33.628493276366235,100.0
Georgia Therapy Associates Inc,Columbus,,1301 Wynnton Court,,,Columbus,GA,31906,(706)576-4033 Hotline: (706)323-0174,,Methadone Clients Only,SA/TX/MM/DM/OP/CO/HV/GL/SE/PW/WN/CJ/SF/AH/,6916GA31906,-84.95351589515501,32.472119113650244,100.0
Robert W Dail Memorial,Treatment Center,,734 Hospital Road,,,Commerce,GA,30529,(706)335-5180 Intake: (706)335-5180x0,,Methadone and Buprenorphine Clients Only,SA/TX/DT/MM/DM/BU/OP/SF/,3114GA30529,-83.46815263082644,34.2181018992411,100.0
Alliance Recovery Center Conyers,,,3430 Highway 20,,,Conyers,GA,30013,(770)922-4482,,Methadone Clients Only,SA/TX/DT/MM/OP/PW/WN/SF/MI/,0255GA30013,-84.01474609226662,33.59763411506901,99.54
Alliance Recovery Center,,,209 Swanton Way,Suite B,,Decatur,GA,30030,(404)377-7669,,,SA/TX/DT/MM/DM/OP/PW/WN/CJ/SF/,6507GA30030,-84.29985401420849,33.774587532400496,100.0
Newport Intergrated Behav Hlthcare Inc,,,4540 Glenwood Road,,,Decatur,GA,30032,(404)289-8223 Intake: (404)289-8223x227,,,MH-SA/TX/DT/MM/DM/BU/HI/OP/PH/AD/CO/CJ/SF/MD/MC/SI/PI/MI/SS/,3493GA30032,-84.23184492822358,33.737288942809336,100.0
Veterans Affairs Medical Center,Substance Abuse Treatment Program,,1670 Clairmont Road,,,Decatur,GA,30033,(404)321-6111x6900,,,GH/TX/DT/MM/DM/BU/OP/CO/WN/SF/PI/SS/PA/,5516GA30033,-84.3103174792188,33.8024058536636,100.0
Treatment Center of Fayette,,,1086 Highway 54 West,,,Fayetteville,GA,30214,(770)719-9119,,Methadone Clients Only,SA/TX/MM/OP/SF/,5483GA30214,-84.49407452926691,33.44846289299805,100.0
Metro Treatment of Georgia LP,Northwest Georgia Treatment Center,,65 White Street,,,Fort Oglethorpe,GA,30742,(706)861-9390,,Methadone and Buprenorphine Clients Only,SA/TX/DT/MM/DM/BU/OP/SF/SP/F28/,1733GA30742,-85.2603018391887,34.94942756951427,100.0
Lanier Treatment Center,,,664 Lanier Park Drive,,,Gainesville,GA,30501,(770)503-7721,,Methadone and Buprenorphine Clients Only,SA/TX/DT/MM/DM/BU/OP/PW/SF/SP/,4339GA30501,-83.79752781418972,34.3191560517621,100.0
South Georgia Treatment,,,794 McDonough Road,Suite 104,,Jackson,GA,30233,(770)775-9044,,Methadone Clients Only,SA/TX/MM/DM/OP/HV/PW/WN/MN/CJ/SF/AH/,9479GA30233,-83.97540982066428,33.30104172849154,100.0
Consecrated Care Inc,,,217 Arrowhead Boulevard,Suite B-1,,Jonesboro,GA,30236,(770)472-9110,,Methadone Clients Only,SA/TX/DT/MM/DM/OP/PW/SF/PA/,2171GA30236,-84.38302156559641,33.578448816737556,100.0
GPA Treatment of Macon Inc,,,6132 Hawkinsville Road,,,Macon,GA,31216,(478)788-0066,,Methadone Clients Only,SA/TX/DT/MM/DM/OP/CO/PW/WN/SF/,2909GA31216,-83.6557284419064,32.73801856770019,100.0
Trinity Treatment Center Inc,,,1221 Newberg Avenue,,,Macon,GA,31206,(478)788-5600 Intake: (478)788-5600x0,,Methadone Clients Only,SA/TX/MM/OP/SF/,8411GA31206,-83.66235043434494,32.80305685897331,100.0
Toxicology Associates of North Georgia,,,1700 Cumberland Point Drive SE,Suite 1,,Marietta,GA,30067,(770)612-8264 Intake: (770)612-8264x0,,Methadone Clients Only,SA/TX/DT/MM/DM/OP/PW/SF/,9005GA30067,-84.49115963861865,33.91203247192854,100.0
Center of Renewed Promises,,,1485 East Highway 34,Suite 1-A,,Newnan,GA,30265,(770)502-0884,,Methadone Clients Only,SA/TX/MM/DM/OP/PW/SF/,3940GA30265,-84.73110402223242,33.39878599317687,99.88
Treatment Center of Newnan,,,931 Lower Fayetteville Road,Suite K,,Newnan,GA,30263,(770)502-7055,,Methadone Clients Only,SA/TX/MM/DM/OP/HV/SF/,3291GA30263,-84.76077570801633,33.374675406783126,100.0
Atlanta Metro Treatment Center,,,6500 McDonough Drive,Suite B-2,,Norcross,GA,30093,(770)242-7865,,Methadone and Buprenorphine Clients Only,SA/TX/DT/MM/DM/BU/OP/SF/,8754GA30093,-84.21783977384572,33.90545452195467,100.0
Lakeland Centers Atlanta,,,7001 Peachtree Industrial Boulevard,Suite 404,,Norcross,GA,30092,(770)840-9912 Hotline: (770)840-9912,,Methadone Clients Only,SA/TX/DT/MM/DM/OP/WN/SF/,4023GA30092,-84.2602354401073,33.933245979218675,99.9
Toxicology Associates of North Georgia,Gwinnett Inc,,1895 Beaver Ridge Circle,Suite N,,Norcross,GA,30071,(770)248-1616,,Methadone Clients Only,SA/TX/DT/MM/DM/OP/PW/SF/,0372GA30071,-84.16656630887691,33.93541655705153,100.0
Epiphany Center Rome Inc,,,308 Glen Milner Boulevard,Suite 16,,Rome,GA,30161,(706)234-4900 Intake: (706)616-8032,,Methadone Clients Only,SA/TX/MM/DM/OP/CO/WN/SF/,6647GA30161,-85.16697413528655,34.2489727000934,100.0
New Horizons Treatment Center,,,36 Chateau Court,,,Rome,GA,30161,(706)233-9603,,Methadone and Buprenorphine Clients Only,SA/TX/DT/MM/DM/BU/OP/WN/MN/SF/,8372GA30161,-85.15582578496809,34.220754855415265,99.55
Private Clinic North,,,822 Chickamauga Avenue,,,Rossville,GA,30741,(706)861-6458,,Methadone Clients Only,SA/TX/DT/MM/DM/OP/PW/SF/,9728GA30741,-85.2760210192184,34.97816261135899,100.0
North Fulton Treatment Center,The Renaissance Recovery Group Inc,,601 Bombay Lane,,,Roswell,GA,30076,(770)754-4674,,Methadone Clients Only,SA/TX/MM/DM/OP/SF/PI/,9443GA30076,-84.33690998905195,34.05449750090705,100.0
Tifton Addiction Associates LLC,,,2402 North Tift Avenue,Suite 202,,Tifton,GA,31794,(229)382-7898,,Methadone and Buprenorphine Clients Only,SA/TX/MM/DM/BU/OP/WN/SF/,2579GA31794,-83.50305219344015,31.476771212870606,99.89
Pittard Clinic,,,1654 Falls Road,,,Toccoa,GA,30577,(706)886-4420 Hotline: (706)244-8975,,Methadone Clients Only,SA/TX/MM/DM/OP/GL/SE/PW/WN/MN/SF/,1928GA30577,-83.34999205099695,34.59900000496077,100.0
Treatment Center of Valdosta,,,2301 University Drive,Suite C,,Valdosta,GA,31602,(229)242-4673 Hotline: (229)242-4673,,Methadone Clients Only,SA/TX/DT/MM/DM/OP/SF/,9510GA31602,-83.28330794502196,30.863990011095996,100.0
Healthqwest,,,607 Russell Parkway,Suite A,,Warner Robins,GA,31088,(478)225-9860,,Methadone Clients Only,SA/TX/MM/OP/SF/,4864GA31088,-83.63303793842888,32.59382205590943,100.0
Treatment Center of Waycross,,,1766 Memorial Drive,Suite 3,,Waycross,GA,31501,(912)285-2658 Intake: (912)285-2658x0,,Methadone Clients Only,SA/TX/MM/OP/SF/,7209GA31501,-82.33560504117285,31.204723264862466,100.0
Ku Aloha Ola Mau Inc,East Hawaii Treatment Clinic,,900 Leilani Street,,,Hilo,HI,96720,(808)961-6822x15 Intake: (808)961-6822,,,SA/TX/DT/MM/DM/BU/OP/HV/PW/CJ/SF/MD/MC/SI/PI/AH/,4176HI96720,-155.06083003946608,19.710009987330945,100.0
Comprehensive Health and Attitude,Management Program Inc (CHAMP),,173 South Kukui Street,,,Honolulu,HI,96813,(808)426-4515 Intake: (808)528-0550,,Methadone Clients Only,SA/TX/MM/DM/OP/CO/PW/WN/MN/CJ/SF/MD/SI/,3611HI96813,-157.85733577695552,21.311066733352398,100.0
Ku Aloha Ola Mau,Methadone Maintenance,,1130 North Nimitz Highway,Suite C-302,,Honolulu,HI,96817,(808)538-0704,,Methadone and Buprenorphine Clients Only,SA/TX/DT/MM/DM/BU/OP/AD/WN/MN/SF/MD/SI/PI/AR/PA/,9236HI96817,-157.87584083987198,21.318469211141828,100.0
Center for Behavioral Health Idaho Inc,,,92 South Cole Road,,,Boise,ID,83709,(208)376-5021,,,SA/TX/DT/MM/DM/BU/OP/CO/PW/WN/DU/CJ/SF/,0071ID83709,-116.27418245946687,43.60373797994282,100.0
Raise the Bottom Training and Counseling Services,,,4869 Malad Street,Suite D,,Boise,ID,83705,(208)433-0400,,Methadone Clients Only,SA/TX/DT/MM/DM/OP/CO/SF/SI/PI/MI/,7835ID83705,-116.24209728848288,43.57884175776445,99.55
Center for Behavioral Health Idaho Inc,,,1965 South Eagle Road,Suite 180,,Meridian,ID,83642,(208)288-0649,,Methadone and Buprenorphine Clients Only,SA/TX/DT/MM/DM/BU/OP/SF/PI/,4187ID83642,-116.35451202111086,43.58708196486677,100.0
Community Counseling Center of,Northern Madison County Inc,,2615 Edwards Street,,,Alton,IL,62002,(618)462-2331,,,MH/TX/MM/DM/OP/DU/SF/MD/PI/AH/,0823IL62002,-90.14734082396484,38.90113247507298,100.0
Family Guidance Centers Inc,,,751 Aurora Avenue,,,Aurora,IL,60505,(630)801-0017,,,SA/TX/MM/OP/CJ/SF/MD/SS/PA/,1380IL60505,-88.30592688559824,41.77279739723208,100.0
Great Heights Family Medicine Ltd,,,1473 Ring Road,,,Calumet City,IL,60409,(708)862-8156 Intake: (312)543-9008,,,SA/TX/DT/MM/DM/BU/OP/AD/CO/HV/GL/SE/PW/WN/MN/DU/CJ/SF/MC/PI/MI/SP/,8161IL60409,-87.56204747947031,41.595501285789204,100.0
Center for Addictive Problems,,,609 North Wells Street,,,Chicago,IL,60610,(312)266-0404x200 Intake: (312)266-0404,,Methadone and Buprenorphine Clients Only,SA/TX/DT/MM/DM/BU/OP/SF/PI/,9157IL60610,-87.63406420482039,41.892735348964464,99.52
Chicago Treatment and Counseling Centers Inc I (CTCC),,,1225 South Ashland Avenue,,,Chicago,IL,60608,(312)738-3200 Intake: (312)738-3200x0,,,SA/TX/MM/OP/DU/SF/SP/,5701IL60608,-87.66635258965691,41.86639731910178,100.0
Chicago Treatment and Counseling Centers Inc II (CTCC),,,4453 North Broadway Avenue,,,Chicago,IL,60640,(773)506-2900,,,SA/TX/MM/OP/DU/SF/,4758IL60640,-87.65594298376507,41.963032736425816,98.06
EL Rincon Community Clinic,,,3809 West Grand Avenue,,,Chicago,IL,60651,(773)276-0200x6149 Intakes: (773)276-0200x256 (773)276- 0200x250,,Methadone Clients Only,SA/TX/DT/MM/DM/OP/WN/MN/DU/SF/MD/SS/PA/SP/,6559IL60651,-87.72195927227008,41.904361048668726,100.0
Family Guidance Centers Inc,,,310 West Chicago Avenue,,,Chicago,IL,60654,(312)943-6545 Intake: (312)943-6545x291,,,SA/TX/MM/OP/CJ/SF/MD/SS/PA/,7868IL60654,-87.63635330257766,41.89659961587596,100.0
Fola Community Action Services Inc,,,8014-8018 South Ashland Avenue,,,Chicago,IL,60620,(773)487-4310 Intake: (773)487-4316,,Methadone Clients Only,SA/TX/DT/MM/DM/OP/HV/GL/SE/PW/WN/MN/CJ/SF/MD/SS/PA/,5652IL60620,-87.66339952483006,41.74797128967381,99.0
Garfield Counseling Center Inc,,,4132 West Madison Street,,,Chicago,IL,60624,(773)533-0433x212 Intake: (773)533-0433x0,,Methadone Clients Only,SA/TX/MM/OP/PW/WN/MN/SF/MD/AR/SS/PA/,4929IL60624,-87.72953810530228,41.88071117358325,100.0
Healthcare Alternative Systems Inc,,,210 North Ashland Avenue,,,Chicago,IL,60607,(312)948-0200 Intake: (773)252-3100,,Methadone and Buprenorphine Clients Only,SA/TX/MM/DM/BU/OP/CO/HV/PW/WN/MN/SF/MD/MC/AR/SP/,0957IL60607,-87.66699725261084,41.885617159851776,100.0
Human Resources Development Institute,(HRDI)/Brass I/Outpatient Opioid Trt,,340 East 51st Street,,,Chicago,IL,60615,(773)869-0300x7365 Intakes: (773)864-0300x7331 (773)864- 0300x7307,,,SA/TX/DT/MM/DM/OP/AD/CO/HV/PW/WN/MN/CJ/SF/MD/MC/SI/PI/AR/SS/PA/SP/,3096IL60615,-87.61759016086235,41.80211750408739,100.0
Human Resources Development Institute,(HRDI)/SW Opioid Treatment Program,,33 East 114th Street,,,Chicago,IL,60628,(773)660-4630,,Methadone Clients Only,SA/TX/MM/OP/HV/WN/SF/MD/SS/PA/,1119IL60628,-87.62177340339761,41.68698835311029,100.0
Human Resources Development Institute,BRAS II/(HRDI),,8000 South Racine Avenue,,,Chicago,IL,60620,(773)994-2708 Intakes: (773)994-2708x0 (773)994- 2708x8921,,Methadone Clients Only,SA/TX/MM/OP/WN/MN/SF/MD/SS/PA/,2845IL60620,-87.6537244616327,41.74854494712713,100.0
IJEGBA Community Inc,,,1950 East 75th Street,,,Chicago,IL,60649,(773)684-8422 Intake: (773)454-4122,,Methadone Clients Only,SA/TX/DT/MM/OP/SF/,0868IL60649,-87.57655957135212,41.758894124887405,100.0
Jesse Brown Addiction Programs,Drug Dependency Trt Program (DDTC),,820 South Damen Avenue,,,Chicago,IL,60612,(312)569-6289 Intakes: (312)569-6297 (312)569-6879,,Methadone Clients Only,SA/TX/DT/MM/DM/OP/SF/MD/MC/PI/MI/SS/PA/AH/SP/F66/F70/,3203IL60612,-87.67642986386866,41.87078968243245,100.0
New Age Services Corporation,,,1330 South Kostner Avenue,,,Chicago,IL,60623,(773)542-1150x113 Intakes: (773)542-1150x100 (773)542- 1150x101,,Methadone Clients Only,SA/TX/MM/OP/WN/MN/DU/SF/MD/SS/SP/,4028IL60623,-87.73490746865751,41.863227990392225,100.0
Nuway Community Services Inc,,,659 East 75th Street,,,Chicago,IL,60619,(773)723-2790,,Methadone Clients Only,SA/TX/DT/MM/OP/CO/HV/GL/SE/WN/MN/CJ/SF/MD/AR/,9824IL60619,-87.60800176654385,41.75850822206514,100.0
Pilsen Wellness Center Inc,,,3113 West Cermak Road,,,Chicago,IL,60623,(773)277-3413 Intake: (888)255-5523,,,SA/TX/MM/OP/HV/DU/SF/MD/SP/F66/,1370IL60623,-87.70346954823633,41.85175299730693,100.0
Renewed Hope Community Services,,,626 East 71st Street,,,Chicago,IL,60619,(773)783-3579 Intake: (773)783-3594,,Methadone Clients Only,SA/TX/DT/MM/DM/OP/CO/SE/PW/WN/MN/CJ/SF/SS/,1479IL60619,-87.60934898984121,41.76584410563387,100.0
Specialized Assistance Services NFP,Outpatient,,2101 South Indiana Avenue,,,Chicago,IL,60616,(312)808-3218 Intake: (312)808-3210x116,,Methadone Clients Only,SA/TX/MM/OP/CO/SE/PW/WN/MN/CJ/SF/MD/MC/AR/SS/PA/,3500IL60616,-87.62218310852627,41.85415076643889,100.0
Sundance Methadone Treatment Center,,,4545 North Broadway,3rd Floor,,Chicago,IL,60640,(773)784-1111 Intake: (773)769-4545,,Methadone Clients Only,SA/TX/MM/OP/HV/PW/WN/SF/,1111IL60640,-87.65702743439793,41.964810789546405,98.84
Windows of Opportunity,Rehabilitation Services Inc,,4619 West Harrison Street,1st Floor,,Chicago,IL,60644,(773)378-3623,,Methadone Clients Only,MH-SA/TX/DT/MM/OP/DU/SF/,2733IL60644,-87.74090924660717,41.87320253898997,100.0
Womens Treatment Center,,,140 North Ashland Avenue,,,Chicago,IL,60607,(312)850-0050 Intake: (312)850-0050x4962,,,SA/TX/DT/MM/DM/HH/RS/RL/OP/CO/GL/PW/WN/BC/SF/MD/SS/PA/,7440IL60607,-87.66693752616042,41.88470800029333,100.0
Chicago Treatment and Counseling Centers Inc (CTCC),,,5635 West Roosevelt Road,,,Cicero,IL,60804,(708)652-6500,,,SA/TX/MM/OP/DU/SF/,7256IL60804,-87.76604556532665,41.865493125132254,100.0
Chicago Treatment and Counseling Centers Inc III (CTCCI),,,1849 South Cicero Avenue,,,Cicero,IL,60804,(708)656-9500,,Methadone Clients Only,SA/TX/MM/OP/DU/SF/,7296IL60804,-87.74436041142056,41.855071853778846,100.0
Premier Care of Illinois,,,923 North Vermilion Street,,,Danville,IL,61832,(217)443-0101,,Methadone Clients Only,SA/TX/DT/MM/DM/OP/SF/,3944IL61832,-87.63016410527284,40.13993023901247,100.0
Heritage Behavioral Health Center,,,151 North Main Street,,,Decatur,IL,62523,(217)362-6262 Hotline: (217)362-6262,,,MH-SA/TX/DT/MM/HH/RS/RL/OP/AD/CO/WN/MN/CJ/SF/MD/MC/SI/PI/AR/SS/AH/,3035IL62523,-88.9559123629656,39.842060466803716,100.0
Family Guidance Centers Inc,,,484 Lee Street,,,Des Plaines,IL,60016,(847)827-7517,,,SA/TX/MM/OP/CJ/SF/MD/SS/PA/,1845IL60016,-87.88594718458418,42.04476421328484,100.0
CAP of Downers Grove,,,4954 Main Street,,,Downers Grove,IL,60515,(630)810-0186,,,SA/TX/MM/BU/OP/SF/PI/SP/,9164IL60515,-88.01056990772986,41.79663150654947,100.0
Bobby Buonauro Clinic Inc,,,1029 West Howard Street,Suites 301 and 303,,Evanston,IL,60202,(847)869-1808,,Methadone and Buprenorphine Clients Only,SA/TX/DT/MM/DM/BU/OP/AD/CO/HV/GL/SE/PW/WN/MN/CJ/SF/PI/,3056IL60202,-87.68700170054676,42.01959922534654,100.0
Peer Services Inc,,,906 Davis Street,,,Evanston,IL,60201,(847)492-1778,,,SA/TX/MM/OP/AD/CO/HV/SE/WN/MN/DU/SF/MD/MC/PI/AR/SS/,3908IL60201,-87.68374600805517,42.04703256583166,100.0
Family Guidance Centers Inc,,,15400 Page Avenue,,,Harvey,IL,60426,(708)333-8960,,Methadone Clients Only,SA/TX/MM/OP/CJ/SF/MD/SS/PA/,6414IL60426,-87.65965675360512,41.609641598355815,100.0
Recovery Concepts,,,17065 Dixie Highway,,,Hazel Crest,IL,60429,(708)335-1155,,Methadone and Buprenorphine Clients Only,SA/TX/DT/MM/DM/BU/OP/DU/CJ/SF/,9394IL60429,-87.6655224932662,41.57920799757318,100.0
Vet Affairs/Edward Hines Jr Hospital,Substance Abuse Section,,Roosevelt Road and 5th Avenue,Chief SA Section Unit 116-C,,Hines,IL,60141,(708)202-8387 Intake: (708)202-3446,,,MH-SA/TX/DT/MM/DM/HI/RS/OP/CO/WN/MN/SF/MD/MC/PI/MI/PA/,8293IL60141,-87.83830989517193,41.864390057448475,95.94
ABRAXAS Youth and Family Services,Life Works Interventions,,1611 West Jefferson Street,,,Joliet,IL,60435,(815)730-7521 Intake: (815)730-7521x0,,,SA/TX/MM/DM/OP/AD/WN/DU/CJ/SF/MD/PI/SS/PA/,7837IL60435,-88.12076402274927,41.5227775049969,100.0
Duane Dean Behavioral Health Center,,,700 East Court Street,,,Kankakee,IL,60901,(815)939-0125x30 Intake: (815)939-0125x28,,,SA/TX/DT/MM/DM/OP/CO/PW/WN/MN/SF/MD/SI/PI/MI/SS/,7785IL60901,-87.85661270276485,41.11950406856806,100.0
Specialized Assistance Services NFP,Branden House,,333 Evergreen Street,,,Manteno,IL,60950,(815)468-6556 Intake: (312)808-3210x116,,,SA/TX/MM/DM/RS/RL/CO/SE/WN/MN/CJ/SF/AR/PA/,8684IL60950,-87.80726760058089,41.22940506843355,99.55
Substance Abuse Operations,,,308 South 5th Avenue,,,Maywood,IL,60153,(708)343-1275,,Methadone Clients Only,SA/TX/MM/OP/SF/MD/AR/PA/,6358IL60153,-87.83916348981663,41.885117187687065,100.0
Radius Foundation Inc,,,11952 South Harlem Avenue,Suite 100,,Palos Heights,IL,60463,(708)923-0800,,Methadone Clients Only,SA/TX/DT/MM/OP/DU/SF/,2463IL60463,-87.79687219662456,41.67375716458714,100.0
Human Service Center/Rochelle,,,3420 North Rochelle Lane,,,Peoria,IL,61654,(309)671-8040,,,SA/TX/MM/BU/OP/SF/MD/SI/PI/MI/SS/,1221IL61654,-89.64356639871531,40.73010142460936,98.53
Rose Medical Association Inc/Peoria,,,1327 East Kelly Avenue,,,Peoria Heights,IL,61616,(309)686-1600,,Methadone and Buprenorphine Clients Only,SA/TX/MM/BU/OP/AD/CO/PW/SF/AR/SP/,0922IL61616,-89.57251786700103,40.74267553665807,100.0
Center for Alcohol and Drug Servs Inc,Rock Island Office,,4230 11th Street,,,Rock Island,IL,61201,(309)788-4571,,,SA/TX/MM/DM/OP/WN/MN/DU/SF/MD/PI/SS/AH/,1118IL61201,-90.5839062997066,41.469214084311034,100.0
Mathers Clinic LLC,,,6180 East State Street,,,Rockford,IL,61108,(815)397-7654,,,MH-SA/TX/MM/BU/OP/AD/CO/GL/SE/PW/WN/MN/DU/SF/MC/PI/MI/SP/F36/,5137IL61108,-88.99632363067767,42.26689793275021,100.0
PHASE Inc,,,516 Green Street,,,Rockford,IL,61102,(815)962-0871 Intake: (815)547-4502,,,SA/TX/MM/DM/BU/OP/AD/PW/WN/DU/CJ/SF/MD/SI/PI/MI/SS/PA/,6362IL61102,-89.09987978129647,42.26985012286789,100.0
Schaumburg Interventions and Counseling Center LLC,,,1340 Remington Road,Suite K,,Schaumburg,IL,60173,(847)882-8908,,Methadone and Buprenorphine Clients Only,SA/TX/DT/MM/DM/BU/OP/CO/PW/SF/PI/SP/F81/,1312IL60173,-88.04723285513336,42.053445098946675,100.0
Triangle Center,,,120 North 11th Street,,,Springfield,IL,62703,(217)544-9858x101 Intake: (217)544-9858 Hotline: (217)544-9858,,,MH-SA/TX/DT/MM/DM/HH/BU/RS/RL/OP/PH/AD/CO/HV/PW/WN/MN/DU/CJ/SF/MD/SI/PI/SS/,8360IL62703,-89.64073247725163,39.80239305170364,100.0
Pilsen Wellness Center,,,1546 North Mannheim Road,,,Stone Park,IL,60165,(708)410-0856 Intake: (888)255-5523,,Methadone Clients Only,SA/TX/MM/OP/SF/MD/SP/,3496IL60165,-87.88373017119427,41.89970741602579,100.0
JEM Treatment Inc,,,2424 Washington Street,Suite LL-110,,Waukegan,IL,60085,(847)336-7733,,Methadone Clients Only,SA/TX/MM/DM/OP/CO/HV/GL/SE/PW/WN/MN/CJ/SF/SP/F81/,5574IL60085,-87.86347027302881,42.36018872464084,100.0
Lake County Substance Abuse Program,,,3004 Grand Avenue,,,Waukegan,IL,60085,(847)377-8120 Hotline: (847)377-8088,,,SA/TX/MM/OP/AD/CO/SF/MD/PI/SS/PA/,8908IL60085,-87.87658359290873,42.37321684247499,100.0
Stonybrook Center Inc,,,27 West 281 Geneva Road,Suite G,,Winfield,IL,60190,(630)221-1400,,Methadone Clients Only,SA/TX/DT/MM/DM/OP/DU/SF/,8708IL60190,-88.15424930653954,41.88820562529522,98.24
Evansville Treatment Center LLC,,,1510 West Franklin Street,,,Evansville,IN,47710,(812)424-0223 Hotline: (812)424-0223,,,SA/TX/DT/MM/DM/BU/OP/CO/PW/WN/MN/SF/SI/PI/AR/,4799IN47710,-87.58618685770136,37.980369472866975,100.0
Center for Behavioral Health IN Inc,Outpatient Treatment,,1414 Wells Street,,,Fort Wayne,IN,46808,(260)420-6010,,,SA/TX/DT/MM/DM/BU/OP/PW/DU/CJ/SF/AR/,0556IN46808,-85.14558896661987,41.08701237527981,99.55
Edgewater System for,Balanced Living Inc,,1110 West 5th Avenue,Turning Point Building,,Gary,IN,46402,(219)885-4264x4235,,,SA/TX/MM/BU/OP/CO/PW/WN/MN/DU/CJ/SF/MD/MC/SI/PI/AR/SS/,8321IN46402,-87.35163432220762,41.60203666663693,100.0
Indianapolis Treatment Center LLC,,,2626 East 46th Street,Suite J,,Indianapolis,IN,46205,(317)475-9066,,,SA/TX/DT/MM/DM/BU/OP/PW/WN/SF/PI/SP/,7694IN46205,-86.11908499436409,39.840277493857094,100.0
Midtown Community Mental Health Center,Narcotics Treatment,,832 North Meridian Street,,,Indianapolis,IN,46204,(317)686-5634 Intake: (317)630-7791,,Methadone Clients Only,SA/TX/DT/MM/DM/OP/PW/WN/SF/,0459IN46204,-86.15767725172145,39.7787250507524,100.0
East Indiana Treatment Center LLC,,,816 Rudolph Way,,,Lawrenceburg,IN,47025,(812)537-1668 Intake: (812)537-1668x146,,Methadone and Buprenorphine Clients Only,SA/TX/DT/MM/DM/BU/OP/PW/WN/SF/MD/PI/,9272IN47025,-84.8559806332253,39.107467438610136,100.0
Premier Care of Indiana Inc,,,315 South Norton Avenue,,,Marion,IN,46952,(765)664-0101,,Methadone and Buprenorphine Clients Only,SA/TX/DT/MM/DM/BU/OP/PW/WN/SF/AR/,9396IN46952,-85.68738982346241,40.55789518196039,100.0
Northwest Indiana Treatment Center,,,8500 Broadway,,,Merrillville,IN,46410,(219)769-7710 Intake: (219)938-2222,,Methadone Clients Only,SA/TX/DT/MM/DM/OP/AR/,5997IN46410,-87.33615745200605,41.4635510190686,100.0
Richmond Treatment Center LLC,,,4265 South A Street,,,Richmond,IN,47374,(765)962-8843 Intake: (765)939-2169,,Methadone and Buprenorphine Clients Only,SA/TX/DT/MM/DM/BU/OP/PW/WN/MN/DU/CJ/SF/PI/AH/SP/,7738IN47374,-84.84345265990513,39.82683792012981,100.0
Victory Clinic Services II,,,4005 Western Avenue,,,South Bend,IN,46619,(574)233-1524,,Methadone and Buprenorphine Clients Only,SA/TX/DT/MM/DM/BU/OP/SF/MD/PI/MI/SP/F28/,4240IN46619,-86.303711666867,41.671921863067936,99.55
Porter Starke Services Inc,,,701 Wall Street,,,Valparaiso,IN,46383,(219)531-3500,,Methadone Clients Only,SA/TX/DT/MM/DM/OP/HV/SF/PI/,6311IN46383,-87.05196902484259,41.489167540096396,100.0
Cedar Valley Recovery Services,,,2603 Rainbow Drive,,,Cedar Falls,IA,50613,(319)277-5808 Intake: (319)240-8911 Hotline: (319)240-8911,,,SA/TX/DT/MM/BU/OP/DU/SF/PI/,5236IA50613,-92.41448696349495,42.51719300286707,100.0
Center for Behavioral Health Iowa Inc,,,1200 University Street,Suite 106,,Des Moines,IA,50314,(515)244-9500,,,SA/TX/DT/MM/DM/BU/OP/PW/DU/CJ/SF/AR/,6010IA50314,-93.63310998940521,41.600412494316814,98.04
United Community Services,,,401 SW 8th Street,,,Des Moines,IA,50309,(515)280-3860 Hotline: (515)280-3860,,,MH-SA/TX/MM/DM/OP/CJ/SF/MD/SI/PI/MI/AR/SS/,6266IA50309,-93.62477737182036,41.57922777886469,100.0
Cedar Valley Recovery Services,,,151 Marion Boulevard,,,Marion,IA,52302,(319)363-2678 Intake: (319)240-8911 Hotline: (319)240-8911,,,SA/TX/MM/BU/OP/DU/SF/PI/MI/AH/,5135IA52302,-91.6098830996126,42.03253828549392,100.0
Kansas City Metro Methadone Program,,,3901 Rainbow Boulevard,Mail Stop 4015,,Kansas City,KS,66160,(913)588-6493,,Methadone and Buprenorphine Clients Only,MH-SA/TX/DT/MM/DM/BU/OP/PW/WN/MN/SF/MD/MC/SI/PI/MI/,8648KS66160,-94.61178251291236,39.05692401763841,100.0
Kansas Treatment Services LLC,,,1125 North 5th Street,,,Kansas City,KS,66101,(913)342-0888,,Methadone Clients Only,SA/TX/MM/OP/PW/SF/MD/,9811KS66101,-94.6213651237176,39.117358126266545,100.0
Center for Change,,,1333 North Broadway,Suites C and D,,Wichita,KS,67214,(316)201-1234 Hotline: (316)201-1234,,Methadone and Buprenorphine Clients Only,SA/TX/MM/DM/BU/OP/WN/SF/,0171KS67214,-97.33560751068212,37.7074200043955,98.84
Metro Treatment Center Inc,Wichita,,630 North Saint Francis Street,Suite C,,Wichita,KS,67214,(316)263-1623 Hotline: (316)263-1623,,Methadone Clients Only,SA/TX/MM/OP/GL/PW/WN/SF/SP/,4002KS67214,-97.33163259725828,37.69529163977139,100.0
Wichita Treatment Center,Wichita,,939 North Main Street,,,Wichita,KS,67203,(316)263-8807,,Methadone and Buprenorphine Clients Only,SA/TX/DT/MM/DM/BU/OP/CO/HV/GL/SE/PW/WN/MN/CJ/SF/MD/MC/SI/MI/,1127KS67203,-97.33820933724677,37.70003806226889,100.0
Ultimate Treatment Center,,,2154 Carter Avenue,Suite B,,Ashland,KY,41101,(606)393-4632,,Methadone and Buprenorphine Clients Only,SA/TX/DT/MM/DM/BU/OP/HV/GL/SE/PW/WN/MN/DU/CJ/SF/MD/MC/SI/PI/MI/SS/,5778KY41101,-82.63353308785409,38.47428447495874,100.0
Corbin Professional Associates,,,967 U.S. Highway 25 West,,,Corbin,KY,40701,(606)526-9348,,Methadone Clients Only,SA/TX/MM/OP/SF/,2735KY40701,-84.09446427789263,36.95595271277985,100.0
E Town Addiction Solutions LCC,,,2645 Leitchfield Road,Suite 104,,Elizabethtown,KY,42701,(270)234-8180,,Methadone and Buprenorphine Clients Only,SA/TX/MM/BU/OP/CO/SF/,6747KY42701,-85.89999483874992,37.676380608615524,100.0
Perry County Treatment Services,,,48 Independence Drive,,,Hazard,KY,41701,(606)487-1646 Intake: (606)487-1197,,Methadone Clients Only,SA/TX/MM/OP/SF/,9601KY41701,-83.22752113715664,37.2835198734005,100.0
Lexington Professional Associates,,,340 Legion Drive,Suite 28,,Lexington,KY,40504,(859)276-0533,,Methadone and Buprenorphine Clients Only,SA/TX/MM/DM/BU/OP/PW/SF/,6684KY40504,-84.5198330397345,38.03427906615384,100.0
Center for Behavioral Health KY Inc,,,1402 Browns Lane,Suite A,,Louisville,KY,40207,(502)894-0234,,,SA/TX/DT/MM/DM/BU/OP/PW/DU/CJ/SF/,8879KY40207,-85.62875170522791,38.234833072980216,100.0
Methadone/Opiate Rehabilitation and Education Center (MORE),,,1448 South 15th Street,,,Louisville,KY,40210,(502)574-6414 Intake: (502)574-6500,,Methadone Clients Only,SA/TX/MM/OP/HV/PW/WN/MN/SF/PI/AH/,9372KY40210,-85.77997674503371,38.229075795146215,100.0
Paducah Professional Associates,,,125 South 17th Street,,,Paducah,KY,42001,(270)443-0096 Intake: (270)443-0080,,Methadone and Buprenorphine Clients Only,SA/TX/DT/MM/DM/BU/OP/WN/MN/SF/,5718KY42001,-88.61702675401095,37.0782126612394,100.0
Paintsville Professional Assoc LLC,,,628 Jefferson Avenue,,,Paintsville,KY,41240,(606)789-6966 Intake: (606)789-6953,,Methadone Clients Only,SA/TX/DT/MM/OP/MC/,7671KY41240,-82.79986815436355,37.80994750950756,100.0
Pikeville Treatment Center,,,368 South Mayo Trail,,,Pikeville,KY,41501,(606)437-0047 Intake: (606)437-0547,,Methadone Clients Only,SA/TX/MM/OP/SF/,4367KY41501,-82.5323890813312,37.46721703906875,100.0
Choices of Louisiana Inc,,,2116 North Bolton Avenue,,,Alexandria,LA,71303,(318)445-1250 Hotlines: (318)445-1250 (318)3184451,,Methadone Clients Only,SA/TX/MM/DM/OP/PW/SF/PI/,9477LA71303,-92.47633174642742,31.32256263462953,100.0
Baton Rouge Treatment Center Inc,,,11445 Reiger Road,,,Baton Rouge,LA,70809,(225)932-9867 Intake: (866)762-3766 Hotline: (866)762-3766,,Methadone and Buprenorphine Clients Only,SA/TX/DT/MM/DM/BU/OP/PW/WN/SF/PI/SP/,9094LA70809,-91.05386684187138,30.375136385619445,100.0
Opiate Replacement Therapy Centers,of America Inc,,2013 Rees Street,,,Breaux Bridge,LA,70517,(337)332-4878,,Methadone and Buprenorphine Clients Only,SA/TX/MM/BU/OP/SF/,6253LA70517,-91.91390387070645,30.291912647620283,100.0
Choices of Louisiana Inc,,,128 Woodland Drive,,,La Place,LA,70068,(985)651-3777 Intake: (985)651-3771 Hotline: (985)651-3777,,Methadone and Buprenorphine Clients Only,SA/TX/MM/DM/BU/OP/CO/PW/SF/,7867LA70068,-90.45007748084605,30.086159412789296,100.0
Lake Charles Subst Abuse Clinic Inc,,,2829 4th Avenue,Suite 200,,Lake Charles,LA,70601,(337)433-8281,,Methadone Clients Only,SA/TX/MM/DM/OP/SF/,0032LA70601,-93.19348341592516,30.20428841991701,100.0
DRD New Orleans Medical Clinic,,,417 South Johnson Street,,,New Orleans,LA,70112,(504)524-7205,,Methadone Clients Only,SA/TX/DT/MM/DM/OP/PW/SF/,6217LA70112,-90.08435727566686,29.958210205639862,100.0
Center for Behavioral Health,Louisiana Inc,,1303 Line Avenue,Suite 600,,Shreveport,LA,71101,(318)425-3400,,,SA/TX/DT/MM/DM/BU/OP/PW/DU/CJ/SF/,8060LA71101,-93.74595739587484,32.49952932004795,100.0
Acadia Hospital,,,268 Stillwater Avenue,P.O. Box 422,,Bangor,ME,4402,(207)973-6100 Intake: (207)973-6100x0 Hotline: (207)973-6100,,,MH-SA/TX/DT/MM/BU/OP/AD/CO/HV/PW/WN/MN/SF/MD/MC/PI/MI/PA/AH/,1148ME04402,-68.76232428884263,44.82000296694239,98.71
Discovery House,,,74 Dowd Road,,,Bangor,ME,4401,(207)947-6800,,Methadone Clients Only,SA/TX/MM/OP/PW/WN/DU/SF/MC/SI/,0874ME04401,-68.82445271537861,44.78332191462777,100.0
Penobscot County Metro Treatment Ctr,,,659 Hogan Road,,,Bangor,ME,4401,(207)973-0400,,Methadone Clients Only,SA/TX/MM/DM/OP/SF/MC/,4754ME04401,-68.7425369623778,44.836704034747946,100.0
Discovery House of Washington County,,,12 Beech Street,,,Calais,ME,4619,(207)454-1300 Hotline: (888)366-7929,,Methadone and Buprenorphine Clients Only,MH-SA/TX/MM/DM/BU/OP/PW/DU/SF/MD/MC/PI/,9856ME04619,-67.28905259039675,45.17896396349136,100.0
Community Substance Abuse Centers,Merrimack River Medical Services Inc,,2300 Congress Street,,,Portland,ME,4102,(207)221-2292,,Methadone Clients Only,SA/TX/DT/MM/DM/OP/CO/PW/WN/MN/SF/MD/AH/,0911ME04102,-70.33398704153205,43.65083195439101,100.0
Turning Tide,,,166 New County Road,,,Rockland,ME,4841,(207)594-8433,,,SA/TX/DT/MM/DM/OP/HV/GL/SE/PW/WN/MN/DU/SF/MD/SI/AH/,7239ME04841,-69.13203780033253,44.0966443038064,100.0
Discovery House,,,400 Western Avenue,,,South Portland,ME,4106,(207)774-7111 Intake: (888)366-7929,,Methadone and Buprenorphine Clients Only,SA/TX/DT/MM/DM/BU/OP/SF/MD/,1031ME04106,-70.32894901480951,43.642200019043884,100.0
Cap Quality Care Inc,,,1 Delta Drive,Suite A,,Westbrook,ME,4092,(207)856-7227,,Methadone Clients Only,SA/TX/DT/MM/DM/OP/GL/WN/DU/SF/MD/,1273ME04092,-70.33290577602246,43.68228248957654,100.0
Recovery Center at Mercy Hospital,,,40 Park Road,,,Westbrook,ME,4092,(207)857-8282 Intake: (207)879-3600 Hotline: (207)879-3600,,,SA/TX/DT/MM/BU/HI/OP/PH/PW/SF/MD/MC/PI/MI/AH/,2099ME04092,-70.3565972253479,43.68730220184083,100.0
Serenity Health LLC,,,780 West Bel Air Avenue,Suite B,,Aberdeen,MD,21001,(410)273-1030,,,SA/TX/DT/MM/DM/BU/OP/PW/WN/MN/SF/MD/MC/SI/MI/,3632MD21001,-76.18631171816331,39.51986310981202,100.0
ADAPT Cares,,,3101 Towanda Avenue,,,Baltimore,MD,21215,(410)383-4995 Intake: (410)383-4978,,Methadone Clients Only,SA/TX/MM/OP/CO/WN/MN/SF/MD/MC/SI/SS/AH/,0231MD21215,-76.6575562286458,39.32194051766865,100.0
Addiction Treatment Services,,,5200 Eastern Avenue,MFL East 6th Floor,,Baltimore,MD,21224,(410)550-0004 Intake: (410)550-0051 Hotline: (410)550-6372,,Methadone and Buprenorphine Clients Only,SA/TX/DT/MM/DM/BU/OP/CO/SF/MD/SI/PI/MI/SS/AH/,0135MD21224,-76.5524240102012,39.287320071929564,100.0
Addiction Treatment Services,BBRC Johns Hopkins Bayview Medical Ctr,,5510 Nathan Shock Drive,Suite 1500,,Baltimore,MD,21224,(410)550-0133 Intake: (410)550-0051 Hotline: (410)550-6372,,Methadone and Buprenorphine Clients Only,SA/TX/MM/DM/BU/OP/CO/PW/SF/MD/SI/PI/SS/,1719MD21224,-76.54960270925575,39.291318969118294,100.0
Bon Secours Hospital,New Hope Treatment Center,,2401 West Baltimore Street,,,Baltimore,MD,21223,(410)945-7706,,Methadone and Buprenorphine Clients Only,SA/TX/MM/DM/BU/OP/CO/HV/WN/MN/SF/MD/SI/PI/SS/PA/,3692MD21223,-76.65429223173031,39.287809785123756,100.0
CWC IOP Grant,,,911 North Broadway,,,Baltimore,MD,21205,(410)955-5439 Intake: (410)955-9534,,,SA/TX/DT/MM/BU/OP/PH/CO/HV/WN/MN/CJ/SF/SS/PA/,2354MD21205,-76.59424596817522,39.30083912412927,100.0
Center for Addiction Medicine,,,827 Linden Avenue,,,Baltimore,MD,21201,(410)225-8240 Intake: (410)225-8230,,,SA/TX/DT/MM/DM/BU/OP/CO/WN/MN/SF/MD/MC/SI/PI/,4925MD21201,-76.62077459349325,39.29943179679077,100.0
Deaf Addiction Services at Maryland,(DASAM),,630 West Fayette Street,Room 108,,Baltimore,MD,21201,(410)837-3313 Intake: (410)706-1144,,,MH-SA/TX/MM/DM/BU/OP/PH/AD/CO/HV/GL/SE/PW/WN/MN/DU/CJ/SF/MD/MC/SI/PI/MI/PA/AH/,5231MD21201,-76.62664712249611,39.29019535858665,100.0
Eastern Avenue Health Solutions Inc,,,5920 Eastern Avenue,Suite C,,Baltimore,MD,21224,(401)631-2772,,Methadone Clients Only,SA/TX/MM/OP/SF/MD/SI/,1128MD21224,-76.54508448904039,39.28757962292734,100.0
Glass Substance Abuse Programs Inc,GSAP Methadone Program,,821 North Eutaw Street,Suites 101 and 201,,Baltimore,MD,21201,(410)225-9185 Intakes: (410)225-5452 (410)CALLGLA Hotlines: (410)225-5452 (410)CALLGLA,,Methadone and Buprenorphine Clients Only,SA/TX/DT/MM/DM/BU/OP/HV/PW/WN/MN/CJ/SF/MD/PI/,5218MD21201,-76.62149459897603,39.29953154143857,100.0
Glass Substance Abuse Programs Inc,Methadone for Business Achievers (MBA),,821 North Eutaw Street,Suite 201,,Baltimore,MD,21201,(410)225-9185 Intakes: (410)225-5452 (410)CALLGLA Hotlines: (410)225-5452 (410)CALLGLA,,Methadone and Buprenorphine Clients Only,SA/TX/DT/MM/DM/BU/OP/HV/PW/WN/MN/CJ/SF/MD/PI/,5218MD21201,-76.62149459897603,39.29953154143857,100.0
Glenwood Life Counseling Center,,,516 Glenwood Avenue,,,Baltimore,MD,21212,(410)323-9811x200 Intake: (410)323-9811x229,,Methadone Clients Only,SA/TX/MM/OP/HV/PW/WN/SF/MD/SI/PI/MI/SS/PA/,3328MD21212,-76.60854749223614,39.353925273452866,100.0
Hampden Health Solutions,at the Rail Inc,,3612 Falls Road,,,Baltimore,MD,21211,(410)467-4357,,Methadone Clients Only,SA/TX/MM/DM/OP/SF/MD/SI/PI/,2125MD21211,-76.63503941923155,39.331227708296474,100.0
Institutes for Behavior Resources Inc,REACH Mobile Health Servs/Outpt Servs,,2104 Maryland Avenue,,,Baltimore,MD,21218,(410)752-6080 Intakes: (410)752-6850x134 (410)752-6148,,Methadone and Buprenorphine Clients Only,SA/TX/MM/DM/BU/OP/MN/SF/MD/PI/SS/PA/,0807MD21218,-76.61807964398444,39.31348556620697,100.0
Johns Hopkins Hospital Broadway Center,Intensive Outpatient Fee for Service,,911 North Broadway,,,Baltimore,MD,21205,(410)955-5439 Intake: (410)955-5578,,,SA/TX/MM/BU/OP/WN/MN/SF/MD/MC/SS/PA/,2354MD21205,-76.59424596817522,39.30083912412927,100.0
Johns Hopkins Hospital Broadway Center,Non Funded Outpatient,,911 North Broadway,Room 217,,Baltimore,MD,21205,(410)955-5439 Intake: (410)955-5578,,Methadone and Buprenorphine Clients Only,SA/TX/MM/BU/OP/PH/CO/HV/WN/MN/SF/MD/MC/PI/SS/PA/,2354MD21205,-76.59424596817522,39.30083912412927,100.0
Johns Hopkins Hospital Comprehensive,Womens Center/Funded Outpatient,,911 North Broadway,Room 217,,Baltimore,MD,21205,(410)955-9534,,,SA/TX/MM/BU/OP/WN/SF/MD/MC/PI/SS/PA/,2354MD21205,-76.59424596817522,39.30083912412927,100.0
