Name1,Name2,Name3,Address1,Address2,Address3,City,State,ZIP_Code,Contact,Website,Note,Keys,ID,Longitude,Latitude,Match Score
Lighthouse of Tallapoosa County Inc,Substance Abuse Rehab Program/Resid,,36 Franklin Street,,,Alexander City,AL,35010,(256)234-4894,,,SA/TX/HH/RL/MN/SF/,6152AL35010,-85.95092163698332,32.94535931336939,100.0
Anniston Fellowship House Inc,,,106 East 22nd Street,,,Anniston,AL,36201,(256)236-7229,,,SA/TX/HH/RL/MN/SF/,3680AL36201,-85.82789030197445,33.672922506776054,100.0
Bridge Inc,Recovery Center for Teens/Ashville,,474 10th Street,,,Ashville,AL,35953,(205)594-3111,www.bridgeinc.org,,SA/TX/OP/PH/AD/CJ/SF/MD/SI/PI/MI/SS/PA/AH/,1075AL35953,-86.24645010859075,33.83125825032185,100.0
Northwest Alabama Treatment Center,,,4204 Edmonton Drive,,,Bessemer,AL,35022,(205)425-1200,www.nwatc.net,Methadone Clients Only,SA/TX/DT/MM/DM/OP/SF/,8772AL35022,-86.93995821612879,33.368655188646365,100.0
Alcohol and Drug Abuse Trt Centers Inc,,,2701 Jefferson Avenue SW,,,Birmingham,AL,35211,(205)923-6552,,,MH-SA/TX/DT/RS/OP/PH/CO/PW/WN/MN/SF/MD/MC/,5319AL35211,-86.8776602236915,33.47431863354241,100.0
Aletheia House,,,201 Finley Avenue West,,,Birmingham,AL,35204,(205)324-6502,,,SA/TX/OP/SF/MD/,0542AL35204,-86.83880519462637,33.5364827663802,100.0
Aletheia House,Men Only,,135 Finley Avenue West,,,Birmingham,AL,35204,(205)328-3600 Intake: (205)324-6502,,,SA/TX/RL/HV/MN/CJ/SF/MD/,2968AL35204,-86.8371618498389,33.53726299922527,100.0
Aletheia House,Transitional Housing and Men of Honor,,1001 22nd Avenue West,,,Birmingham,AL,35204,(205)801-9669 Intake: (205)324-6502x10,,,SA/TX/HH/OP/HV/MN/CJ/SF/,0376AL35204,-86.85292866552572,33.529951293140634,100.0
Birmingham Healthcare,,,712 25th Street North,,,Birmingham,AL,35203,(205)323-5311,www.birminghamhealthcare.org,,TX/OP/CO/SF/MD/MC/SI/PI/SS/PA/,5440AL35203,-86.80299525633802,33.52380065509877,100.0
Birmingham Metro Treatment Center,Limited Partnership,,151 Industrial Drive,,,Birmingham,AL,35211,(205)941-1799,www.methadonetreatment.com,Methadone Clients Only,SA/TX/DT/MM/DM/OP/SF/,3700AL35211,-86.85061106777306,33.44878773365579,100.0
Bradford Health Services,Birmingham Regional Office Jefferson,,631 Beacon Parkway West,Suite 211,,Birmingham,AL,35209,(800)293-7191 Intake: (205)942-3200 Hotlines: (800)293-7191 (800)333-1865,www.bradfordhealth.com,,SA/TX/OP/AD/SF/SI/PI/MI/,0352AL35209,-86.82185049486422,33.47609107078793,100.0
Department of Veterans Affairs,Medical Center,,700 South 19th Street,,,Birmingham,AL,35233,(205)933-8101x6136 Intake: (205)933-8101x5510,,,GH/TX/OP/CO/SF/PI/MI/PA/SP/,5587AL35233,-86.80095784682842,33.504708438880954,99.89
Hill Crest Behavioral Health Services,Chemical Dependency Track,,6869 5th Avenue South,,,Birmingham,AL,35212,(205)833-9000 Intake: (205)833-9000x2050 Hotline: (800)292-8553,,,MH/DT/HI/AD/CO/HV/GL/SE/PW/WN/MN/SF/MD/MC/PI/MI/,9326AL35212,-86.73057500586397,33.54924115517593,100.0
Jefferson County Economic Opportunity,Community Substance Abuse Program,,228 2nd Avenue North,,,Birmingham,AL,35204,(205)787-3040 Intake: (205)787-3040x221,,,SA/TX/OP/SF/MD/,1350AL35204,-86.8308704285095,33.504160094775386,100.0
Oakmont Center,,,2008 21st Street Ensley,,,Birmingham,AL,35218,(205)787-7100,,,SA/TX/OP/SF/MD/,1493AL35218,-86.88076395161484,33.50786944385658,100.0
Tri County Treatment Center,,,1101 East Park Drive,,,Birmingham,AL,35235,(205)836-3345,www.methadonetreatment.com,Methadone Clients Only,SA/TX/DT/MM/DM/OP/SF/,6133AL35235,-86.68089638775254,33.58759385235036,100.0
University of Alabama at Birmingham,(UAB)/Substance Abuse Programs,,401 Beacon Parkway West,Suite 270,,Birmingham,AL,35209,(205)917-3784 Intake: (205)917-3733x104,,,SA/TX/MM/OP/AD/WN/SF/MD/SI/PI/MI/AH/,2643AL35209,-86.82401847412059,33.474769999028396,100.0
University of Alabama at Birmingham,Center for Psychiatric Medicine,,1713 6th Avenue South,,,Birmingham,AL,35294,(205)934-7008 Intakes: (205)975-7350 (205)975-7352,www.main.uab.edu,,MH/TX/DT/HI/RS/OP/PH/SF/MD/MC/PI/,0640AL35294,-86.80453989505979,33.50508138437197,99.52
Bradford Health Services,,,703 Medical Center Parkway,,,Boaz,AL,35957,(256)593-9152 Intake: (888)265-2373 Hotlines: (256)593-9152 (800)265-2373,www.bradfordhealth.com/contact_us/,locations.html,SA/TX/OP/AD/SF/PI/,2910AL35957,-86.16063777484834,34.21860109644032,100.0
Indian Rivers Mental Health Center,Substance Abuse Intensive/Outpatient,,Highway 17,,,Carrollton,AL,35447,(205)367-8159 Intake: (205)562-3700x104 Hotlines: (205)345-1600 (800)264-1660,,,MH/TX/OP/SF/MD/MC/SI/PI/MI/SS/AH/,9038AL35447,-88.07893088193813,33.2882090273279,100.0
Bridge Inc,Recovery Center for Teens/Cullman,,402 Arnold Street NE,Suite 104,,Cullman,AL,35055,(256)775-8301,www.bridgeinc.org,,SA/TX/OP/AD/CJ/SF/MD/SI/PI/MI/SS/PA/AH/,9513AL35055,-86.88227496430383,34.196379987614414,100.0
Cullman County Treatment Center,,,1912 Commerce Avenue,,,Cullman,AL,35055,(256)739-5595,,Methadone Clients Only,SA/TX/DT/MM/OP/PW/SF/,2781AL35055,-86.87567756831436,34.2048932352126,100.0
Lighthouse Inc,,,925 Convent Road NE,,,Cullman,AL,35055,(256)739-2777,www.geocities.com/lighthouse_cullman,,SA/TX/HH/RL/MN/SF/SS/,2708AL35055,-86.82733340629223,34.188675003777085,100.0
Mental Health Ctr of North Central AL,Quest Rec Ctr Subst Abuse Treatment,,4110 U.S. Highway 31 South,,,Decatur,AL,35603,(256)353-9116 Intakes: (256)355-5904 (800)365-6008 Hotline: (256)355-6091,www.mhcnca.org,,SA/TX/OP/PW/WN/SF/MD/MC/SI/PI/SS/AH/,5798AL35603,-86.97199232280292,34.5278675450569,100.0
Bradford Health Services,Dothan Outreach,,114 Adris Place,,,Dothan,AL,36303,(334)671-1677 Hotline: (334)671-1677,www.bradfordhealth.com,,SA/TX/OP/PH/AD/DU/CJ/SF/SI/PI/MI/,7798AL36303,-85.45949518003475,31.24440712912219,100.0
Spectra Care,The Haven,,831 John D Odom Road,,,Dothan,AL,36303,(334)794-3771 Intake: (334)794-3771x21 Hotline: (334)794-0300,,,SA/TX/RS/SF/MD/SI/SS/,0433AL36303,-85.46066747301337,31.250740537071014,100.0
Baldwin County Mental Health Center,Rapport,,372 South Greeno Road,,,Fairhope,AL,36532,(251)990-8961 Intakes: (251)990-4234 (258)872-8223 Hotline: (251)928-9500,,,SA/TX/OP/SF/MD/MC/,9108AL36532,-87.88619470218504,30.51438598451874,99.89
Bradford Health Services,Florence Outreach,,1626-A Florence Boulevard,,,Florence,AL,35630,(256)760-0200 Intake: (866)888-8091,www.bradfordhealth.org,,SA/TX/OP/AD/SF/SI/PI/,5458AL35630,-87.65071424515398,34.8222433873526,99.99
Riverbend Center for Mental Health,Substance Abuse Services,,635 West College Street,,,Florence,AL,35630,(256)764-3431x205 Intake: (256)764-3431 Hotline: (256)764-3431,www.rcmh.org,,MH-SA/TX/OP/AD/CO/CJ/SF/MD/MC/SI/PI/MI/AH/,3136AL35630,-87.68471101656769,34.79534349627563,100.0
Bridge Inc,Recovery Center for Teens/Fort Payne,,100 7th Street NE,,,Fort Payne,AL,35967,(256)845-7767 Intake: (256)845-6220,www.bridgeinc.org,,SA/TX/OP/SF/MD/SS/PA/AH/,2872AL35967,-85.71774005933308,34.44614004867035,100.0
Family Life Center,,,300 Gault Avenue South,,,Fort Payne,AL,35967,(256)997-9356 Intake: (256)844-2006,www.familylifecenter.ws,,SA/TX/OP/AD/CO/SF/MC/PI/MI/,9515AL35967,-85.72423649193735,34.43935219864058,100.0
Army Substance Abuse Program,,,6th Avenue,Building 132,,Fort Rucker,AL,36362,(334)255-1040,,,SA/TX/OP/DU/PA/AH/,6108AL36362,-85.7187528934878,31.326609107707647,100.0
Bridge Inc,,,3232 Lay Springs Road,,,Gadsden,AL,35904,(256)546-6324,www.bridgeinc.org,,SA/TX/RL/AD/CO/CJ/SF/MD/SI/PI/MI/PA/AH/,3453AL35904,-85.97860622498159,34.07195402964593,100.0
Gadsden Treatment Center Inc,,,1107 West Meighan Boulevard,,,Gadsden,AL,35901,(256)549-0807,www.bitchandgripe.com/Wisconsin.htm,Methadone Clients Only,SA/TX/MM/OP/PW/WN/MN/SF/PI/,7491AL35901,-86.01800955180912,34.02036605590047,100.0
Mountain View Deferred Prosecution,Prosecution Program/Gadsden,,301 North 12th Street,Suites 1-3,,Gadsden,AL,35901,(256)546-9265 Intakes: (256)546-9265x600 (256)546- 9265x608 Hotline: (800)662-1002,www.mtnviewhospital.com,,SA/TX/OP/CJ/SF/AH/,0698AL35901,-86.02112636250472,34.02258935571783,100.0
Mountain View Hospital,,,3001 Scenic Highway,,,Gadsden,AL,35904,(800)245-3645 Intakes: (800)662-2760 (256)546-9265 Hotlines: (800)662-2760 (256)546-9265,www.mtnviewhospital.com,,MH/TX/DT/HI/OP/PH/CO/SE/SF/MC/PI/MI/AH/,2657AL35904,-86.02069245919455,34.07105845576011,100.0
Mountain View Outpatient Program,Chemical Dependency,,3001 Scenic Highway,,,Gadsden,AL,35904,(256)546-9265 Intakes: (256)546-9265x210 (256)546- 9265x211 Hotline: (800)662-1002,www.mtnviewhospital.com,,SA/TX/OP/SF/SI/PI/MI/AH/,2657AL35904,-86.02069245919455,34.07105845576011,100.0
Mountain View Partial Hospitalization,Program,,3001 Scenic Highway,,,Gadsden,AL,35904,(256)546-9265 Intakes: (256)546-9265x268 (256)546- 9265x276 Hotline: (800)662-1002,www.mtnviewhospital.com,,MH/TX/PH/CO/SE/WN/MN/SF/MC/SI/PI/MI/AH/,2657AL35904,-86.02069245919455,34.07105845576011,100.0
Gulf Coast Treatment,,,Interchange Road,,,Grand Bay,AL,36541,(251)865-0123,,Methadone Clients Only,SA/TX/MM/OP/HV/PW/WN/SF/AH/,1102AL36541,-88.32891143959391,30.49813972049453,97.4
Cedar Lodge,A Program of MLBH,,22165 U.S. Highway 431,,,Guntersville,AL,35976,(256)582-4465x104 Intakes: (256)582-4465 (256)582-4452 Hotlines: (256)582-4465 (256)582-5339,www.mlbhc.com,,SA/TX/RS/OP/SF/MD/SI/PI/SS/,3516AL35976,-86.26510688395511,34.41975632422606,100.0
Family Life Center,,,432 Gunter Avenue,,,Guntersville,AL,35976,(256)582-1471 Hotline: (256)582-1471,www.familylifecenter.ws,,SA/TX/OP/DU/SF/PI/SS/,6167AL35976,-86.29408555398426,34.35879763418755,100.0
Marion County Treatment Center,,,1879 Military Street South,,,Hamilton,AL,35570,(205)921-3799,,Methadone Clients Only,SA/TX/MM/OP/PW/WN/MN/SF/PI/AH/SP/,5447AL35570,-87.98942506591645,34.11666921240657,100.0
Crestwood Medical Center of Huntsville,Behavioral Services,,1 Hospital Drive,,,Huntsville,AL,35801,(256)880-4260 Intake: (256)880-4280,www.crestwoodmedcenter.com,,MH-SA/DT/HI/SF/MD/MC/SI/PI/MI/AH/,0304AL35801,-86.57255257785901,34.69296173411103,99.55
Huntsville Madison County MH Center,New Horizons Recovery Center,,600 Saint Clair Street,Number 9 Suite 23,,Huntsville,AL,35801,(256)532-4141 Intake: (256)533-1970 Hotline: (256)533-1970,www.mhcmc.org,,SA/TX/OP/SF/MD/MC/SI/PI/PA/AH/SP/,1153AL35801,-86.58760002189669,34.721767485478075,97.61
Huntsville Metro Treatment Center,,,2227 Drake Avenue,Suite 10-D,,Huntsville,AL,35805,(256)881-1311,www.methadonetreatment.com,Methadone Clients Only,SA/TX/DT/MM/DM/OP/SF/,0408AL35805,-86.60357727045357,34.699692947184474,99.55
Pathfinder Inc,,,3104 Ivy Avenue SW,,,Huntsville,AL,35805,(256)534-7644,www.Thepathfinder.us,,HH/,5546AL35805,-86.60824196720881,34.70544750090015,100.0
Northwest Alabama Mental Health Center,,,1100 7th Avenue,,,Jasper,AL,35501,(205)302-9000x9017 Intake: (205)302-9000 Hotlines: (800)489-3971 (205)302-9000,www.nwamhc.com,,MH-SA/TX/OP/AD/CO/DU/SF/MD/MC/SI/PI/MI/SS/AH/,7304AL35501,-87.28264837725199,33.841013943510376,100.0
Walker Recovery Center Inc,,,2195 North Airport Road,,,Jasper,AL,35504,(205)221-1799 Intake: (205)221-1796,,Methadone Clients Only,SA/TX/DT/MM/DM/OP/PW/WN/CJ/SF/PI/,5511AL35504,-87.2675299762368,33.873530970424305,100.0
Metro Treatment of Alabama LP,Sumter County Treatment Center,,106 Hospital Road,Suite 101,,Livingston,AL,35470,(205)652-4919,www.methadonetreatment.com,Methadone Clients Only,SA/TX/DT/MM/DM/OP/SF/,2902AL35470,-88.1828794690595,32.60011634361372,98.04
First Step,Substance Abuse Treatment,,150 Hospital Drive,P. O. Drawer 700,,Luverne,AL,36049,(334)335-6294x225 Intake: (334)335-6294 Hotline: (334)222-7794,,,SA/TX/RS/OP/DU/SF/MD/MC/PI/MI/SS/AH/,2961AL36049,-86.2635348223492,31.69433737153105,100.0
Bradford Health Services,Huntsville Madison Inpt and Outpt,,1600 Browns Ferry Road,,,Madison,AL,35758,(800)879-7272 Intake: (256)461-7272,www.bradfordhealth.com,,SA/TX/DT/HI/RS/PH/AD/SF/PI/MI/,2467AL35758,-86.78332701641291,34.72414300065681,100.0
Bradford Health Services,Mobile Regional Facility,,1000 Hillcrest Road,Suite 304,,Mobile,AL,36695,(800)333-0906 Intake: (251)633-0900 Hotlines: (251)633-0900 (800)333-0906,www.bradfordhealth.com,,SA/TX/OP/AD/WN/MN/SF/SI/PI/AH/,3751AL36695,-88.1907181293662,30.669289799718786,100.0
Bridge Inc,Mobile Campus/Westwood Program,,3401 Newman Road,,,Mobile,AL,36695,(251)633-0475 Intake: (251)633-0475x1028,www.bridgeinc.org,,SA/TX/RL/AD/SF/MD/SI/PI/MI/,4130AL36695,-88.33712499976956,30.619203988751025,100.0
Bridge Inc,Recovery Center for Teens/Mobile,,1874 Pleasant Avenue,,,Mobile,AL,36617,(251)470-1318x615 Intakes: (251)470-1319 (251)470-1318,www.bridgeinc.org,,SA/TX/OP/AD/SF/MD/SI/PI/PA/,6027AL36617,-88.08033575630262,30.702291584754377,100.0
Dauphin Way Lodge,,,1009 Dauphin Street,,,Mobile,AL,36604,(251)438-4729x149 Intakes: (251)438-4729x135 (251)438- 1625x135,www.salvos.com/mobile,,SA/TX/HH/RS/RL/SF/SS/,9975AL36604,-88.05866904000689,30.687729022785767,100.0
ECD Program,,,2950 Springhill Avenue,,,Mobile,AL,36607,(251)476-1677 Intake: (251)476-1683 Hotline: (256)476-1677,,Methadone Clients Only,SA/TX/DT/MM/OP/CO/HV/GL/SE/PW/WN/MN/CJ/SF/AH/,9926AL36607,-88.11049309267267,30.699565375987593,100.0
Franklin Primary Health Center,,,1055 Dauphin Street,,,Mobile,AL,36604,(251)434-8195,,,SA/TX/OP/WN/SF/AH/,4157AL36604,-88.05976178872388,30.687675378605523,100.0
Mobile Mental Health,Oasis,,4211 Government Boulevard,,,Mobile,AL,36693,(251)666-2569,www.mobilementalhealth.com,,SA/TX/MM/OP/PH/WN/CJ/SF/MD/MC/PI/MI/AH/,3152AL36693,-88.14878992184461,30.628666822159875,100.0
Mobile Metro Treatment Center,,,3367 Dauphin Island Parkway,,,Mobile,AL,36605,(251)476-5733,www.methadonetreatment.com,Methadone Clients Only,SA/TX/DT/MM/DM/OP/SF/,8709AL36605,-88.07649336042273,30.602566211206867,100.0
Bradford Health Services,Montgomery Outreach/Montgomery,,386 Saint Lukes Drive,,,Montgomery,AL,36117,(800)873-2887 Intake: (334)244-0702 Hotlines: (800)873-2887 (334)244-0702,www.bradfordhealth.com,,SA/TX/OP/AD/SF/SI/PI/MI/,7774AL36117,-86.17048098061719,32.37906984630004,100.0
Chemical Addictions Program Inc (CAP),,,1153 Air Base Boulevard,,,Montgomery,AL,36108,(334)269-2150,www.capmgm.com,,SA/TX/OP/PH/AD/WN/MN/SF/MD/SI/PI/SS/,4431AL36108,-86.3413790177281,32.352609016165424,100.0
Lighthouse Counseling Center Inc,Intensive Outpatient Unit,,1415 East South Boulevard,,,Montgomery,AL,36116,(334)286-5980x222 Intakes: (334)286-5980x221 (334)286- 5980x225,www.lighthousehelp.com,,SA/TX/OP/CO/PW/WN/SF/MD/MC/SI/PI/SS/AH/,6846AL36116,-86.28371898377488,32.32704278655681,100.0
Montgomery Metro Treatment Center,,,4303 Norman Bridge Road,,,Montgomery,AL,36105,(334)288-5363,www.methadonetreatment.com,Methadone Clients Only,SA/TX/DT/MM/DM/OP/SF/,6849AL36105,-86.29911972503125,32.32229104373711,100.0
Treatment Centers Inc,DBA Shoals Treatment Center,,520 Louise Avenue,,,Muscle Shoals,AL,35661,(256)383-6646 Intake: (256)549-0807,,Methadone Clients Only,SA/TX/MM/OP/HV/PW/WN/MN/SF/PI/SP/F27/F29/F65/F69/,3715AL35661,-87.66815290212082,34.756822616214265,99.55
Bradford Health Services,Tuscaloosa Regional Office,,515 Energy Center Boulevard,,,Northport,AL,35473,(800)891-9673 Intake: (205)750-0227 Hotlines: (800)891-9673 (205)750-0227,www.bradfordhealth.com,,SA/TX/OP/PH/AD/SF/SI/PI/MI/AH/,1744AL35473,-87.55388208085388,33.24001690523693,100.0
Calhoun Treatment Center Inc,,,118 East Choccolocco Street,,,Oxford,AL,36203,(256)831-4601,,Methadone Clients Only,SA/TX/DT/MM/DM/OP/PW/WN/SF/PI/,8190AL36203,-85.83361019652041,33.61507245507789,100.0
East Alabama MH/MR Center,Russell County Clinic,,2400 10th Street,,,Phenix City,AL,36869,(334)298-2405 Intakes: (800)815-0630 (334)742-2877 Hotlines: (800)815-0630 (334)742-2877,,,MH-SA/TX/OP/CO/CJ/SF/MD/SI/PI/SS/PA/AH/,9485AL36869,-85.02616126324338,32.46449744909285,100.0
New Choices Inc,,,136 East Main Street,,,Roanoke,AL,36274,(334)863-2333,,,SA/TX/OP/SF/,0940AL36274,-85.36077741631385,33.15159597032861,98.87
Freedom House,,,15132 Highway 72,,,Rogersville,AL,35652,(256)247-1222 Intake: (256)247-1224 Hotline: (256)247-1222,,,SA/TX/HH/RL/OP/PH/PW/WN/BC/SF/MD/,4635AL35652,-87.31286884665417,34.82882062013204,100.0
Freedom House,Adult Outpatient Services,,111 South Jackson Avenue,,,Russellville,AL,35653,(256)332-1230 Intake: (256)247-1222 Hotline: (256)247-1222,,,SA/TX/OP/CO/PW/WN/CJ/SF/MD/SS/PA/,8481AL35653,-87.7304685803738,34.504724221539085,100.0
Cahaba Ctr for Substance Abuse Servs,,,912 Jeff Davis Avenue,,,Selma,AL,36701,(334)874-2600 Intake: (334)875-2100 Hotlines: (334)875-2109 (800)291-1920,,,SA/TX/OP/AD/PW/SF/MD/SI/PI/MI/SS/PA/AH/,4989AL36701,-87.02907999999996,32.41915000000006,85.0
Shoulder,,,4901 Battleship Parkway,,,Spanish Fort,AL,36577,(251)626-2199,www.theshoulder.org,,SA/TX/HH/RL/SF/PI/SS/PA/,3829AL36577,-87.93945968520796,30.670448388285518,98.72
Cheaha Regional Mental Health,,,1723 Old Birmingham Highway,,,Sylacauga,AL,35150,(256)245-2201 Intake: (256)249-2395 Hotline: (256)245-2201,,,MH/TX/OP/SF/MD/SI/AH/,9262AL35150,-86.27740313359398,33.17719093597016,100.0
Cheaha Regional Mental Health/Caradale,Lodge/Mental Retardation Board Inc,,1721 Old Birmingham Highway,,,Sylacauga,AL,35150,(256)249-2395 Hotline: (256)245-2201,,,SA/TX/DT/RS/OP/HV/DU/SF/MD/SI/AH/,4273AL35150,-86.27737992071009,33.177161147231395,100.0
East Central Mental Health Inc,Substance Abuse Program,,200 Cherry Street,,,Troy,AL,36081,(334)566-6022x242 Intake: (334)566-6022x220 Hotlines: (334)566-3391 (800)467-1208,,,MH-SA/TX/OP/AD/SF/MD/SI/PI/,5583AL36081,-85.97323724420227,31.809386697728467,100.0
Bridge Inc,Recovery Center for Teens/Tuscaloosa,,6001 12th Avenue East,,,Tuscaloosa,AL,35405,(205)344-6483 Intake: (205)345-4340x258,www.bridgeinc.org,,SA/TX/OP/AD/CO/CJ/MD/SI/PI/MI/SS/PA/,7143AL35405,-87.52242312185562,33.152283189423514,100.0
Indian Rivers Mental Health Center,Alcohol and Drug Abuse Program,The Insight Center,3532 23rd Street,,,Tuscaloosa,AL,35401,(205)391-0132,,,SA/TX/RS/OP/PH/CO/PW/WN/SF/MD/MC/PI/MI/SS/AH/,2484AL35401,-87.5829582324172,33.19221721645086,100.0
Phoenix House Inc,,,700 35th Avenue,,,Tuscaloosa,AL,35401,(205)758-3867,,,SA/TX/HH/RL/HV/WN/MN/SF/SS/PA/,6479AL35401,-87.58155200052153,33.204355385715296,100.0
Tuscaloosa Treatment Center,,,1001 Mimosa Park Road,,,Tuscaloosa,AL,35405,(205)752-5857 Hotline: (205)752-5857,,Methadone Clients Only,SA/TX/MM/DM/OP/CO/HV/GL/SE/PW/WN/MN/CJ/SF/PI/MI/,5701AL35405,-87.55181937830143,33.15494892799984,100.0
Veterans Affairs Medical Center,MAPS/MI Addiction PTSD Services,,3701 Loop Road East,,,Tuscaloosa,AL,35404,(205)554-2000x2690 Intake: (205)554-2000x3158,www.vaww.visn7.med.ua.gov,,SA/TX/RS/OP/PH/CO/SE/SF/MC/PI/MI/AH/,9877AL35404,-87.48654698370329,33.19129001032155,98.87
VA Central Alabama Healthcare System,,,2400 Hospital Road,,,Tuskegee,AL,36083,(334)727-0550 Intakes: (334)727-0550x2678 (334)727- 0550x3838,,www1.va.gov/directory,GH/TX/RS/OP/CO/SF/PI/MI/PA/,9406AL36083,-85.70841234375703,32.43707538345293,100.0
Bradford Health Services,Warrior Lodge/Jefferson,,1189 Allbritton Road,,,Warrior,AL,35180,(800)333-1865 Intakes: (800)333-1865x2400 (205)647-1945 Hotlines: (800)333-1865x2400 (205)647- 1945x2400,www.bradfordhealth.com,,SA/TX/DT/RS/RL/SF/PI/MI/,3440AL35180,-86.87165668554245,33.82449669475884,100.0
A New Direction,c/o Elmore Community Hospital,,500 Hospital Drive,,,Wetumpka,AL,36092,(877)647-7552 Intake: (334)514-3709,,,SA/TX/DT/HI/CO/WN/MN/SF/MD/MC/PI/MI/,3389AL36092,-86.18704253164417,32.552381997253924,100.0
Chemical Addictions Program Inc,Hillside MH Ctr/Adult Outpatient Servs,,8721 Highway 231 North,,,Wetumpka,AL,36092,(334)269-2150,,,SA/TX/OP/SF/MD/SI/PI/SS/,9623AL36092,-86.19177436272501,32.56047370776954,98.85
TCC Allakaket Counseling Center,P.O. Box 89,,,,,Allakaket,AK,99720,(907)968-2210,,,MH-SA/TX/OP/PA/,6549AK99720,-152.65183939999997,66.56370220000008,100.0
Akeela Inc,Akeela House,,2804 Bering Street,,,Anchorage,AK,99503,(907)562-4409 Intake: (907)562-4416,www.akeela.org,,SA/TX/HH/RL/HV/GL/SE/PW/WN/SF/PI/,3752AK99503,-149.89610380953937,61.19483653977273,100.0
Alaska VA Healthcare Sys/Reg Office,Social and Behavioral Health Service,,2925 DeBarr Road,,,Anchorage,AK,99508,(907)257-4854 Intake: (907)257-4855,www.vaww.visn20.med.va.gov/anchorage,,MH-SA/TX/DT/OP/PW/WN/DU/SF/MD/MC/SI/PI/MI/,1181AK99508,-149.82716902616767,61.20982748978329,100.0
Alaska Womens Resource Center,,,610 C Street,Suite 2-A,,Anchorage,AK,99501,(907)276-0528,www.awrconline.org,,MH-SA/TX/OP/CO/WN/SF/MD/PI/MI/SS/AH/,1767AK99501,-149.88738746842716,61.216356992356644,100.0
Alaska Womens Resource Center,,,611 West 47th Street,,,Anchorage,AK,99501,(907)276-0528 Intake: (907)569-0097,www.awrconline.org,,MH-SA/TX/RS/RL/OP/PH/WN/BC/SF/MD/SI/PI/MI/SS/AH/SP/,7219AK99501,-149.89515103860532,61.177737499204376,90.44
Cook Inlet Tribal Council Inc,Ernie Turner Center,,4330 South Bragaw Street,,,Anchorage,AK,99508,(907)550-2400,www.citci.com,,SA/TX/DT/HI/RL/HV/SE/SF/PI/N3/N34/N40/,8156AK99508,-149.808305987668,61.22077810931108,92.12
Genesis Recovery Services Inc,,,2825 West 42nd Avenue,,,Anchorage,AK,99517,(907)243-5130,,,SA/TX/HH/RS/RL/OP/PH/HV/GL/WN/MN/DU/CJ/SF/PI/SS/,3917AK99517,-149.93798776061183,61.18226397837625,100.0
Narcotic Drug Treatment Center Inc,Center for Drug Problems,,520 East 4th Avenue,Suite 102,,Anchorage,AK,99501,(907)276-6430,www.ndtc.ak.org,Methadone Clients Only,SA/TX/DT/MM/DM/OP/CO/WN/MN/CJ/SF/MD/PI/SS/PA/AH/,5954AK99501,-149.87406602589138,61.21851252448672,100.0
Providence Alaska Medical Center,Providence Breakthrough,,2401 East 42nd Avenue,Suite 103,,Anchorage,AK,99508,(907)562-7325 Intakes: (907)562-1925 (800)478-0615,www.providence.org/alaska,,SA/TX/OP/PH/CO/HV/GL/SE/PW/WN/MN/CJ/SF/SI/PI/MI/,3483AK99508,-149.8358319745566,61.1826675251046,100.0
Recovery Connection LLC,,,500 Muldoon Road,Suite 9,,Anchorage,AK,99504,(907)332-7660,,,SA/TX/DT/OP/DU/SF/SI/PI/MI/,5342AK99504,-149.73350754460964,61.217742981956214,100.0
Salvation Army,Clitheroe Center,,1709 South Bragaw Street,Suite B,,Anchorage,AK,99508,(907)276-2898 Intake: (877)376-2898,www.salvationarmy.org/clitheroe,,SA/TX/OP/CO/WN/MN/SF/MD/PI/MI/SS/AH/SP/,4531AK99508,-149.80830253558602,61.205629790763204,98.87
Southcentral Foundation,Dena A Coy,,4130 San Ernesto Avenue,,,Anchorage,AK,99508,(907)729-5070x5073 Intakes: (907)729-5070 (907)729-6300,www.southcentralfoundation.org,,SA/TX/RS/RL/CO/PW/WN/BC/SF/MD/SI/PI/MI/SS/AH/N3/N15/N40/,9011AK99508,-149.80274902181827,61.21246250868414,100.0
Starting Point,,,341 West Tudor Road,,,Anchorage,AK,99503,(907)562-6116,,,SA/TX/OP/DU/SF/PI/,5475AK99503,-149.88989835134237,61.18089336956906,100.0
Volunteers of America Alaska,Assist,,1675 C Street,Suite 201,,Anchorage,AK,99501,(907)279-9634,www.voaak.org,,SA/TX/OP/DU/SF/MD/SI/PI/MI/SS/,9744AK99501,-149.88709804131045,61.205825005288155,100.0
Yukon/Kuskokwim Health Corporation,Phillips Ayagnirvik Treatment Center,,324 Radio Street,,,Bethel,AK,99559,(907)543-6735 Intake: (800)478-2642 Hotlines: (907)543-6730 (800)478-2642x6730,www.ykhc.org,,MH-SA/TX/DT/RS/RL/OP/PH/AD/CO/WN/MN/DU/CJ/SF/MD/MC/PI/MI/SS/PA/AH/N40/,2608AK99559,-161.77248467998103,60.79167979915138,100.0
Copper River Native Association,Behavioral Health Sciences Department,Substance Abuse and Mental Health Serv,Mile 104 Old Richardson Highway,,,Copper Center,AK,99573,(907)822-5241 Intakes: (907)822-5241x243 (907)822- 5241x257,www.crnative.org,DWI/DUI Clients Only,MH-SA/TX/RL/OP/CO/GL/SE/PW/WN/MN/DU/SF/MD/SI/PI/SS/PA/,9340AK99573,-145.3555299646014,61.9866800038082,98.35
Sound Alternatives,Cordova Community Medical Center,,602 Chase Avenue,,,Cordova,AK,99574,(907)424-8300x245 Intake: (907)424-8300 Hotline: (907)424-8000,,,MH-SA/TX/OP/AD/CO/SF/MD/MC/PI/MI/,3484AK99574,-145.75556120380446,60.54053706176554,100.0
Volunteers of America Alaska,,,7958 Stewart Mountain Drive,,,Eagle River,AK,99577,(907)694-3336 Intake: (907)279-9636,www.voaak.org,,SA/TX/RL/AD/SF/MD/SI/PI/MI/SS/,8126AK99577,-149.53053581972168,61.29010520935521,100.0
Graf Rheeneenhaanjii,Substance Abuse Services,,2550 Lawlor Road,,,Fairbanks,AK,99709,(907)455-4725,,,SA/TX/RL/AD/CO/SF/MD/MC/SI/PI/MI/SS/PA/AH/,4262AK99709,-147.88921383576843,64.88066379673815,100.0
Project Special Delivery,,,710 3rd Avenue,,,Fairbanks,AK,99701,(907)452-4222,www.interioraids.org,Methadone Clients Only,SA/TX/DT/MM/DM/OP/SF/MD/PI/SS/,1447AK99701,-147.72514051186158,64.84289779087666,100.0
Ralph Perdue Center,,,3100 South Cushman Street,,,Fairbanks,AK,99701,(907)452-6251x211 Intakes: (907)452-6251x0 (866)456-2432,www.fairbanksnative.org,,MH-SA/TX/DT/RS/RL/OP/PH/CO/DU/SF/MD/MC/SI/PI/MI/SS/AH/,4429AK99701,-147.71079413020578,64.81831467469146,100.0
Tanana Chiefs Conference Inc,Old Minto Family Recovery Camp,,122 1st Avenue,Suite 600,,Fairbanks,AK,99701,(907)452-8251,,,SA/TX/RL/BC/MD/MC/SI/,1418AK99701,-147.70869412818396,64.84421211520412,100.0
Tanana Chiefs Conference Inc,Yukon Tanana Counseling Services,,1302 21st Avenue,,,Fairbanks,AK,99701,(907)452-8251x3460 Intake: (907)452-8251,,,MH-SA/TX/OP/PA/,6825AK99701,-147.73435775550752,64.8283995291351,100.0
Womens and Children Center for,Inner Healing,,1027 Evergreen Street,,,Fairbanks,AK,99709,(907)451-8164 Intake: (866)456-2432,www.fairbanksnative.org,,SA/TX/RL/PW/WN/BC/SF/MD/AH/,5340AK99709,-147.75459393288676,64.85609543270249,100.0
ASAP Counseling Center,,,600 Richardson Drive,,,Fort Richardson,AK,99505,(907)384-7368,www.usarak.army.mil/asap,,SA/TX/OP/MN/DU/PA/,0752AK99505,-149.70033058952382,61.253499785557786,99.9
Fort Wainwright Community Counseling,Center/U.S. Army MEDDAC-AK,,1060 Gaffney Road Suite 6600,MCUC/CCC Building 1064,,Fort Wainwright,AK,99703,(907)353-6059 Intake: (907)353-7887,www.alaska.amedd.army.mil/meddac.htm,DWI/DUI Clients Only,SA/TX/DT/OP/CO/DU/MI/N40/,1148AK99703,-147.60290363384084,64.84156718767677,100.0
Gastineau Human Services,,,5597 Aisek Street,,,Juneau,AK,99801,(907)780-3039 Intake: (907)780-3044,www.ghscorp.org,,SA/TX/HH/OP/PW/WN/MN/SF/SS/AH/,5014AK99801,-134.4949930787529,58.356582596132796,100.0
Juneau Recovery Hospital,Bartlett Regional Hospital,,3250 Hospital Drive,,,Juneau,AK,99801,(907)796-8690,www.bartletthospital.org,,SA/TX/DT/DM/HI/OP/PH/CO/WN/MN/SF/MD/SI/PI/SS/AH/,4309AK99801,-134.47007669809747,58.329953960296656,100.0
Juneau Youth Services,Chemical Dependency Program,P.O. Box 32839,,,,Juneau,AK,99803,(907)796-4131 Intake: (907)789-4733,www.jys.org,,MH-SA/TX/OP/AD/SF/MD/PI/MI/SS/AH/,6549AK99803,-134.40678999999994,58.29973000000007,100.0
Cook Inlet Council on,Alcohol and Drug Abuse (CICADA),,10200 Kenai Spur Highway,,,Kenai,AK,99611,(907)283-3658,,,SA/TX/OP/AD/CO/WN/MN/DU/SF/MD/SI/PI/,7083AK99611,-151.22908046991992,60.561027489863996,100.0
Kenaitze Indian Tribe,Nakenu Family,,110 North Willow Street,,,Kenai,AK,99611,(907)283-6693x3 Intake: (907)283-6693,,,MH-SA/TX/OP/AD/CO/WN/SF/MD/SI/PI/MI/,5518AK99611,-151.25105538929418,60.558821289129035,100.0
Recovery Connection LLC,,,502-A Overland Avenue,,,Kenai,AK,99611,(907)335-5660,,,SA/TX/OP/AD/CO/DU/CJ/SF/PI/,1701AK99611,-151.26433307829538,60.5536767284171,99.99
Gateway Center for Human Services,Substance Abuse Services Division,,3050 5th Avenue,,,Ketchikan,AK,99901,(907)225-4135 Intake: (907)225-4135x200 Hotline: (907)228-2502,www.city.ketchikan.ak.us,,MH-SA/TX/DT/RS/RL/OP/DU/CJ/SF/MD/MC/SI/PI/MI/SS/PA/,8219AK99901,-131.68497261204047,55.353967158754436,100.0
Ketchikan Indian Community,,,2960 Tongass Avenue,,,Ketchikan,AK,99901,(907)228-4917,www.kictribe.org,,GH/TX/OP/AD/WN/DU/PA/AH/,6660AK99901,-131.6845823506287,55.3523871700058,100.0
Providence Safe Harbor,,,115 Mill Bay Road,,,Kodiak,AK,99615,(907)486-3535,,,MH-SA/TX/OP/AD/CO/DU/SF/MD/MC/SI/PI/MI/SS/F79/,5194AK99615,-152.40434357542748,57.78889888328922,100.0
Maniilaq Recovery Center,,,733 2nd Avenue,,,Kotzebue,AK,99752,(907)442-7640 Intake: (907)442-7696,www.maniilaq.org,,SA/TX/DT/RS/RL/OP/PH/AD/SF/MD/MC/SI/PI/MI/N15/,2195AK99752,-162.57915098559798,66.90343565244514,96.11
Annette Island Service Unit,Family Services,,5th Avenue and Duncan Street,,,Metlakatla,AK,99926,(907)886-4325 Intake: (907)886-7491,,,SA/TX/OP/AD/SF/PI/MI/,1380AK99926,-131.57700999999997,55.130360000000046,85.0
Minto Counseling Center,,,,,,Minto,AK,99758,(907)798-7323,,,MH-SA/TX/OP/PA/,6549AK99758,-149.34907499999997,65.15034000000003,100.0
Railbelt Mental Health and Addictions,,,307 East 2nd Street,,,Nenana,AK,99760,(907)832-5557,www.railbelt.com,,MH-SA/TX/DT/OP/AD/CO/HV/GL/SE/PW/WN/MN/DU/CJ/SF/MD/MC/SI/PI/MI/SS/,6623AK99760,-149.09168326590964,64.56255968727203,98.87
Kusqi House,,,711 East 3rd Avenue,,,Nome,AK,99762,(907)443-4536 Intake: (907)443-3344,,,MH-SA/TX/HH/OP/CO/PW/WN/BC/SF/MD/MC/SI/PI/MI/SS/PA/,5388AK99762,-165.3939437785503,64.49713398746437,100.0
Petersburg Mental Health Services Inc,,,201 North Nordic Drive,,,Petersburg,AK,99833,(907)772-3332,,,MH-SA/TX/OP/AD/CO/HV/GL/SE/PW/WN/MN/DU/CJ/SF/MD/MC/SI/PI/MI/,7750AK99833,-132.95758959509328,56.81264571231446,100.0
Pribilof Counseling Center,,,,,,Saint Paul Island,AK,99660,(907)546-2342 Intakes: (907)546-2342x320 (907)546- 2342x321,,,MH-SA/TX/OP/AD/CO/SE/DU/CJ/SF/MD/MC/SI/PI/MI/SS/,6549AK99660,-170.27491999999995,57.12342000000007,100.0
Seldovia Village Tribe,,,274 Main Street,,,Seldovia,AK,99663,(907)234-7898x226,www.svt.org,DWI/DUI Clients Only,SA/TX/OP/PH/AD/CO/HV/DU/SF/SS/PA/AH/,1955AK99663,-151.71640945179902,59.43899624703776,100.0
Seaview Community Services,,,302 Railway Avenue,,,Seward,AK,99664,(907)224-5257 Hotline: (907)224-3027,,,MH-SA/TX/OP/AD/CO/DU/SF/MD/MC/PI/MI/SS/,3664AK99664,-149.4416069283344,60.10022729174248,100.0
Southeast AK Regional Hlth Consortium,Ravens Way,,222 Tongass Drive,,,Sitka,AK,99835,(907)966-8714x8726 Intake: (907)966-8716,www.searhc.org/ravensway,,SA/TX/HI/RL/AD/CO/SF/MD/MC/SI/PI/MI/,2666AK99835,-135.3562534113208,57.05198307850018,100.0
Central Peninsula General Hospital,Serenity House Residential Treatment,,250 Hospital Place,,,Soldotna,AK,99669,(907)714-4521 Hotline: (907)283-4338,www.cpgh.org,,SA/TX/RS/OP/PH/SF/MD/MC/SI/PI/MI/,6494AK99669,-151.07784553946811,60.49368258588645,100.0
Oonalaska Wellness Center,,,34 Lavelle Court,,,Unalaska,AK,99685,(907)581-2742,www.apiai.org,,MH-SA/TX/OP/AD/CO/SE/WN/MN/DU/CJ/SF/MD/MC/SI/PI/MI/SS/,6849AK99685,-166.5385699162905,53.87231504492104,97.59
Providence Valdez Counseling Center,,,911 Meals Avenue,,,Valdez,AK,99686,(907)835-2838,www.providence.org/alaska/valdez,,MH-SA/TX/OP/AD/DU/SF/MD/SI/PI/MI/SS/PA/,0295AK99686,-146.35010428511922,61.13638292415654,100.0
Alaska Addiction Rehab Services,Nugens Ranch,,3701 Palmer Wasilla Street,,,Wasilla,AK,99654,(907)376-4534,,,SA/TX/RL/CO/WN/MN/SF/PI/SS/,8775AK99654,-149.3545692457606,61.58507427274498,92.73
MAT/SU Treatment Center Inc,,,291 East Swanson Avenue,,,Wasilla,AK,99654,(907)376-4000 Hotline: (907)376-4000,matsurecovery.org,,MH/TX/OP/PH/AD/CO/PW/WN/DU/SF/MD/SI/PI/MI/,2352AK99654,-149.44413977183598,61.58311927764828,100.0
Starting Point,,,1075 Check Street,Suite 102,,Wasilla,AK,99654,(907)376-6116 Intake: (907)562-6116,,,SA/TX/OP/DU/SF/PI/,6368AK99654,-149.4455645277376,61.57229668999654,99.55
SMMHC Inc/Mental Health Center,Substance Abuse Services,,564 North Idaho Road,Suite 10,,Apache Junction,AZ,85220,(480)983-0573 Hotlines: (480)983-0571 (480)983-0573,www.smmhc.org,,MH-SA/TX/OP/AD/CO/DU/SF/MD/PI/MI/SS/AH/,8154AZ85220,-111.54612748490013,33.4205009897335,99.52
Southeastern AZ Behavioral Hlth Servs,(SEABHS),,590 South Ocotillo Avenue,,,Benson,AZ,85602,(520)586-7080 Hotline: (800)586-9161,www.seabhs.org,,MH-SA/TX/OP/AD/CO/PW/WN/DU/SF/MD/MC/SI/PI/MI/SS/PA/AH/,8481AZ85602,-110.30718236710295,31.963069998642002,100.0
Southeastern AZ Behavioral Hlth Servs,(SEABHS)/Psychiatric Health Facility,,470 South Ocotillo Avenue,,,Benson,AZ,85602,(520)586-7737 Hotline: (800)586-9161,,,MH/DT/HI/SF/MD/SI/PI/MI/,9031AZ85602,-110.30720722483608,31.963879563246174,100.0
Alcoholism Council of Cochise County,Verhelst Recovery House,,936 Tovreaville Road,,,Bisbee,AZ,85603,(520)432-3764 Hotline: (520)432-3764,,,SA/TX/HH/RL/MN/SF/SI/,8817AZ85603,-109.90152775771072,31.404886041490716,100.0
Southeastern AZ Behavioral Hlth Servs,(SEABHS),,214 Bisbee Road,,,Bisbee,AZ,85603,(520)432-7751 Hotline: (800)586-9161,www.seabhs.org,,MH-SA/TX/OP/AD/CO/PW/WN/DU/SF/MD/MC/SI/PI/MI/SS/PA/AH/SP/,4591AZ85603,-109.8869668831522,31.422359208307412,100.0
Community Medical Services LLC,Bullhead Drug Abuse Program,,809 Hancock Road,Suite 1,,Bullhead City,AZ,86442,(928)763-7111,,Methadone Clients Only,SA/TX/DT/MM/DM/OP/PW/SF/MD/,7875AZ86442,-114.62157533253617,35.1080044941549,100.0
Mohave Mental Health Clinic,,,1145 Marina Boulevard,,,Bullhead City,AZ,86442,(928)758-5905 Hotline: (928)758-5905,,,MH-SA/TX/DT/HI/OP/PH/AD/CO/PW/WN/MN/CJ/SF/SI/PA/SP/,9686AZ86442,-114.60802296856792,35.100647446280725,100.0
Yavapai Apache Nation,Alcohol/Substance Abuse Program,,3462 Smith Avenue,,,Camp Verde,AZ,86322,(928)567-3246x23 Intake: (928)567-3246 Hotline: (928)301-0322,,,SA/TX/OP/PA/,3818AZ86322,-111.89180372082365,34.612379659547784,95.48
Arizona Treatment Institute LLC,Counseling and Consulting,,1927 North Trekell Road,Suite D,,Casa Grande,AZ,85222,(520)836-9788,www.arizonatreatmentinstitute.com,,MH-SA/TX/OP/PH/SE/WN/MN/DU/CJ/SF/PI/,7063AZ85222,-111.7400175015163,32.90628799372645,98.65
Helping Associates Inc,,,1901 North Trekell Road,Suite A,,Casa Grande,AZ,85222,(520)836-1029,www.helpingassociates.com,,MH-SA/TX/OP/AD/CJ/SF/SI/PI/SS/PA/SP/,4370AZ85222,-111.7400075270516,32.90545101878487,98.65
Chandler Valley Hope Alcohol/Drug and Related Treatment Services,,,501 North Washington Street,,,Chandler,AZ,85225,(480)899-3335,www.valleyhope.com,,SA/TX/DT/RS/SF/PI/,8098AZ85225,-111.84008325903112,33.311657958636516,100.0
Southwestern Childrens Health Services,AKA Parc Place,,2190 North Grace Boulevard,,,Chandler,AZ,85225,(480)917-9301 Intake: (800)844-6435,www.parc-place.com,,MH-SA/TX/RS/RL/AD/CO/SF/MD/SI/PI/,0890AZ85225,-111.8468791394714,33.33938977370954,100.0
Park Place Outreach and Counseling,,,172 South Arizona Boulevard,,,Coolidge,AZ,85228,(520)466-8850 Hotline: (520)466-8850,,,MH-SA/TX/RS/RL/OP/AD/CO/GL/DU/CJ/SF/AH/,5706AZ85228,-111.52405722676764,32.9768752545593,99.52
Verde Valley Guidance Clinic Inc,,,8 East Cottonwood Street,,,Cottonwood,AZ,86326,(928)634-2236 Hotline: (928)634-2236,www.verdevalleyguidanceclinic.com,,MH-SA/TX/DT/OP/AD/CO/DU/SF/MD/PI/SS/PA/,0795AZ86326,-112.02937798203405,34.72867748454624,100.0
Southeastern AZ Behavioral Hlth Servs,(SEABHS),,1701 North Douglas Avenue,,,Douglas,AZ,85607,(520)364-1286 Hotline: (800)586-9161,www.seabhs.org,,MH-SA/TX/OP/AD/CO/PW/WN/DU/SF/MD/MC/SI/PI/MI/SS/PA/AH/SP/,4277AZ85607,-109.56243157832073,31.351954490575906,100.0
Pinal County Hispanic Council,Substance Abuse Counseling,,712 North Main Street,,,Eloy,AZ,85231,(520)466-7765,www.pinalhispaniccouncil.org,,MH-SA/TX/OP/SF/PI/SS/PA/SP/,1055AZ85231,-111.5551158187702,32.75709120685099,99.52
Community Medical Services LLC,,,2559 East 7th Avenue,,,Flagstaff,AZ,86004,(928)714-0010,www.cmsaz.net,Methadone Clients Only,SA/TX/DT/MM/DM/OP/PW/SF/SI/SS/,7340AZ86004,-111.61072106878498,35.211550916195165,100.0
Flagstaff Medical Center,Behavioral Health Services West Campus,,1200 North Beaver Street,,,Flagstaff,AZ,86001,(928)213-6400x16400 Intake: (928)213-6400x6400,www.nahealth.com/pp_fmc/,fmc_pp_home.htm,MH-SA/TX/DT/HI/OP/AD/DU/SF/MC/PI/MI/,9662AZ86001,-111.64488189464636,35.209281270023936,100.0
Guidance Center Inc,,,2187 North Vickey Street,,,Flagstaff,AZ,86004,(928)527-1899 Intake: (888)681-1899 Hotlines: (928)527-1899 (888)681-1899,,,MH-SA/TX/DT/HI/RS/OP/PH/AD/WN/MN/DU/CJ/SF/MD/PI/MI/AH/SP/,7842AZ86004,-111.60602925885763,35.20678886920529,100.0
Northern Arizona,Substance Abuse Services,,2101 North 4th Street,Suite 215,,Flagstaff,AZ,86004,(928)773-9376 Intake: (888)552-0954,,,SA/TX/OP/WN/MN/DU/CJ/SF/SI/PI/SP/,0564AZ86004,-111.61349904332941,35.20909183901225,100.0
Fort Defiance Outpatient Treatment Ctr,Fort Defiance Agency,Old Fort Defiance Chapter House,,,,Fort Defiance,AZ,86504,(928)729-4012 Intake: (928)871-6235,,,SA/TX/OP/PH/DU/PA/N23/,6549AZ86504,-109.08317999999996,35.78795000000007,100.0
Fort McDowell Indian Community,Wassaja Family Services,,16240 North Fort McDowell Road,,,Fort McDowell,AZ,85264,(480)837-5076 Intake: (480)816-7990 Hotline: (480)837-1091,www.ftmcdowell.org,,MH-SA/TX/OP/AD/SF/,2218AZ85264,-111.67628418778506,33.6391043363646,100.0
Banner Thunderbird Behavioral Health,,,5555 West Thunderbird Road,,,Glendale,AZ,85306,(602)865-5555 Intake: (602)254-4357 Hotline: (602)254-4357,www.bannerhealth.com,,MH-SA/TX/DT/DM/HI/OP/AD/SF/MC/SI/PI/MI/AH/,6958AZ85306,-112.17965796225687,33.61072254069612,100.0
Community Medical Services Inc,Glendale,,5002 West Glendale Avenue,Suite 101,,Glendale,AZ,85301,(623)915-2106,www.cmsaz.net,Methadone Clients Only,SA/TX/DT/MM/OP/SF/MC/SI/,3628AZ85301,-112.16665897153628,33.5384775342134,100.0
Maverick House,,,7022 North 48th Avenue,,,Glendale,AZ,85301,(623)931-5810,www.nova.bz,,SA/TX/RS/RL/CO/SF/SI/,4147AZ85301,-112.16228462390713,33.539112086193235,100.0
New Horizons Counseling Service Inc,,,6151 West Olive Avenue,Suite 3,,Glendale,AZ,85302,(623)939-6567,www.newhorizonscounseling.net,,MH-SA/TX/OP/CO/DU/CJ/SF/MC/SI/PA/AH/,6024AZ85302,-112.19290245892144,33.56698799113137,100.0
Thunderbird Treatment Center,,,13820 North 51st Avenue,Suite 300,,Glendale,AZ,85306,(602)938-2301,,Methadone Clients Only,SA/TX/DT/MM/DM/OP/CO/HV/GL/SE/PW/WN/MN/CJ/SF/SP/F64/,6197AZ85306,-112.16849754199787,33.61155498941035,100.0
Treatment Assessment Screening Ctr Inc,(TASC),,5955 West Myrtle Avenue,Suite 2,,Glendale,AZ,85301,(623)842-4535,www.tasc-arizona.org,,SA/TX/OP/AD/CO/WN/DU/CJ/SF/SP/,4409AZ85301,-112.18846935415104,33.54216242839677,100.0
Community Counseling Centers Inc,Outpatient Clinic,,105 North 5th Avenue,,,Holbrook,AZ,86025,(928)524-6126 Hotline: (928)524-6126,www.ccc-inc.org,DWI/DUI Clients Only,MH-SA/TX/DT/OP/AD/PW/DU/CJ/SF/MD/PI/PA/SP/N23/,9640AZ86025,-110.16577295501058,34.90181520809504,100.0
Kayenta Outpatient Treatment Center,,,Highway 160,,,Kayenta,AZ,86033,(928)697-5570,www.nndpm.navajo.org,,SA/TX/OP/AD/CO/DU/CJ/MD/MC/SI/PI/MI/PA/N23/,0099AZ86033,-110.41926269024435,36.660952704275864,100.0
Mohave Mental Health Clinic,Substance Abuse Services,,3505 Western Avenue,,,Kingman,AZ,86401,(928)757-8111 Hotline: (928)757-8111,www.mmhcinc.org,,MH-SA/TX/DT/OP/CO/PW/WN/SF/MD/MC/PI/MI/SS/PA/AH/SP/,0254AZ86401,-114.04020627683052,35.22540662681004,99.51
Banner Desert Behavioral Health Center,,,2225 West Southern Avenue,,,Mesa,AZ,85202,(480)512-4055 Intakes: (602)254HELP (800)254HELP Hotlines: (602)254HELP (800)254HELP,www.bannerhealth.com,,MH-SA/TX/DT/DM/HI/OP/CO/SF/MD/MC/SI/PI/AH/SP/F19/F27/F69/,4270AZ85202,-111.87868603127016,33.393032529108545,100.0
Centro de Amistad Inc,Main Office,,460 North Mesa Drive,Suite 120,,Mesa,AZ,85201,(480)833-0227,,DWI/DUI Clients Only,MH-SA/TX/OP/CO/DU/SF/MD/MC/SI/MI/SS/SP/,3840AZ85201,-111.822867836721,33.42386691059166,100.0
Community Bridges Inc,East Valley Addiction Recovery Center,,560 South Bellview Street,,,Mesa,AZ,85204,(480)962-7711 Hotline: (480)962-7711,www.cbridges.com,,SA/DT/HI/SF/MD/PI/PA/AH/F79/,2266AZ85204,-111.815287494946,33.40427701985662,98.06
Community Bridges Inc,Outpatient,,554 South Bellview Street,,,Mesa,AZ,85204,(480)962-7922,www.cbridges.org,,SA/TX/OP/SF/MD/PI/PA/AH/SP/,1343AZ85204,-111.81528749494606,33.404483005127155,98.06
House for Acceptance,DBA The House Inc,,143 South Center Street,,,Mesa,AZ,85210,(480)844-1306,,,SA/TX/HH/RL/SF/PA/,5649AZ85210,-111.83145928747544,33.41161990231444,100.0
Jewish Family and Childrens Service,,,1930 South Alma School Road,Room A-104,,Mesa,AZ,85210,(480)820-0825 Intake: (602)256-0528,www.jfcsarizona.org,,MH/TX/OP/SF/MD/MC/SI/PI/SS/PA/AH/SP/,5025AZ85210,-111.85994669415987,33.37957664084602,100.0
New Hope Behavioral Health Center Inc,,,6550 East Broadway,Suite 101,,Mesa,AZ,85206,(480)981-1022,,Methadone Clients Only,SA/TX/DT/MM/DM/OP/PW/DU/SF/MD/SI/PI/,2703AZ85206,-111.68972373553072,33.40870375438075,98.84
Treatment Assessment Screening Ctr Inc,(TASC),,423 North Country Club Drive,Suite 19,,Mesa,AZ,85201,(480)898-1849 Intakes: (602)712-0234x240 (602)712- 0234x239,www.tasc-arizona.org,,SA/TX/OP/AD/CO/WN/DU/CJ/SF/SP/,9985AZ85201,-111.83983750261356,33.423048501565624,100.0
Women in New Recovery,,,860 North Center Street,,,Mesa,AZ,85201,(480)464-5764 Intake: (480)464-8353,www.winr.org,,SA/TX/HH/RL/WN/BC/SF/,6743AZ85201,-111.8313474728873,33.43086244698189,100.0
Southeastern AZ Behavioral Hlth Servs,(SEABHS),,Coronado Boulevard and Burro Alley,,,Morenci,AZ,85540,(928)865-4531 Hotline: (800)586-9161,www.seabhs.org,,MH-SA/TX/OP/AD/CO/PW/WN/DU/SF/MD/MC/SI/PI/MI/SS/PA/AH/,8690AZ85540,-109.32791992525007,33.050510037248266,99.21
Southeastern AZ Behavioral Hlth Servs,(SEABHS),,32 Boulevard Del Rey David,,,Nogales,AZ,85621,(520)281-9189 Hotline: (800)586-9161,www.seabhs.org,,MH-SA/TX/OP/AD/CO/PW/WN/DU/SF/MD/MC/SI/PI/MI/SS/PA/AH/SP/,5030AZ85621,-110.9653984713208,31.405612878224673,100.0
San Pedro Valley Behavioral Health,Agency,,980 Mount Lemmon Road,,,Oracle,AZ,85623,(520)896-9240 Hotline: (520)704-4141,www.smmhc.org/sanpedro.htm,,MH-SA/TX/DT/OP/AD/CO/DU/SF/MD/MC/SI/PI/MI/SS/AH/SP/,3025AZ85623,-110.76335234716393,32.609460125950065,99.55
Progress Valley Phoenix,,,10505 North 69th Street,Suite 1100,,Paradise Valley,AZ,85253,(480)315-1999,www.progressvalley.org,,HH/,4065AZ85253,-111.93248251077364,33.58086900952313,100.0
Colorado River Indian Tribes,Behavioral Health Services,,12033 Agency Road,,,Parker,AZ,85344,(928)669-5243,,,SA/TX/OP/AD/CO/DU/PA/AH/,8038AZ85344,-114.2966663876054,34.14708914644351,100.0
Southwest Behavioral Health Servs Inc,Rim Guidance Division,,404 West Aero Drive,,,Payson,AZ,85547,(928)474-3303 Hotline: (928)474-3303,www.vsuw.org/about/,rim_country_agencies.asp,MH-SA/TX/OP/AD/CO/MN/DU/CJ/SF/MD/MC/SI/PI/MI/SS/AH/SP/,0098AZ85547,-111.33533108575985,34.22851750358405,99.52
Hualapai Health Department,Alcoholism and Drug Abuse Program,,960 Rodeo Way,,,Peach Springs,AZ,86434,(928)769-2207,,,SA/TX/OP/AD/CO/HV/GL/SE/PW/WN/MN/DU/CJ/PA/F27/F29/F41/N14/,6194AZ86434,-113.426585,35.528955000000046,85.33
Addiction Resources Inc,,,4337 West Indian School Road,Suite C,,Phoenix,AZ,85031,(602)233-9401,,Methadone Clients Only,SA/TX/MM/OP/SF/SP/,0527AZ85031,-112.15314097337105,33.49493254138844,100.0
Alpha Medical Service,,,3801 East Indian School Road,,,Phoenix,AZ,85018,(602)955-7997,www.cmsaz.net,Methadone Clients Only,SA/TX/DT/MM/OP/PW/SF/MD/,2174AZ85018,-111.99956866539995,33.49508878006366,100.0
Black Family and Child Services of AZ,,,1522 East Southern Street,,,Phoenix,AZ,85040,(602)243-1773 Intake: (602)243-1773x224,,,SA/TX/OP/AD/WN/CJ/SF/MD/MC/,1482AZ85040,-112.0488676199845,33.39278577907895,98.06
CPLC/Corazon,,,3639 West Lincoln Street,,,Phoenix,AZ,85009,(602)233-9747 Hotline: (602)233-9747,www.cplc.org,,SA/TX/RS/RL/CO/HV/GL/SE/MN/CJ/SF/SP/,9809AZ85009,-112.1384822820027,33.44227013338457,100.0
Calvary Center,,,720 East Montebello Avenue,,,Phoenix,AZ,85014,(602)279-1468,www.calvarycenter.com,,SA/TX/RS/RL/SF/SS/AH/,9264AZ85014,-112.06413597430296,33.52012745268657,100.0
Carl T Hayden VA Medical Center,Substance Abuse Treatment Program,,650 East Indian School Road,Building 4,,Phoenix,AZ,85012,(602)277-5551x7640,www.phoenix.med.va.gov,,MH-SA/TX/HI/OP/CO/SF/PI/PA/,7031AZ85012,-112.06611502546171,33.497587006305146,100.0
Casa de Amigas,,,1648 West Colter Street,Suite 8,,Phoenix,AZ,85015,(602)265-9987 Hotline: (800)564-5465,www.casadeamigas.org,,SA/TX/HH/RS/RL/HV/PW/WN/SF/MD/,7156AZ85015,-112.09540776540312,33.5131951577558,100.0
Center for Behavioral Hlth Phoenix Inc,,,1501 East Washington Street,,,Phoenix,AZ,85034,(602)253-6553,www.centerforbehavioralhealth.com,,SA/TX/DT/MM/OP/AD/CO/HV/PW/WN/SF/SI/PI/SP/,8079AZ85034,-112.0496715754502,33.44819354053965,100.0
Central Counseling and Education Services,,,49 East Thomas Road,Suite 108,,Phoenix,AZ,85012,(602)235-9237,,DWI/DUI Clients Only,SA/TX/OP/SE/WN/MN/DU/SF/SP/,8396AZ85012,-112.0712273996655,33.480224019605544,100.0
Chicanos Por La Causa Inc,Centro De La Familia,,4602 West Indian School Road,Suite C-3,,Phoenix,AZ,85031,(623)247-0464,www.cplc.org,,MH-SA/TX/OP/AD/CO/HV/DU/CJ/SF/MD/AH/SP/,7612AZ85031,-112.15809887656096,33.49501876484331,100.0
Community Bridges Inc,Central City Addiction Recovery Center,,2770 East Van Buren Street,,,Phoenix,AZ,85008,(602)273-9999 Hotline: (602)273-9999,www.cbridges.com,,SA/DT/HI/MD/PA/AH/SP/F79/,6085AZ85008,-112.0219449672718,33.45138870302608,100.0
Community Medical Services Inc,Larkspur Medical Services,,12612 North 28th Drive,Suites 4 and 5,,Phoenix,AZ,85029,(602)248-8886 Intake: (602)866-9378,www.cmsaz.net,Methadone Clients Only,SA/TX/MM/OP/SF/MD/,8164AZ85029,-112.11976641422136,33.60068139787795,100.0
Ebony House Inc,,,6222 South 13th Street,,,Phoenix,AZ,85040,(602)276-4288x8602 Intake: (602)276-4288x0,,,SA/TX/RS/RL/OP/PH/CO/HV/WN/MN/DU/CJ/SF/PI/MI/PA/AH/,0809AZ85040,-112.0537814740343,33.38978047640518,99.52
Elba House,,,8646 South 14th Street,,,Phoenix,AZ,85042,(602)243-5493 Intake: (602)243-5492,,,SA/TX/RS/RL/CO/HV/PW/WN/BC/SF/MD/MC/PI/MI/PA/AH/,9152AZ85042,-112.05309751073514,33.367252016145386,100.0
Family Service Agency,,,411 North Central Avenue,,,Phoenix,AZ,85004,(602)264-9891,www.fsaphoenix.org,,MH-SA/TX/OP/CO/DU/CJ/SF/SI/PI/SS/AH/SP/,9387AZ85004,-112.07378086264879,33.45297105771162,100.0
Intensive Treatment Systems Inc,,,651 West Coolidge Street,,,Phoenix,AZ,85013,(602)248-0550,,Methadone Clients Only,SA/TX/MM/OP/CO/PW/WN/SF/SI/SP/,5171AZ85013,-112.08192413304093,33.50476757320793,100.0
Mountain Valley and Associates Inc,,,2432 West Peoria Avenue,Suite 1343,,Phoenix,AZ,85029,(602)870-0972,,,MH-SA/TX/OP/CJ/SF/,5847AZ85029,-112.11105803591715,33.58202751427085,100.0
National Council on Alc/Drug Depend,Central and Northern Arizona,,4201 North 16th Street,Suite 140,,Phoenix,AZ,85016,(602)264-6214x4 Intake: (602)264-6214,www.ncadd-phx.org,,MH-SA/TX/OP/CO/PW/WN/MN/DU/SF/MD/SI/SS/PA/AH/,9801AZ85016,-112.0475824699026,33.496804010820014,100.0
Native American Connections Inc,Guiding Star,,3424 East Van Buren Street,,,Phoenix,AZ,85008,(602)254-5805 Intake: (602)424-2060,www.nativeconnections.org,,SA/TX/HH/RS/RL/CO/PW/WN/BC/CJ/SF/MD/SI/PI/SS/PA/AH/SP/N2/N13/N18/N23/N29/,6534AZ85008,-112.00826396793512,33.451317475853216,100.0
Native American Connections Inc,Indian Rehabilitation,,636 North 3rd Avenue,,,Phoenix,AZ,85003,(602)495-3085 Intake: (602)424-2060,www.nativeconnections.org,,SA/TX/RS/RL/CO/BC/MN/SF/MD/SI/PI/SS/PA/AH/SP/N2/N13/N18/N23/N29/,1091AZ85003,-112.07774642486022,33.45605769355598,100.0
Native American Connections Inc,Outpatient Clinic,,609 North 2nd Avenue,Suite 120,,Phoenix,AZ,85003,(602)424-2060,www.nativeconnections.org,,SA/TX/HH/OP/PH/CO/PW/WN/MN/CJ/SF/MD/SI/PI/SS/PA/AH/SP/N2/N13/N18/N23/N29/,9009AZ85003,-112.07639622560316,33.455133446516065,100.0
New Arizona Family Inc,,,4201 North 16th Street,Suite 220 Intake Office,,Phoenix,AZ,85016,(602)553-7300x0 Intake: (602)553-7300,www.newazfamily.org,,MH-SA/TX/OP/PH/CO/PW/WN/CJ/SF/MD/MC/SI/PI/MI/AH/SP/,9801AZ85016,-112.0475824699026,33.496804010820014,100.0
New Arizona Family Inc II,SMI Dual Diagnosis Program,,,,,Phoenix,AZ,85040,(602)553-7300x8100 Intake: (602)553-7300x2100,,,MH-SA/TX/HH/RL/OP/CO/SF/MD/MC/SI/PI/MI/SS/AH/,6549AZ85040,-112.0682,33.404895000000074,100.0
Northwest Organization for,Voluntary Alternatives (NOVA),,7725 North 43rd Avenue,Suite 522,,Phoenix,AZ,85051,(623)937-9203 Intake: (623)937-9203x100,www.nova.bz,,MH-SA/TX/OP/AD/CO/GL/WN/DU/SF/MD/SI/PI/SS/PA/AH/SP/,2772AZ85051,-112.15149116336892,33.549821015237754,100.0
Professional Psychology Associates,Center for Lifestyle Change,,4222 East Camelback Road,Suite H-230,,Phoenix,AZ,85018,(602)852-0911,,,MH/TX/OP/AD/CO/SF/PI/,3543AZ85018,-111.98920263351314,33.50975503229571,100.0
Southwest Behavioral Health Servs Inc,Methadone Maintenance,,1424 South 7th Avenue,Building C,,Phoenix,AZ,85007,(602)258-3600x224 Intake: (602)258-3600x0,www.sbhservices.org,,SA/TX/MM/OP/WN/CJ/SF/SI/,7322AZ85007,-112.08253156956421,33.434280461368274,100.0
St Lukes Behavorial Health Center,,,1800 East Van Buren Street,,,Phoenix,AZ,85006,(602)251-8535 Intake: (800)821-4193 Hotlines: (602)251-8535 (800)821-4193,www.iasishealthcare.com,,MH-SA/TX/DT/DM/HI/OP/PH/CO/WN/MN/SF/MC/PI/MI/AH/,2430AZ85006,-112.0433012222332,33.451488699210145,100.0
Terros Inc,,,3118 East McDowell Road,,,Phoenix,AZ,85008,(602)685-6000,www.terros.org,,MH-SA/TX/DT/OP/CO/HV/WN/MN/CJ/SF/MD/MC/SI/PI/SS/PA/AH/SP/F27/,5351AZ85008,-112.01477301866505,33.46578749058113,100.0
Terros Inc,,,3864 North 27th Avenue,,,Phoenix,AZ,85017,(602)685-6000,www.terros.org,,MH-SA/TX/OP/CO/HV/WN/MN/CJ/SF/MD/MC/SI/PI/SS/PA/AH/SP/,8490AZ85017,-112.1171072189197,33.49254817413109,100.0
Treatment Assessment Screening Ctr Inc,(TASC),,2302 North 7th Street,,,Phoenix,AZ,85006,(602)712-0234 Intakes: (602)712-0234x240 (602)712- 0234x239,www.tasc-arizona.org,,SA/TX/OP/AD/CO/WN/DU/CJ/SF/SP/,2472AZ85006,-112.06511749516487,33.473263980575496,100.0
Valle Del Sol Inc,Behavioral Health Program,,1209 South 1st Avenue,,,Phoenix,AZ,85003,(602)258-6797x194 Intakes: (602)258-6797x100 (602)258- 6797x104,www.valledelsol.com,,SA/TX/MM/OP/CO/HV/PW/WN/SF/MD/SS/PA/AH/SP/,2153AZ85003,-112.07508123110743,33.43560467634146,100.0
Piaâ€™s Place,,,615 Hillside Avenue,,,Prescott,AZ,86301,(928)445-5081,www.piasplace.com,,MH-SA/TX/RL/PH/CO/WN/SF/,5164AZ86301,-112.47655394136746,34.55313683699491,99.55
Prescott House Inc,,,214 North Arizona Avenue,,,Prescott,AZ,86301,(928)776-8251,www.prescotthouse.net,,MH/TX/RL/OP/PH/MN/SF/,4803AZ86301,-112.45931856914405,34.54465845811397,100.0
Veterans Affairs Medical Center,MH 116 Northern Arizona VA Healthcare,,500 Highway 89 North,,,Prescott,AZ,86313,(928)445-4860,www.appc1.va.gov/directory,,GH/TX/DT/RL/OP/DU/SF/PI/MI/PA/N13/N23/,0221AZ86313,-112.4525820335618,34.554174013693896,99.88
West Yavapai Guidance Clinic,Chemical Dependency,,642 Dameron Drive,,,Prescott,AZ,86301,(928)445-5211 Hotline: (928)445-5211,www.wygc.org/index.html,,MH-SA/TX/DT/RS/RL/OP/PH/CO/DU/SF/MD/AH/SP/F4/F17/F19/F27/F29/F36/F46/F65/F66/F69/F90/N13/N18/N23/N40/,2045AZ86301,-112.47620600856669,34.5520089681037,100.0
Gila River Indian Community,Department of Human Services,,315 West Casa Blanca Road,,,Sacaton,AZ,85247,(520)562-3356 Intake: (520)550-2812,,,SA/TX/OP/N21/N29/,3506AZ85247,-111.74993843603872,33.08242835756511,98.57
Southeastern AZ Behavioral Hlth Servs,(SEABHS),,1615 South 1st Street,,,Safford,AZ,85546,(928)428-4550 Hotline: (800)586-9161,www.seabhs.org,,MH-SA/TX/OP/AD/CO/PW/WN/DU/SF/MD/MC/SI/PI/MI/SS/PA/AH/,3166AZ85546,-109.70756733310756,32.82011968215002,98.06
Little Colorado Behavioral Health Ctrs,,,470 West Cleveland Street,,,Saint Johns,AZ,85936,(928)337-4301 Hotline: (928)337-4301,www.lcbac.org,,MH-SA/TX/OP/AD/DU/SF/MD/MC/SI/PI/MI/SS/AH/SP/N23/,5529AZ85936,-109.37229766874157,34.50655411053239,98.87
San Carlos Apache Tribe,San Carlos Tribal Wellness Center Prog,,Building 5 San Carlos Boulevard,,,San Carlos,AZ,85550,(928)475-4875 Hotline: (866)495-6735,,,MH-SA/TX/DT/OP/CO/DU/SF/MD/MC/SI/PI/MI/F24/N2/,8739AZ85550,-110.4525501352371,33.354629926994306,96.22
Banner Behavioral Health Hospital,Wendy Paine Oâ€™Brien Treatment Center,,7575 East Earll Drive,,,Scottsdale,AZ,85251,(480)941-7500 Intakes: (800)254-4357 (602)254-4357 Hotlines: (888)254-4357 (602)254-4357,www.bannerhealthaz.com,,MH-SA/TX/DT/DM/HI/RS/OP/AD/SF/MC/SI/PI/MI/,9564AZ85251,-111.91808668376908,33.48391395348107,100.0
New Foundation,,,1200 North 77th Street,,,Scottsdale,AZ,85257,(480)945-3302 Intake: (480)945-3302x125,www.thenewfoundation.com,,MH-SA/TX/RS/RL/OP/AD/CO/SF/MD/PI/,3713AZ85257,-111.91378097604677,33.46201219757177,100.0
New Life Medical Center,,,617 North Scottsdale Road,Suite D,,Scottsdale,AZ,85257,(480)990-3720,www.newlifemedicalcenter.com,Methadone Clients Only,SA/TX/MM/OP/SF/,8326AZ85257,-111.92637662958643,33.454729539088305,100.0
Scottsdale Treatment Institute PLC,,,8100 East Indian School Road,Suite 1 East,,Scottsdale,AZ,85251,(480)429-9044,www.scottsdaletreatment.com,,SA/TX/DT/OP/PH/DU/CJ/SF/PI/SS/SP/,3158AZ85251,-111.90579796764338,33.494897546942845,100.0
Hopi Behavioral Health and Social Services Program,,,,,,Second Mesa,AZ,86043,(928)737-2586 Intake: (928)737-6300,www.hopi.nsn.us/social_services.asp,,MH-SA/TX/OP/AD/CO/SE/PW/WN/BC/CJ/N13/,6549AZ86043,-110.5984049,35.87321740000005,100.0
Desert Canyon Treatment Center,,,105 Navajo Drive,,,Sedona,AZ,86336,(888)811-8371 Intake: (928)204-1122x21,www.desert-canyon.com,,SA/TX/RS/RL/SF/PI/,4696AZ86336,-111.80966843469524,34.86514685436389,100.0
Tohon Oâ€™odham Human Services,Behavioral Health,,Business Loop Highway 86,,,Sells,AZ,85634,(520)383-6165,,,MH-SA/TX/OP/AD/CJ/N35/,1596AZ85634,-112.06127572253712,32.094811214643826,87.27
Community Counseling Centers Inc,Inpatient Unit,,2550 Show Low Lake Road,,,Show Low,AZ,85901,(928)537-1029 Hotline: (928)537-1029,www.ccc-inc.org,,MH-SA/TX/DT/HI/AD/SF/MD/PI/PA/SP/N23/,9943AZ85901,-110.01360347603593,34.20202930634384,100.0
Community Counseling Centers Inc,Outpatient Unit,,2500 Show Low Lake Road,,,Show Low,AZ,85901,(928)537-2951 Hotline: (928)537-2951,www.ccc-inc.org,DWI/DUI Clients Only,MH-SA/TX/DT/OP/HV/PW/DU/CJ/SF/MD/PI/PA/SP/N23/,9848AZ85901,-110.01405983698284,34.2019875227484,100.0
Southeastern AZ Behavioral Hlth Servs,(SEABHS),,185 South Moorman Avenue,,,Sierra Vista,AZ,85635,(520)458-3932 Hotline: (800)586-9161,,,MH-SA/TX/OP/CO/WN/MN/DU/CJ/SF/MD/MC/SI/PI/MI/SP/,3894AZ85635,-110.27425774851535,31.552741137124947,100.0
Little Colorado Behavioral Health Ctrs,,,50 North Hopi Street,,,Springerville,AZ,85938,(928)333-2683 Hotline: (928)333-2683,www.lcbhc.org,,MH-SA/TX/OP/AD/DU/SF/MD/MC/SI/PI/MI/SS/AH/SP/N23/,0610AZ85938,-109.28219768283137,34.13364249414495,100.0
Advanced Counseling Center,,,4600 South Mill Avenue,Suite 280,,Tempe,AZ,85282,(480)655-9550,www.advancedcounselingcenter.com,,SA/TX/OP/DU/SF/,8756AZ85282,-111.93946220536705,33.38292361860299,100.0
Center for Behavioral Hlth Phoenix Inc,,,2123 East Southern Avenue,Suite 2,,Tempe,AZ,85282,(480)897-7044,www.centerforbehavioralhealth.com,,SA/TX/DT/MM/OP/AD/CO/HV/PW/WN/SF/MD/MC/SI/PI/SP/,5628AZ85282,-111.8954739775022,33.39296254021708,100.0
New Choices Inc,,,610 West Broadway,Suite 111,,Tempe,AZ,85282,(480)377-9156,,,SA/TX/OP/DU/SF/PI/SS/SP/,9661AZ85282,-111.94850502160774,33.407407493054656,98.84
Tempe Valley Hope Outpatient,Rio Sureno Medical Plaza,,2115 East Southern Avenue,,,Tempe,AZ,85282,(480)831-9533,www.valleyhope.com,,SA/TX/OP/SF/PI/,2134AZ85282,-111.89593003685397,33.392966437802016,100.0
Valle Del Sol Inc,East Clinic,,509 South Rockford Drive,,,Tempe,AZ,85281,(602)258-6797x235 Intakes: (602)258-6797x100 (602)258- 6797x101,www.valledelsol.com,Methadone Clients Only,SA/TX/MM/OP/HV/PW/SF/MD/SS/AH/SP/,8333AZ85281,-111.896965025709,33.42555782782975,100.0
Western Judicial Services Inc,,,9550 West Van Buren Street,Suite 18,,Tolleson,AZ,85353,(623)936-8828,,DWI/DUI Clients Only,SA/TX/OP/DU/SF/SP/,9491AZ85353,-112.26560175464695,33.450358692038805,100.0
Tuba City Outpatient Treatment Center,Behavioral Health Services/DBHS,,Main Street,Building 25,,Tuba City,AZ,86045,(928)283-3346 Intake: (928)283-3038,,,SA/TX/OP/AD/MD/MC/SI/PI/MI/PA/N23/,2510AZ86045,-111.23510356796262,36.12422242571427,100.0
Alpha Omega Counseling Inc,,,1181 North El Dorado Place,Suite 324,,Tucson,AZ,85715,(520)296-2679 Intake: (520)296-2779,,DWI/DUI Clients Only,SA/TX/OP/DU/SF/,8855AZ85715,-110.85667403920398,32.237832514679816,100.0
Amity Foundation,,,10500 East Tanque Verde Road,,,Tucson,AZ,85749,(520)749-5980 Intakes: (520)749-5980x255 (520)749- 5980x215,www.amityfdn.org,,SA/TX/RL/CO/PW/WN/BC/MN/CJ/SF/SP/,4159AZ85749,-110.76648400666494,32.24813098192594,100.0
Arizona Childrens Association,,,2700 South 8th Avenue,,,Tucson,AZ,85713,(520)622-7611x1364 Intakes: (520)622-7611x1353 (520)622- 7611x1306,www.arizonaschildren.org/index.asp,,MH-SA/TX/RS/AD/CO/HV/GL/CJ/AH/SP/N23/,7124AZ85713,-110.97299297851185,32.190397438682,100.0
Behavioral Awareness Center Inc,,,1475 West Saint Marys Road,,,Tucson,AZ,85745,(520)629-9126 Hotline: (520)971-5671,,Methadone Clients Only,SA/TX/DT/MM/DM/OP/PH/CO/SF/,7159AZ85745,-110.99632073705843,32.228985164421054,100.0
CODAC Behavioral Health Services Inc,,,3100 North 1st Avenue,,,Tucson,AZ,85719,(520)327-4505x1050 Intake: (520)327-4505,www.codac.org,,MH-SA/TX/DT/MM/DM/OP/CO/WN/SF/MD/MC/SI/AH/SP/F27/F29/F69/,5498AZ85719,-110.96097651448132,32.26321790472755,100.0
COPE Behavioral Health Services Inc,Substance Abuse Services,,101 South Stone Avenue,,,Tucson,AZ,85701,(520)884-0707,www.copebhs.com,,MH-SA/TX/DT/MM/DM/OP/CO/HV/SE/PW/WN/MN/DU/SF/MD/SP/,1511AZ85701,-110.97099800173694,32.22039455185662,100.0
Cactus Counseling Associates,,,201 West Cushing Street,,,Tucson,AZ,85701,(520)798-3659 Intake: (520)722-1109,www.cactuscounseling.com,,SA/TX/OP/AD/CO/HV/SE/WN/MN/DU/CJ/SF/AH/SP/,5852AZ85701,-110.97354370281687,32.21697080092848,100.0
Center for Behavioral Hlth Tucson Inc,,,368 East Grant Road,Suite C,,Tucson,AZ,85705,(520)624-0250,www.centerforbehavioralhealth.com,,SA/TX/DT/MM/OP/AD/CO/HV/PW/WN/SF/MD/SI/PI/SP/,1160AZ85705,-110.96583600666645,32.25017247826332,100.0
Community Medical Services Inc,,,6626 East Carondelet Drive,,,Tucson,AZ,85710,(520)298-1650,www.cmsaz.net,Methadone Clients Only,SA/TX/DT/MM/DM/OP/SF/SP/,2921AZ85710,-110.85106595924641,32.2255925052917,100.0
Compass Healthcare Inc,Detoxification,,2502 North Dodge Boulevard,Suite 100,,Tucson,AZ,85716,(520)624-5272,www.compasshc.org,,SA/TX/DT/RS/PW/WN/MN/SF/MD/SI/PI/SS/PA/AH/SP/,2725AZ85716,-110.91401353848532,32.25242896444529,100.0
Compass Healthcare Inc,Vida Serena,,2835 North Stone Avenue,,,Tucson,AZ,85705,(520)620-0188,www.compasshc.org,,SA/TX/HH/RS/RL/CO/SE/WN/MN/CJ/SF/SI/PI/SS/AH/SP/N35/,8126AZ85705,-110.97204339270115,32.258879515462965,100.0
Cottonwood de Tucson,,,4110 West Sweetwater Drive,,,Tucson,AZ,85745,(520)743-0411,www.cottonwooddetucson.com,,MH-SA/TX/DT/RS/RL/AD/CO/GL/SE/WN/MN/SF/PI/,9602AZ85745,-111.05211303152709,32.281825017315256,100.0
Counseling and Consulting Services Inc,,,2430 East 6th Street,,,Tucson,AZ,85719,(520)882-0090x229 Intake: (520)882-0090,www.counselingconsulting.org,,MH-SA/TX/OP/SF/,9057AZ85719,-110.93588872390607,32.22791240654315,100.0
Fortune Counseling Services,,,600 West Cool Drive,,,Tucson,AZ,85704,(520)742-6142,,,MH/TX/OP/AD/CO/SF/PI/,5136AZ85704,-110.9790309662833,32.3541674634229,100.0
Haven,The Haven,,1107 East Adelaide Drive,,,Tucson,AZ,85719,(520)623-4590,www.thehaventucson.org,,SA/TX/HH/RL/BC/SF/PI/SS/,2578AZ85719,-110.95478377215822,32.259514984357516,100.0
La Frontera Center,Casa de Vida,,1900 West Speedway Boulevard,,,Tucson,AZ,85745,(520)792-0591,,,MH-SA/TX/RS/RL/WN/MN/SF/SI/,7598AZ85745,-111.0087431366596,32.23521170310473,100.0
La Frontera Center,Hope Center,,260 South Scott Avenue,,,Tucson,AZ,85701,(520)884-8470,www.Lafrontera.org,,SA/TX/DT/MM/DM/OP/CO/PW/SF/MD/MC/SI/SS/PA/SP/,0739AZ85701,-110.96962797966307,32.21828851486476,100.0
202 East Mohave Street,,,,,,Tucson,AZ,85705,(520)887-5902,www.compasshc.com,,MH-SA/TX/RL/CO/SF/MD/MC/SI/PI/AH/,6549AZ85705,-110.96871499999996,32.233580000000075,100.0
Mark Outpatient Services,,,4653 East Pima Street,,,Tucson,AZ,85712,(520)326-6182 Intake: (520)469-8700,www.sonorabehavioralhealth.com,,SA/TX/OP/AD/SF/MD/SI/PI/MI/SP/,2390AZ85712,-110.89339524083464,32.24343020107763,100.0
New Hope Behavioral Health Center Inc,,,2001 West Orange Grove,Suite 204,,Tucson,AZ,85704,(520)297-3329,,Methadone Clients Only,SA/TX/DT/MM/DM/OP/SF/MC/SI/PI/,2603AZ85704,-111.0088780014817,32.32308250494411,98.84
Reflections Family Services Inc,,,2530 East Broadway,Suite A,,Tucson,AZ,85716,(520)795-0981,,,MH-SA/TX/OP/DU/SF/SP/,1059AZ85716,-110.93417596581119,32.22152246265726,98.84
Saint Josephs Hospital,Oâ€™Rielly Care Center,,350 North Wilmont Road,Behavioral Health Department,,Tucson,AZ,85711,(520)873-5133,,,MH/TX/DT/HI/SF/MD/MC/SI/PI/MI/AH/SP/,6934AZ85711,-110.85780261516668,32.22595587141345,97.0
Sierra Tucson Inc,,,39580 South Lago Del Oro Parkway,,,Tucson,AZ,85739,(800)624-9001,www.sierratucson.com/,,MH-SA/TX/DT/HI/CO/GL/WN/MN/SF/PI/,6833AZ85739,-110.88584738320387,32.5159545795457,100.0
Southern Arizona VA Healthcare System,Substance Abuse Treatment Program,,3601 South 6th Avenue,,,Tucson,AZ,85723,(520)792-1450x6097 Intake: (520)792-1450x6581,,,SA/TX/DT/HI/RS/OP/CO/SF/MC/SI/PI/MI/AH/,9359AZ85723,-110.96825753849312,32.181109954687145,100.0
Treatment Assessment Screening Ctr Inc,(TASC),,244 West Drachman Street,,,Tucson,AZ,85705,(520)903-2525x107 Intake: (520)903-2525x112,www.tasc.org,,SA/TX/OP/DU/CJ/SF/SS/,1156AZ85705,-110.97617701207108,32.23946748871338,100.0
Excel,,,28671 Los Angeles Avenue,,,Wellton,AZ,85356,(928)785-9426 Intake: (928)341-4440,www.theexcelgroup.org,DWI/DUI Clients Only,MH/TX/OP/AD/CO/DU/SF/MD/MC/SI/PI/MI/AH/SP/,5604AZ85356,-114.14732491093044,32.672600567443745,100.0
Southeastern AZ Behavioral Hlth Servs,(SEABHS),,250 North Haskell Avenue,Suite 6,,Willcox,AZ,85643,(520)384-2521 Hotline: (800)586-9161,www.seabhs.org,,MH-SA/TX/OP/AD/CO/PW/WN/DU/SF/MD/MC/SI/PI/MI/SS/PA/AH/,7751AZ85643,-109.83108540523388,32.25468718086124,100.0
Community Counseling Centers Inc,Outpatient Clinic,,211 East 3rd Street,,,Winslow,AZ,86047,(928)289-4658 Hotline: (928)289-4658,www.ccc-inc.org,DWI/DUI Clients Only,MH-SA/TX/DT/OP/AD/PW/DU/CJ/SF/MD/PI/PA/SP/N23/,5167AZ86047,-110.69586948989695,35.023606105252966,100.0
Winslow Guidance Associates,,,1301 West 2nd Street,,,Winslow,AZ,86047,(928)289-2650,,,SA/TX/OP/DU/CJ/SF/SS/SP/N23/,9514AZ86047,-110.71082012295295,35.02825378674461,100.0
Behavioral Health Services,The Excel Group Outpatient,,106 East 1st Street,,,Yuma,AZ,85364,(928)341-9199 Intake: (928)341-2794,www.excelgroup.org,,MH-SA/TX/OP/CO/HV/GL/SE/PW/WN/MN/DU/CJ/SF/PI/SS/PA/SP/,6140AZ85364,-114.61773675615794,32.72539143577474,100.0
Crossroads Mission of Yuma,,,944 South Arizona Avenue,,,Yuma,AZ,85364,(928)783-9362 Intake: (928)783-9362x22,www.crossroadsmission.org,,SA/TX/DT/RS/RL/WN/MN/SF/SI/PI/PA/SP/,9218AZ85364,-114.61608258756638,32.71004106975628,100.0
Lois Faust Fazio,,,661 East 32nd Street,,,Yuma,AZ,85365,(928)344-9894,,,MH-SA/TX/OP/AD/CO/SE/PW/WN/MN/DU/CJ/SF/PI/SP/,5242AZ85365,-114.61530030454287,32.66927249853886,100.0
Yuma Treatment Center,,,1290 West 8th Place,,,Yuma,AZ,85364,(928)344-4310,,,SA/TX/MM/OP/HV/GL/PW/MN/DU/CJ/SF/SI/SS/SP/,5466AZ85364,-114.63488403457909,32.71305763289,100.0
Quapaw House Inc,,,401 Crittenden Street,,,Arkadelphia,AR,71923,(870)246-7636,,,SA/TX/OP/SF/PI/SS/PA/,7462AR71923,-93.05153088320586,34.118062543737715,100.0
NADC Substance Abuse Treatment Program,,,Oak and 9th Streets,,,Batesville,AR,72503,(870)793-2221 Intake: (870)793-5765 Hotline: (800)592-9503,,,SA/TX/OP/AD/SF/SS/PA/,4657AR72503,-91.64323988912778,35.771540047494476,98.27
Counseling Clinic Inc,Outpatient Substance Abuse Program,,307 East Sevier Street,,,Benton,AR,72015,(501)315-4224x536 Intake: (501)315-4224 Hotline: (501)315-4224,,,SA/TX/OP/AD/DU/SF/SS/AH/,1662AR72015,-92.58388271209965,34.56432261251103,100.0
Ouachita Medical Center,Chemical Dependency Unit,,638 California Street,,,Camden,AR,71701,(870)836-1289 Intake: (800)232-1289 Hotline: (800)232-1289,www.ouachitamedcenter.com,,SA/TX/DT/HI/RS/OP/PH/SF/MC/PI/MI/AH/,0539AR71701,-92.83416667619494,33.57545698228092,97.61
Veterans Affairs Medical Center,,,1100 North College Street,Unit 116-A,,Fayetteville,AR,72703,(479)443-4301x5768 Intakes: (479)444-5048 (479)443-4301x5048,,,GH/TX/DT/HI/RS/OP/SF/MC/PI/MI/PA/,0018AR72703,-94.15689034115412,36.079711446575715,98.06
Gateway House Inc,,,3900 North Armour Avenue,,,Fort Smith,AR,72904,(479)783-8849x27 Intake: (479)783-8849x16,www.gatewayhouseinc.org,,SA/TX/DT/HH/RS/RL/OP/PH/PW/WN/BC/DU/SF/PI/SS/PA/,0373AR72904,-94.38819784050906,35.40933267788846,100.0
Harbor House Inc,,,615 North 19th Street,,,Fort Smith,AR,72901,(479)785-4083,www.harborhousefs.org,,SA/TX/HH/RS/RL/OP/PH/HV/SF/PI/SS/PA/AH/SP/N13/,7406AR72901,-94.4084849834482,35.384373946760064,100.0
OMART Inc,,,116 Snowball Drive,,,Gassville,AR,72635,(870)435-6200,,,SA/TX/DT/HH/RS/RL/OP/PH/PW/DU/SF/PI/SS/SP/,5308AR72635,-92.48830688767558,36.286365928261795,100.0
Ozark Counseling Services Inc,,,715 West Sherman Street,Suite A,,Harrison,AR,72601,(870)741-8216 Hotline: (800)946-1111,,,MH/TX/OP/DU/SF/MD/MC/SI/PI/MI/AH/,7733AR72601,-93.11449599131686,36.241069997773174,98.06
BARBS Place,Babies Adults Recovery Based Services,,276 Linden Avenue,,,Hot Springs National Park,AR,71901,(501)624-6185,www.quapawhouseinc.org,,SA/TX/HH/RL/PH/PW/WN/BC/SF/PI/,7632AR71901,-93.06674725612059,34.52037656700513,100.0
Quapaw House Inc,Detox Residential and Outpatient,,812 Mountain Pine Road,,,Hot Springs National Park,AR,71913,(501)767-4456,www.quapawhouseinc.org,,SA/TX/DT/RS/OP/SF/PI/SS/,7360AR71913,-93.13473811984713,34.52230677219244,100.0
Crowleys Ridge Development Council,Northeast Ark Regional Recovery Center,,6009 CW Post Road,,,Jonesboro,AR,72401,(870)932-0228,www.crdcnea.com,,SA/TX/HH/RS/RL/OP/PH/AD/SF/,0711AR72401,-90.61989460092948,35.806333719091356,99.99
BCD Hoover Center,,,4000 West 13th Street,,,Little Rock,AR,72204,(501)663-4774,,bcdinc.dewdesigns.com/programs.htm,SA/TX/RS/RL/OP/PH/CO/WN/MN/DU/SF/AH/,5796AR72204,-92.31822533175266,34.739620142960824,100.0
Catar Clinic,,,1401 South University Avenue,,,Little Rock,AR,72204,(501)664-7833 Intake: (501)664-6890,,Methadone Clients Only,SA/TX/MM/OP/PW/SF/,2898AR72204,-92.34153004006546,34.739470861265175,100.0
Gyst House Inc,,,8101 Frenchman Lane,,,Little Rock,AR,72209,(501)568-1682 Intake: (501)568-1683,,,SA/TX/HH/OP/DU/SF/,9208AR72209,-92.3461622988553,34.67692053163281,98.13
Mid Arkansas Substance Abuse Services,,,4601 West 7th Street,,,Little Rock,AR,72205,(501)686-9393 Hotline: (501)686-9300,,,SA/TX/DT/RS/CJ/SF/PA/AH/,0834AR72205,-92.3233249654637,34.74666416866075,100.0
Recovery at Baptist Health,Medical Center/Little Rock,,9601 Interstate 630,Exit 7,,Little Rock,AR,72205,(501)202-7507,www.baptist-health.org,,SA/TX/DT/HI/OP/SF/MD/MC/PI/MI/AH/,3808AR72205,-92.34231411570164,34.74496994123711,92.37
Serenity House,DBA Serenity Park Inc,,2801 West Roosevelt Road,,,Little Rock,AR,72204,(501)663-7627,www.serenitypark.org,,SA/TX/RS/OP/PH/DU/SF/AH/,5631AR72204,-92.30576077117856,34.72533683512598,100.0
University of Arkansas for,Medical Sciences/Arkansas CARES,,5821 West 20th Street,,,Little Rock,AR,72204,(501)661-7979 Intake: (501)526-6000x1509,www.arcares.uams.edu,,MH-SA/TX/RL/OP/PH/CO/PW/WN/BC/SF/MD/PI/MI/SS/AH/,9469AR72204,-92.31854221330481,34.73321851446966,96.0
University of Arkansas for,Substance Abuse Treatment Clinic,,3924 West Markham Street,,,Little Rock,AR,72205,(501)686-9630 Intake: (501)686-5930 Hotline: (501)686-5930,www.arcares.uams.edu,Methadone Clients Only,SA/TX/DT/MM/DM/OP/WN/MN/SF/SS/AH/,0488AR72205,-92.31713643871115,34.75140996032928,100.0
Ozark Counseling Services Inc,,,East Main Street,,,Marshall,AR,72650,(870)448-3724 Hotline: (800)946-1111,,,MH/TX/OP/CO/SF/MD/MC/SI/PI/MI/AH/,9758AR72650,-92.62879841433987,35.90883248625956,100.0
BridgeWay,,,21 Bridgeway Road,,,Maumelle,AR,72113,(501)771-1500,www.thebridgeway.com,,MH-SA/TX/DT/HI/OP/PH/CO/SF/MC/PI/MI/,4522AR72113,-92.35439793782051,34.82268371378181,100.0
Counseling Associates/Morrilton,,,8 Hospital Drive,,,Morrilton,AR,72110,(501)354-1561,www.therapistunlimited.com,,MH/TX/OP/DU/CJ/SF/PI/MI/SS/AH/,3142AR72110,-92.72013297896831,35.168482188679505,100.0
Quapaw House Inc,DG Dunston Adolescent Center,,182 Dunston Road,,,Mount Ida,AR,71957,(870)867-2266,,,SA/TX/RL/AD/CO/HV/CJ/,8093AR71957,-93.46332641014051,34.60755156567675,100.0
Ozark Counseling Services Inc,,,8 Medical Plaza,,,Mountain Home,AR,72653,(870)425-6901,,,MH/TX/OP/CO/DU/SF/MD/MC/SI/PI/MI/AH/,6301AR72653,-92.39383990522194,36.341932707625396,100.0
Central Arkansas Veterans Healthcare,Special Treatment Section,North Little Rock Division,2200 Fort Roots Drive,,,North Little Rock,AR,72114,(501)257-3501 Intake: (501)257-1000x55061,,,MH-SA/TX/DT/HI/OP/CO/SE/WN/SF/PI/MI/AH/,1040AR72114,-92.29621797441328,34.776041984919466,100.0
Family Service Agency,,,628 West Broadway,Suite 300,,North Little Rock,AR,72114,(501)372-4242,www.helpingfamilies.org,,SA/TX/OP/DU/CJ/SF/PI/SS/AH/,5033AR72114,-92.27596805071262,34.75557333545547,98.84
Recovery Centers of Arkansas,,,1201 River Road,,,North Little Rock,AR,72114,(501)372-4611,www.rcofa.org,,SA/TX/RS/RL/OP/CO/DU/SF/PI/MI/AH/,3800AR72114,-92.28328176414743,34.75717306358614,100.0
Human Development and Research Servs,Pine Bluff Outpatient Office,,2106 East 6th Street,,,Pine Bluff,AR,71601,(870)535-3535 Intake: (870)541-0965,,,SA/TX/OP/DU/CJ/SF/SS/PA/,0969AR71601,-91.98203934914528,34.22418724476547,98.06
Arkansas River Valley Area Council,Freedom House,,400 Lake Front Drive,,,Russellville,AR,72802,(479)968-7086,www.arvacinc.org,,SA/TX/HH/RL/OP/PH/SF/PI/SS/PA/,6972AR72802,-93.14506387018831,35.30600977377324,100.0
Counseling Associates Inc,Russellville,,110 Skyline Drive,,,Russellville,AR,72801,(479)968-1298 Hotline: (800)844-2066,www.caiinc.org,,MH/TX/OP/CO/DU/SF/MD/MC/SI/PI/MI/SS/PA/,2049AR72801,-93.16859078275444,35.2866853379119,100.0
Wilbur Mills Center,,,3204 East Moore Avenue,,,Searcy,AR,72143,(501)268-7777 Hotline: (800)592-9503,www.hra-health.org,,SA/TX/DT/HH/RS/RL/OP/PH/AD/CO/WN/MN/DU/SF/PI/MI/SS/PA/AH/SP/,1514AR72143,-91.6931311561228,35.252811217332905,100.0
Decision Point Inc,,,301 Holcomb Street,,,Springdale,AR,72765,(479)756-1060 Intakes: (479)756-1060x332 (479)756-4322,www.decision-point.org,,SA/TX/DT/HH/RS/RL/OP/PH/HV/PW/WN/MN/CJ/SF/SI/PI/AH/SP/,9142AR72765,-94.13130600663419,36.18319865604082,99.51
Southwest Arkansas Counseling MH Ctr,,,2904 Arkansas Boulevard,,,Texarkana,AR,71854,(870)773-4655 Intake: (800)652-9166,,,MH-SA/TX/OP/AD/SF/SI/PI/MI/PA/AH/,3935AR71854,-94.01095453370873,33.46074439280686,100.0
New Beginnings CASA,,,412 York Steet,,,Warren,AR,71671,(870)226-9955 Intake: (870)226-9970,,,SA/TX/DT/RS/RL/OP/PW/BC/SF/SS/SP/,5172AR71671,-92.07315432469986,33.608614408228824,90.92
Human Development and Research Servs,,,6841 West 13th Street,,,White Hall,AR,71602,(870)879-1051,,,SA/TX/RS/RL/SF/SS/PA/AH/,2188AR71602,-92.08203302327637,34.215712763469604,98.0
Ozark Counseling Services Inc,,,319 Highway 14 South,Suite 1,,Yellville,AR,72687,(870)449-5177 Hotline: (800)946-1111,,,MH/TX/OP/SF/MD/MC/SI/PI/MI/AH/,9156AR72687,-92.67955744298149,36.22371187257753,100.0
Orange County Healthcare Agency,Alcohol/Drug Abuse Services/AlisoViejo,,5 Mareblu Street,Suite 100,,Aliso Viejo,CA,92656,(949)643-6930,www.ochealthinfo.com,,SA/TX/OP/AD/CO/PW/WN/MN/CJ/SF/AH/SP/F90/,2126CA92656,-117.70269613606042,33.57247625178313,98.04
Progress House Inc/Placer,,,,,,Alta,CA,95701,(530)389-9208,www.progresshouse.org,,SA/TX/RS/RL/WN/BC/SF/PI/MI/,6549CA95701,-120.81664769999998,39.20909500000005,100.0
MODOC County Alcohol and Drug Services,,,441 North Main Street,,,Alturas,CA,96101,(530)233-6319,www.modoccohealthservices.com,,SA/TX/OP/AD/PW/WN/MN/CJ/SF/PI/MI/AH/,5838CA96101,-120.54256665545643,41.48805915912988,100.0
Comeback Treatment Centers,,,1249 North Brookhurst Street,,,Anaheim,CA,92801,(714)778-3661 Intakes: (714)470-4735 (714)470-3411,www.comebacktreatmentcenters.com,,MH-SA/TX/DT/RS/RL/OP/PH/CO/PW/WN/MN/SF/SP/,6708CA92801,-117.95923509540005,33.85092785295608,100.0
Comeback Treatment Centers,Comeback House Primary Recovery,,803 South Gilbert Street,,,Anaheim,CA,92804,(714)236-9556 Intakes: (714)470-4735 (714)470-3411,www.comebacktreatment.com,,MH-SA/TX/DT/RS/RL/OP/PH/CO/PW/WN/MN/SF/SP/,1638CA92804,-117.96764750870308,33.82103601648521,100.0
Diversified Counseling Services Inc,,,720 North Valley Street,Suite J,,Anaheim,CA,92801,(714)758-9920,,,SA/TX/DT/OP/CJ/SF/SS/SP/,4119CA92801,-117.95640263537909,33.841755971538205,100.0
Hope House Inc,,,710 and 714 North Anaheim Boulevard,,,Anaheim,CA,92805,(714)776-7490 Intake: (714)776-6090,www.hopehouseoc.com,,SA/TX/RL/OP/WN/MN/SF/SS/PA/,3219CA92805,-117.91619393877502,33.842558774092524,98.64
Oasis Treatment Center,,,222 West Ball Road,,,Anaheim,CA,92805,(714)991-4673 Intakes: (800)550-0467 (714)635-6112,www.oasistreatment.com,,SA/TX/HH/RS/RL/OP/PH/CO/CJ/SF/PI/,4239CA92805,-117.9112170161266,33.81799250553263,100.0
Orange County Healthcare Agency,Anaheim Alcohol and Drug Abuse Servs,,2035 East Ball Road,Suite 100A and 100P,,Anaheim,CA,92806,(714)517-6140,www.ochealthinfo.com,,SA/TX/OP/AD/PW/WN/MN/CJ/SF/AH/SP/F90/,2587CA92806,-117.88796000084278,33.81812753799306,100.0
School Ten,,,2384 East Orangethorpe Avenue,,,Anaheim,CA,92806,(714)871-9460,,DWI/DUI Clients Only,SA/TX/OP/DU/SF/SP/,9804CA92806,-117.88370199402965,33.85964251768752,100.0
School Ten,Drinking Driver Unit,,1136-B North Gilbert Street,,,Anaheim,CA,92801,(714)772-3620,,DWI/DUI Clients Only,SA/TX/OP/DU/SF/SP/,4244CA92801,-117.96779834392763,33.847518420520764,98.73
Sentencing Concepts Inc,Counseling Concepts Inc,,304 West Cerritos Avenue,Building 7,,Anaheim,CA,92805,(714)778-6495,www.sciconcepts.com,,SA/TX/OP/AD/SF/MI/SS/SP/,9811CA92805,-117.90762158868719,33.809575597398116,100.0
Southern CA Alcohol and Drug Progs Inc,Heritage House North,"315, 319, and 321 State College Blvd",,,,Anaheim,CA,92806,(714)687-0077 Intake: (877)687-0077,,,SA/TX/RL/PW/BC/CJ/SF/SS/,6549CA92806,-117.86526999999997,33.854260000000075,100.0
Southern CA Alcohol and Drug Progs Inc,Heritage House Village,,405 South Rose Street,Office 102,,Anaheim,CA,92805,(714)999-5960,,,MH-SA/TX/RL/WN/BC/SF/SP/,5435CA92805,-117.9022632995166,33.834491779019324,100.0
Wel-Mor Psychological Group Inc,DBA South Coast Counseling and Psych,,5130 East La Palma Avenue,Suite 212,,Anaheim,CA,92807,(714)540-9070,www.southcoastcounseling.com,,MH/TX/OP/CO/CJ/SF/SS/,8474CA92807,-117.80582698891213,33.85947249078143,100.0
Right Road Recovery Programs Inc,,,2336 Balls Ferry Road,,,Anderson,CA,96007,(303)762-2193 Intake: (530)365-8523,,,SA/TX/OP/PH/PW/SF/MC/,4170CA96007,-122.29269711131846,40.450780964999254,100.0
Shasta Recovery Center,,,2115 Howard Street,Suite C,,Anderson,CA,96007,(530)365-1160 Intake: (530)343-6566,,,SA/TX/OP/PH/SF/PI/MI/,1533CA96007,-122.29747817958584,40.45041223543244,100.0
Changing Echoes,,,7632 Pool Station Road,,,Angels Camp,CA,95222,(209)785-3667,www.changingechoes.com,,SA/TX/DT/RS/RL/OP/PH/WN/MN/DU/SF/PI/,0067CA95222,-120.65984364629757,38.0975754270784,100.0
Koinonia Foster Homes Inc,Koinonia Group Home 5,,4232 Big Cloud Way,,,Antelope,CA,95843,(916)652-0171,www.kfh.org,,SA/TX/RL/AD/,3623CA95843,-121.36507979657738,38.70860640365101,100.0
Addiction Research and Trt (BAART),California Detoxification Programs,,3707 Sunset Lane,,,Antioch,CA,94509,(925)522-0124,www.baartcdp.com,Methadone Clients Only,SA/TX/DT/MM/DM/OP/PW/SF/SI/SS/F11/F27/F32/F35/F69/F79/,6895CA94509,-121.80420938031936,37.984503888517864,100.0
J Cole Recovery Homes Inc,Cole House,,1408 A Street,,,Antioch,CA,94509,(925)978-2873,,,SA/TX/RL/CO/HV/GL/MN/CJ/SF/PI/SP/,8792CA94509,-121.80605750615072,38.00777599122736,100.0
Phoenix Programs Inc,East County Multi Service Center,,1401 West 4th Street,,,Antioch,CA,94509,(925)778-3750,www.phoenixprograms.org,,MH-SA/TX/OP/CO/PA/,7471CA94509,-121.82377198795963,38.0154725061801,100.0
REACH Project Inc,,,1915 D Street,,,Antioch,CA,94509,(925)754-3673,,,SA/TX/OP/AD/CJ/SF/PA/SP/,1614CA94509,-121.80999624627171,38.003820990214045,100.0
Rocklin Community Counseling Ctr Inc,Applegate Mens Residential Center,,17891 Lake Arthur Road,,,Applegate,CA,95703,(530)878-2964 Intake: (916)315-0468,www.rocklincounseling.org,,SA/TX/RS/RL/CO/HV/GL/SE/MN/CJ/SF/SS/PA/,7883CA95703,-120.9951083739267,39.002639543732045,100.0
United Indian Health Services,Child and Family Services Department,,1600 Weeot Way,,,Arcata,CA,95521,(707)825-5060,www.uihs.org,,GH/TX/OP/AD/PW/WN/SF/MD/MC/SI/PI/SS/PA/,0747CA95521,-124.0923864616179,40.89807987681649,100.0
Life Steps,Pasos de Vida,,1431 Pomeroy Road,,,Arroyo Grande,CA,93420,(805)481-2505x215 Intake: (805)481-2505x210,www.lifestepsfoundation.org,,MH-SA/TX/RL/CO/PW/WN/BC/SF/MD/MC/SP/F29/,8628CA93420,-120.53079226078985,35.0634844345334,100.0
San Luis Obispo County,Drug and Alcohol Services,,1106 Grand Avenue,,,Arroyo Grande,CA,93420,(805)473-7080,,,SA/TX/OP/AD/CO/PW/WN/DU/CJ/SF/MD/MC/PA/AH/SP/,7165CA93420,-120.59658156735658,35.11957659158846,99.55
Aegis Medical Systems Inc,,,6500 Morro Road,Suite D,,Atascadero,CA,93422,(805)461-5212,www.aegismed.com,Methadone Clients Only,SA/TX/DT/MM/DM/OP/PW/WN/CJ/SF/MC/SP/,2192CA93422,-120.66561182060549,35.483589235452754,100.0
San Luis Obispo County,Drug and Alcohol Services,,3556 El Camino Real,,,Atascadero,CA,93422,(805)461-6080,,,SA/TX/OP/AD/CO/PW/WN/DU/CJ/SF/MD/MC/PA/AH/SP/,1274CA93422,-120.68688699160634,35.50182945585647,100.0
Community Social Model Advocates Inc,Rose Julia Riordan Tranquility Village,,559 Mendocino Court,,,Atwater,CA,95301,(209)357-5200,,,SA/TX/RL/BC/SF/,1962CA95301,-120.59071557623831,37.35053771983397,100.0
Chapa De Indian Health Program Inc,Substance Abuse Services,,11670 Atwood Road,,,Auburn,CA,95603,(530)887-2828,,,MH-SA/TX/OP/SF/PI/SP/,1574CA95603,-121.09877374074364,38.93485345828071,100.0
Eagle Recovery Programs,,,12183 Locksley Lane,,,Auburn,CA,95602,(530)823-0777 Intake: (530)823-0708,,,SA/TX/HH/RL/OP/SF/SS/PA/,0793CA95602,-121.09671336741535,38.95034371536851,100.0
Hope Help and Healing Inc,,,11960 Heritage Oak Place,Suite 20,,Auburn,CA,95603,(530)885-4249,,,SA/TX/OP/CO/WN/MN/SF/MI/SS/,0321CA95603,-121.09893626584612,38.940716138547494,100.0
Hope Help and Healing Inc,ABBA House,,3875 Cedar Mist Lane,,,Auburn,CA,95602,(530)885-4249,www.hhhinc.com,,SA/TX/RL/CO/MN/CJ/SF/MI/SS/,1774CA95602,-121.09279945543636,38.95883052095713,100.0
New Leaf Counseling Services,,,1254 High Street,,,Auburn,CA,95603,(530)889-9195,,,SA/TX/OP/PW/WN/SF/MD/MC/PI/,2686CA95603,-121.07506787454484,38.89399323095291,100.0
Sierra Council on Alcoholism and Drug Depend/Auburn Service Center,,,11960 Heritage Oaks Place,Unit 15,,Auburn,CA,95603,(530)885-1961,www.sierracouncil.org,,SA/TX/DT/OP/PW/WN/MN/DU/SF/MD/PI/SS/,1133CA95603,-121.09893626584612,38.940716138547494,98.51
Sierra Council on Alcoholism and Drug Depend/South Placer Res Trt Prog,,,11417 D Avenue,,,Auburn,CA,95603,(530)885-1917 Hotline: (530)885-1917,www.sierracouncil.org,,SA/TX/DT/RS/RL/WN/MN/SF/PI/MI/SS/PA/SP/,9786CA95603,-121.1053197556666,38.936788965452884,100.0
Sierra Family Services,Auburn,,991 Lincoln Way,,,Auburn,CA,95603,(530)885-0441,www.sierrafamily.org,,MH/TX/OP/SF/SI/PI/,5444CA95603,-121.07190454428637,38.89841351141146,100.0
Social Model Recovery Systems,River Community,,23701 East Fork Road,,,Azusa,CA,91702,(626)910-1202,www.socialmodel.com,,MH-SA/TX/RS/RL/CO/GL/WN/MN/SF/MD/PI/MI/AH/,7803CA91702,-117.80238479273508,34.234351475832064,99.55
Stepping Stones Home,Colby House II,,18417 Orkney Street,,,Azusa,CA,91702,(626)967-1263,,,SA/TX/RL/BC/SF/,2764CA91702,-117.89238547808137,34.11315946565625,99.55
Aegis Medical Systems Inc,,,1018 21st Street,,,Bakersfield,CA,93301,(661)861-9967,www.aegismed.com,Methadone Clients Only,SA/TX/DT/MM/DM/OP/CO/HV/GL/SE/PW/WN/MN/CJ/SF/MD/MC/PI/MI/AH/SP/,9712CA93301,-119.01324743359035,35.3781303509037,100.0
Bakersfield Medical and Mental Servs,,,1010 1/2 South Union Avenue,,,Bakersfield,CA,93307,(661)321-0234,www.ahsadm.com,Methadone Clients Only,MH-SA/TX/DT/MM/DM/OP/PW/WN/MN/CJ/SF/MD/SS/SP/,2855CA93307,-119.00288925970858,35.34384972910927,100.0
Chumash Council of Bakersfield,American Indian Health Project,,1617 30th Street,,,Bakersfield,CA,93301,(661)327-4030 Intake: (661)327G0D0,,,TX/OP/AD/SF/,9356CA93301,-119.02047573543177,35.386681149428036,100.0
Citizens for the Betterment of,Community and Country,,504 Bernard Street,,,Bakersfield,CA,93305,(661)325-8510 Intake: (661)322-0519,www.jasonsretreat.com,,SA/TX/OP/WN/SF/MD/PI/SP/,9741CA93305,-118.99038503830805,35.39027748880461,100.0
Citizens for the Betterment of,Community and Country,,Capistrano Lincoln Street Retreat,708 Lincoln Street,,Bakersfield,CA,93305,(661)869-1795 Intake: (661)322-0519,www.jasonsretreat.com,,SA/TX/RL/HV/PW/BC/CJ/MD/,1564CA93305,-118.97808951841756,35.3846234464437,87.6
Citizens for the Betterment of,Community and Country/Capistrano Women,,3316 Laverne Street,Suites A-K,,Bakersfield,CA,93309,(661)832-8504 Intake: (661)322-0519,www.jasonsretreat.com,,SA/TX/DT/RS/RL/CO/HV/PW/WN/BC/CJ/SF/PI/,0839CA93309,-119.04036800332383,35.342737471378896,98.04
Citizens for the Betterment of,Community and Country/Jasons Retreat,,600 Bernard Street,,,Bakersfield,CA,93305,(661)325-8510 Intake: (661)322-0519,www.jasonsretreat.com,,SA/DT/RS/SF/PI/,1098CA93305,-118.98887587664132,35.39028029674217,100.0
Community Service Organization (CSO),Behavioral Health Programs Brotherhood,,816 Baker Street,,,Bakersfield,CA,93305,(209)256-1440 Intake: (661)327-9376,,,SA/TX/OP/WN/MN/CJ/SF/MC/PA/SP/,6326CA93305,-118.99323178867444,35.376070937523124,100.0
Joseph C Jones Jr,Alternative Solutions Edu Clinicians,,1415 18th Street,Suite 522,,Bakersfield,CA,93301,(661)325-2732 Intake: (661)325ASEC,,,SA/TX/OP/PH/AD/CO/WN/MN/CJ/SF/MD/MC/SS/SP/,9079CA93301,-119.01804096019735,35.37524249189305,100.0
Kern Co Hispanic Comm on Alcohol/Drug,Serenity House/Casa Alma,,2024 20th Street,,,Bakersfield,CA,93301,(661)634-9737 Intake: (661)864-0198,,,SA/TX/RL/OP/WN/SF/SS/PA/SP/,6020CA93301,-119.02560571163221,35.377235498920705,100.0
Kern County Hispanic Commission on,Alcohol and Drug Abuse Casa Serena,,2008 D Street,,,Bakersfield,CA,93301,(661)634-9737 Intake: (661)864-1698,,,SA/TX/RL/OP/WN/CJ/SF/SS/PA/SP/,3732CA93301,-119.02580394364227,35.377607278236,100.0
Legacy Behavioral Services,Residential Treatment Program,,2105 F Street,,,Bakersfield,CA,93301,(661)861-1155 Intake: (661)549-9752,www.legacybehavioralservices.com,,SA/TX/HH/RL/MN/CJ/SF/PI/,1209CA93301,-119.02350051283078,35.378436583736175,100.0
New Advances for People with,Disabilities (NAPD)/Genesis Program,,1909 16th Street,,,Bakersfield,CA,93301,(661)325-3003 Intake: (877)325-3003,www.napdgenesisgroup.org,,SA/TX/OP/AD/SF/,8968CA93301,-119.02390200599278,35.372312555728605,100.0
Restoration Village Treatment Center,,,1670 Golden State Avenue,,,Bakersfield,CA,93301,(661)325-7461x106 Intake: (661)336-0838,,,SA/TX/OP/SF/MD/,0409CA93301,-119.02273532888964,35.389893262363195,100.0
Special Treatment Education and Prevention Services (STEPS),,,3533 Mount Vernon Avenue,,,Bakersfield,CA,93306,(661)871-3353 Intake: (661)872-1238,www.stepsinc.us,DWI/DUI Clients Only,SA/TX/OP/AD/DU/SF/AH/SP/,6538CA93306,-118.96748249370914,35.405721983595626,100.0
Step II Inc,,,10822 Rosedale Highway,,,Bakersfield,CA,93312,(661)587-8817 Intake: (661)872-1238,,,SA/TX/OP/CO/DU/CJ/SF/AH/SP/,3530CA93312,-119.12236359165442,35.383630298173706,100.0
Tabitha House Ministries Inc,Tabitha House,,1700 Golden State Highway,,,Bakersfield,CA,93301,(661)637-1165 Intakes: (661)637-1982 (661)864-1618,,,SA/TX/RL/OP/PH/CO/HV/GL/SE/PW/WN/BC/CJ/SF/PA/,2238CA93301,-119.02137276670945,35.388761370158385,98.04
Traffic and Alcohol Awareness,School of Kern (TAASK),,324 Oak Street,Suite A,,Bakersfield,CA,93304,(661)322-8862,,DWI/DUI Clients Only,SA/TX/OP/DU/SF/SP/,7131CA93304,-119.03885641090507,35.360405852720326,100.0
Turning Point of Central CA Inc,Alternatives Outpaient Services,,1120 Union Avenue,,,Bakersfield,CA,93307,(661)861-6141 Intake: (661)861-6111,,,SA/TX/DT/RS/RL/OP/PH/CO/CJ/SF/MC/PA/,4186CA93307,-119.0028247046297,35.367834104861984,100.0
Turning Point of Central CA Inc,Ken Kennemer Treatment Center,,1100 Union Avenue,,,Bakersfield,CA,93307,(661)861-6111,,,SA/TX/DT/HH/RS/RL/WN/MN/CJ/SF/SI/PA/SP/,1480CA93307,-119.0028277221147,35.367757871452596,100.0
Vinesman Ponderosa,Christian Recovery Ranch,,518 Union Avenue,,,Bakersfield,CA,93307,(661)859-1579,,,SA/TX/HH/RS/RL/SF/MC/,0326CA93307,-119.00282935184003,35.36191827053913,100.0
Westcare California Inc,,,2901-2913 South H Street,,,Bakersfield,CA,93304,(661)398-4303,www.westcare.com,,SA/TX/RS/RL/MN/CJ/SP/,9065CA93304,-119.02135751164585,35.32795900261401,98.95
Willows Recovery Center,,,407 Helen Way,9301 Opal Street,,Bakersfield,CA,93307,(661)832-3098,,,SA/TX/RS/RL/OP/MN/SF/PI/,2110CA93307,-119.00859933300345,35.2708537249224,100.0
CA Hispanic Commission Alc/Drug Abuse,San Gabriel Latino Family Center,,13020 Francisquito Avenue,Suite 19,,Baldwin Park,CA,91706,(626)813-0288,www.chcada.org,,SA/TX/OP/AD/SF/SS/SP/,7662CA91706,-117.98896168264987,34.07951266229116,100.0
Ettie Lee Youth Family Services,Baldwin Park,,5146 North Maine Avenue,,,Baldwin Park,CA,91706,(626)960-4861,,,TX/RL/AD/CO/CJ/MD/MC/SP/,4703CA91706,-117.96051249744387,34.10575300646282,98.87
Koalacare of California Inc,ACE Program,,45 South 1st Street,,,Banning,CA,92220,(951)849-5564,,DWI/DUI Clients Only,SA/TX/OP/DU/SF/AH/SP/,4836CA92220,-116.8778413426494,33.92502433803166,100.0
MFI Recovery Center,,,2781 West Ramsey Street,Suite 1,,Banning,CA,92220,(951)849-3896 Hotline: (951)683-6596,www.mfirecovery.com,,SA/TX/OP/PH/AD/SF/MD/PI/PA/,1549CA92220,-116.90667802323898,33.92578751031588,100.0
Riverside San Bernardino County,Indian Health,,11555 1/2 Potrero Road,,,Banning,CA,92220,(951)849-4761x240 Intake: (800)732-8805x240,,,MH-SA/TX/OP/AD/WN/MN/MD/MC/SI/PI/MI/PA/,8802CA92220,-116.82909718640371,33.953582734045504,100.0
Soroptimist House of Hope II,,,628 South 8th Street,,,Banning,CA,92220,(951)849-9491,www.recoveryhouseofhope.org,,SA/TX/RL/WN/CJ/SF/SS/PA/SP/,9408CA92220,-116.88539134193456,33.91965748924745,100.0
Mental Health Systems Inc,Barstow Center for Change,,200 East Williams Street,,,Barstow,CA,92312,(760)256-9224,www.mhsinc.org,,SA/TX/OP/CO/CJ/SF/MD/SS/AH/SP/,3703CA92312,-117.02599525313171,34.89760476858239,99.52
Vista Guidance Center,,,309 East Mountain View,Suite 100,,Barstow,CA,92311,(760)256-0376 Intake: (760)245-9446,www.vistaguidancecenters.org,,MH-SA/TX/DT/OP/PH/CO/SF/MD/MC/PI/SS/AH/SP/,6194CA92311,-117.02389097633952,34.89352747560185,97.84
Salvation Army,The Salvation Army Bell Shelter,,5600 Rickenbacker Road,Building 2-A and 2-B,,Bell,CA,90201,(323)263-1206 Intakes: (323)263-1206x213 (323)263- 1206x212,,,SA/TX/HH/RL/CO/WN/MN/SF/,3724CA90201,-118.16393119477506,33.98933244810513,100.0
Southern CA Alcohol and Drug Progs Inc,Angel Step II,,16314 Cornutta Avenue,,,Bellflower,CA,90706,(562)461-9272,,,MH-SA/TX/RL/OP/CO/PW/WN/BC/SF/MD/SI/PI/SS/PA/SP/,9187CA90706,-118.11980025755214,33.88570415968341,97.34
Southern CA Alcohol and Drug Progs Inc,Angel Step Too,,16314 Cornutta Avenue,,,Bellflower,CA,90706,(510)215-9378 Intake: (562)461-9272,,,SA/TX/RL/CO/HV/SE/BC/SF/SS/,9187CA90706,-118.11980025755214,33.88570415968341,97.34
Berkeley Addiction Treatment Services,,,2975 Sacramento Street,,,Berkeley,CA,94702,(510)644-0200,,Methadone Clients Only,SA/TX/DT/MM/DM/OP/PW/SF/MD/PI/PA/SP/,7277CA94702,-122.27903371782922,37.853748084909185,100.0
Berkeley Mental Health,Adult Services Program,,2640 Martin Luther King Jr Way,,,Berkeley,CA,94704,(510)981-5290,,,MH/TX/OP/CO/,6145CA94704,-122.271765937224,37.85998296358621,100.0
New Bridge Foundation Inc,Bridge 1,,1820 Scenic Avenue,,,Berkeley,CA,94709,(510)548-7270 Intake: (800)785-2400,www.new-bridge.org,,SA/TX/RL/CO/HV/WN/CJ/SF/PA/AH/SP/,9101CA94709,-122.26224929199662,37.87538320192851,100.0
New Bridge Foundation Inc,Bridge 2,,1816 and 1820 Scenic Avenue,,,Berkeley,CA,94701,(740)342-1991 Intakes: (510)548-7270 (800)785-2400,www.new-bridge.org,,SA/TX/DT/RS/RL/OP/PH/CO/CJ/SF/PI/MI/AH/,3593CA94701,-122.26224929199662,37.87538320192851,97.68
Options Recovery Services,,,1931 Center Street,,,Berkeley,CA,94704,(510)666-9552,www.optionsrecovery.org,,SA/TX/OP/PH/CO/WN/MN/DU/CJ/MD/SS/PA/,8127CA94704,-122.2718035719692,37.86982549720908,100.0
Operation Breakthrough Inc,,,40880 Pedder Road,,,Big Bear Lake,CA,92315,(909)866-5437x104 Intake: (909)866-5437x101,,,SA/TX/OP/PH/AD/CO/WN/DU/CJ/SF/MD/SS/PA/SP/,9816CA92315,-116.91011866622893,34.24186402522568,100.0
Alpine Recovery Center,Counseling and Recovery,,375 East Line Street,,,Bishop,CA,93514,(760)873-4357 Intake: (760)873HELP,,,MH-SA/TX/OP/SF/MC/PI/MI/,1523CA93514,-118.38972000330207,37.36149747733101,100.0
Toiyabe Indian Health Project,Family Service Department,,350 Barlow Lane,,,Bishop,CA,93514,(614)225-0990 Intakes: (760)873-6394 (866)270-5003,,,MH-SA/TX/OP/AD/CO/WN/MN/,2062CA93514,-118.422961914167,37.36601666537738,99.55
Cedar House,Rehabilitation Center,,18612 Santa Ana Avenue,,,Bloomington,CA,92316,(909)421-7120 Intakes: (800)246-4357 (909)421-7120x152 (800)246HELP,www.cedarhouse.org,,SA/TX/DT/RS/RL/OP/PH/CO/DU/SF/PI/SS/PA/AH/SP/,3769CA92316,-117.39799903584552,34.05589753019455,100.0
Social Science Services Inc,Maple House,,10888 Maple Avenue,,,Bloomington,CA,92316,(909)873-0478 Intake: (909)421-7120,www.cedarhouse.org,,SA/TX/RS/RL/CO/BC/CJ/SF/PI/SS/PA/AH/,1332CA92316,-117.40513748368495,34.05624198450532,100.0
Riverside County Substance Abuse Prog,,,1297 West Hobson Way,,,Blythe,CA,92225,(760)921-5000,,,SA/TX/OP/PH/AD/CO/WN/MN/CJ/SF/MD/SI/MI/SS/PA/AH/SP/F27/F65/F69/,2422CA92225,-114.61126826195296,33.610218853663184,100.0
Veterans Alcoholic Rehab Prog (VARP),Metcalf Recovery Ranch,,9826 18th Avenue,,,Blythe,CA,92225,(760)922-8625,,,SA/TX/RL/SF/SS/AH/SP/,3257CA92225,-114.58429455504951,33.57424613254815,100.0
La Posta Substance Abuse Center,Outpatient Substance Abuse Services,,8 Crestwood Road,,,Boulevard,CA,91905,(619)478-2264,,,SA/TX/OP/PA/,8421CA91905,-116.36236440384107,32.70757362084695,100.0
DAS Drug Diversion Program,,,615 North Berry Street,Suite J,,Brea,CA,92821,(714)255-1873,,,SA/TX/OP/CO/CJ/SF/SI/PI/MI/SS/PA/,6123CA92821,-117.90667746118591,33.92850098383077,100.0
Latino Commission on Alc/DA Services,Casa Maria,,105 McLain Road,,,Brisbane,CA,94005,(415)468-1914 Intake: (650)244-1444,www.thelatinocommission.com,,SA/TX/RS/RL/PW/WN/CJ/SF/PI/SS/PA/SP/,6899CA94005,-122.39397450461702,37.677471673897244,100.0
Mills Peninsula Health Services,Behavioral Health Department,,1783 El Camino Real,,,Burlingame,CA,94010,(650)259-8268 Intake: (650)696-5909,www.mills-peninsula.org,,MH-SA/TX/DT/HI/OP/PH/AD/CO/SE/WN/MN/SF/MC/PI/MI/,9882CA94010,-122.38457897789058,37.59123098458686,100.0
Womens Recovery Association,The Center,,1450 Chapin Avenue,1st Floor,,Burlingame,CA,94010,(650)348-6603,www.womensrecovery.org,,SA/TX/OP/PH/AD/CO/PW/WN/CJ/SF/PI/SS/,7303CA94010,-122.35088766661984,37.57739422264393,100.0
Womens Recovery Association,Tracys Place of Hope,,1450 Chapin Avenue,,,Burlingame,CA,94010,(650)348-6603x209 Intake: (650)348-6603,www.womensrecovery.org,,SA/TX/RL/AD/CO/GL/WN/CJ/SF/MD/MC/PI/,7303CA94010,-122.35088766661984,37.57739422264393,100.0
Mayers Crossroads Clinic,,,20597 Commerce Way,,,Burney,CA,96013,(530)335-3800,,,MH-SA/TX/OP/AD/WN/MN/CJ/SF/PI/SS/PA/AH/,0356CA96013,-121.65254110547356,40.88809786871454,100.0
Imperial Valley Methadone Clinic,,,535 Cesar Chavez Boulevard,,,Calexico,CA,92231,(760)357-6566,,Methadone Clients Only,SA/TX/DT/MM/DM/OP/SF/MD/MC/SP/,7481CA92231,-115.50220885858333,32.670215432665856,100.0
College Community Services/CA City,,,8101 Bay Avenue,,,California City,CA,93505,(760)373-2979 Hotline: (888)343-4756,,,MH-SA/TX/OP/AD/CO/PW/CJ/SF/MD/SS/AH/,1198CA93505,-117.98356233896277,35.124440086147025,100.0
Duffys Myrtledale Inc,Alcohol Recovery Facility,,3076 Myrtledale Road,,,Calistoga,CA,94515,(707)942-6888,www.duffys-myrtledale.com,,SA/TX/DT/RS/RL/SF/PI/,4062CA94515,-122.59836268732242,38.59499653735911,100.0
PDAP of Ventura County Inc,,,450 Rosewood Avenue,Suites 215 and 217,,Camarillo,CA,93010,(805)482-1265,,,SA/TX/OP/AD/SF/MD/SI/SS/PA/SP/,7559CA93010,-119.06154253476365,34.2205919950365,100.0
Progress House Inc,Progress House Perinatal Facility,,5494 Pony Express Trail,House 1,,Camino,CA,95709,(530)644-3758 Hotline: (530)644-3758,,,SA/TX/RS/RL/PW/WN/BC/CJ/SF/SI/MI/,1840CA95709,-120.61639588354916,38.749672700068665,100.0
Progress House Inc,Progress House Perinatal Facility,,5494 Pony Express Trail,House 3,,Camino,CA,95709,(530)644-3758,,,SA/TX/RS/RL/PW/WN/BC/SF/MD/MI/,1840CA95709,-120.61639588354916,38.749672700068665,100.0
Progress House Inc,Progress House Perinatal Facility,,5494 Pony Express Trail,House 4,,Camino,CA,95709,(530)644-3758,,,SA/TX/RS/RL/PW/WN/BC/SF/MD/MI/,1840CA95709,-120.61639588354916,38.749672700068665,100.0
Progress House Inc,Progress House Perinatal Facility,,5494 Pony Express Trail,House 5,,Camino,CA,95709,(530)626-9420 Intake: (530)644-3758,,,SA/TX/RS/RL/PW/WN/BC/SF/MD/MI/,1840CA95709,-120.61639588354916,38.749672700068665,100.0
Progress House Inc,Progress House Perinatal Facility,,5494 Pony Express Trail,,,Camino,CA,95709,(530)644-3758 Hotline: (530)644-3758,,,SA/TX/RS/RL/PW/WN/BC/SF/MD/MI/,1840CA95709,-120.61639588354916,38.749672700068665,100.0
CADS Inc,Countywide Alcohol and Drug Services,,1 West Campbell Avenue,Suite E-43,,Campbell,CA,95008,(408)370-9688 Intake: (800)811-1800,www.drug-rehabilitation.com,,SA/TX/OP/CJ/SF/AH/SP/F90/,6804CA95008,-121.94992326815182,37.28719064384185,100.0
Support Systems Homes Inc,Outpatient and Day Treatment Program,,1 West Campbell Avenue,Suite E-45,,Campbell,CA,95008,(408)370-9688 Intake: (800)811-1800,www.drug-rehabilitation.com,,SA/TX/OP/CJ/SF/PI/AH/SP/F90/,6804CA95008,-121.94992326815182,37.28719064384185,100.0
San Diego Freedom Ranch Inc,,,1777 Buckman Springs Road,,,Campo,CA,91906,(619)478-5696,www.geocities.com/heartland/farm/1772,,SA/TX/RL/SF/PA/,5389CA91906,-116.48735269740531,32.64985804103775,100.0
Valley Womens Center,,,21515 Vanowen Street,Suite 114,,Canoga Park,CA,91303,(818)713-8700,www.valleywomenscenter.com,,MH-SA/TX/OP/AD/GL/SE/WN/SF/SS/F5/F24/F34/F69/,1054CA91303,-118.59941602619337,34.193767516032715,100.0
Child and Family Center,,,27225 Camp Plenty Road,Suite 1,,Canyon Country,CA,91351,(510)215-9378 Intakes: (661)250-8752x6300 (661)259-9439 Hotline: (661)259-9439x3001,www.childfamilycenter.org,,MH-SA/TX/OP/AD/CO/CJ/SF/MD/SI/PI/SS/PA/AH/,8393CA91351,-118.47601412724528,34.41659437698142,100.0
Child and Family Center,Santa Clarita,,27225 Camp Plenty Road,Suite 1,,Canyon Country,CA,91351,(661)259-9439x3073 Intake: (661)250-8752 Hotline: (661)259-9658,www.childfamilycenter.org,,MH-SA/TX/OP/AD/CO/HV/SF/MD/MC/PI/AH/SP/,8393CA91351,-118.47601412724528,34.41659437698142,100.0
National Council on Alc and Drug Dep,San Fernando Valley,,20655 Soledad Canyon Road,Suite 16,,Canyon Country,CA,91351,(661)299-2888 Hotline: (661)299-2888,www.ncadd-sfv.org,,SA/TX/OP/AD/CJ/SF/SS/,5650CA91351,-118.49731824290815,34.42098456640791,100.0
Pacific Hills Treatment Center,Womens Residential,,34248 Via Santa Rosa,"Apartments A, B, and C",,Capistrano Beach,CA,92624,(800)662-2873 Hotline: (800)662-2873,www.pachills.com,,SA/TX/RS/PH/WN/SF/PI/,0896CA92624,-117.67393422204714,33.465168067936375,100.0
Scripps Student Assistance Program,,,1640 Magnolia Avenue,,,Carlsbad,CA,92008,(760)434-4757,,,SA/TX/OP/AD/GL/SF/MD/SI/PI/MI/SS/PA/SP/,2741CA92008,-117.33143071833814,33.15801073304946,100.0
Associated Rehab Program for Women Inc,Cornerstone,,6348 Appian Way,,,Carmichael,CA,95608,(916)966-5102,,,SA/TX/RL/WN/SF/,9938CA95608,-121.31613543318406,38.663153061020715,100.0
Bi Valley Medical Clinic,Carmichael,,6127 Fair Oaks Boulevard,,,Carmichael,CA,95608,(916)974-8090,www.bi-valley.com,Methadone Clients Only,MH-SA/TX/DT/MM/DM/OP/CO/SF/MD/SS/SP/F69/,4986CA95608,-121.32938814411379,38.61252368363205,100.0
Hayward,,,20094 Mission Boulevard,,,Castro Valley,CA,94546,(510)727-9755x22 Intake: (510)727-9755x46,,Methadone Clients Only,SA/TX/MM/OP/CO/SF/MD/PI/AH/SP/F4/F65/,1106CA94546,-122.10248049446491,37.68700193971726,97.13
First Step,Stanislaus Recovery Center,,1904 Richland Avenue,Perinatal Treatment Building,,Ceres,CA,95307,(209)541-2118,www.svcfs.org,,SA/TX/RL/PH/CO/PW/WN/BC/CJ/SF/MD/MC/PI/AH/SP/,3942CA95307,-120.96592258706914,37.60044726431385,100.0
Stanislaus Recovery Center,Adult Treatment Programs,,1904 Richland Avenue,,,Ceres,CA,95307,(209)541-2121 Hotline: (888)376-6246,www.stanislausrecoverycenter.com,,SA/TX/DT/RS/OP/PH/SF/PI/AH/SP/,3942CA95307,-120.96592258706914,37.60044726431385,100.0
Alternative Options Counseling and Addictions Center,,,12881 166th St Suite 110,,,Cerritos,CA,90703,(562)921-5701 Intake: (562)921-5739,,,MH-SA/TX/OP/AD/CO/SE/SF/PI/,0655CA90703,-118.05806653483678,33.880545894559845,100.0
Calabasas Treatment Center,,,21617 Nordoff Street,,,Chatsworth,CA,91311,(818)917-8500 Intake: (818)576-9855 Hotline: (818)917-8500,www.calabasastreatment,,SA/TX/DT/OP/PH/AD/CO/HV/GL/SE/PW/WN/MN/DU/CJ/SF/MD/MC/SI/PI/MI/SS/PA/AH/SP/F4/F27/F29/F66/F69/N23/,2443CA91311,-118.60120103629362,34.23548751707913,97.34
Looking Glass Counseling Center,,,11560 North Poema Place,,,Chatsworth,CA,91311,(818)884-6900 Hotline: (818)884-6900,,,MH-SA/TX/DT/OP/AD/CO/SE/PW/WN/MN/CJ/SF/PI/SS/,3634CA91311,-118.60875958512013,34.28125736037332,98.87
Aegis Medical Systems Inc,Chico,,590 Rio Lindo Avenue,,,Chico,CA,95926,(530)345-3491 Hotlines: (818)593-5300 (800)821-0775,www.aegismed.com,Methadone Clients Only,SA/TX/DT/MM/DM/OP/PH/CO/HV/PW/SF/MD/SI/SS/,8652CA95926,-121.84816751715158,39.75413566909468,100.0
Butte County Dept of Behavioral Health,Access,,592 Rio Lindo Avenue,Suite 1,,Chico,CA,95926,(530)891-2771 Intake: (530)891-2999 Hotlines: (800)334-6622 (800)371-4373,www.butte-dbh.org,,MH-SA/TX/OP/SF/MD/SI/PI/MI/SS/PA/AH/SP/,7236CA95926,-121.84816978026548,39.754139273313044,100.0
Butte County Dept of Behavioral Health,Adult Services/Chico,,107 Parmac Road,Suites 2 and 3,,Chico,CA,95926,(530)891-2784 Intakes: (530)891-2771 (530)891-2999 Hotlines: (800)334-6622 (800)371-4373,www.butte-dbh.org,,MH-SA/TX/OP/CO/SF/MD/SI/PI/MI/SS/PA/AH/SP/,0446CA95926,-121.85070002537695,39.753248444643376,100.0
Butte County Dept of Behavioral Health,Adult Treatment Court Chico,,564 Rio Lindo Avenue,,,Chico,CA,95926,(530)879-3950 Intakes: (530)891-2771 (530)891-2999 Hotlines: (800)334-6622 (800)371-4373,www.butte-dbh.org,,MH-SA/TX/OP/CO/CJ/SF/MD/SI/PI/MI/SS/PA/AH/,0436CA95926,-121.84898098085492,39.75518722075752,100.0
Butte County Dept of Behavioral Health,CalWorks,,584 Rio Lindo Avenue,,,Chico,CA,95926,(530)879-3795 Intakes: (530)891-2771 (530)891-2999 Hotlines: (800)334-6622 (800)371-4373,www.butte-dbh.org,,MH-SA/TX/OP/CO/WN/SF/MD/SI/PI/MI/SS/PA/AH/SP/F36/,3416CA95926,-121.84837966312094,39.75446838874125,100.0
Butte County Dept of Behavioral Health,Youth Services/Chico,,500 Cohasset Road,Suite 27,,Chico,CA,95926,(530)891-2915 Intakes: (530)891-2771 (530)891-2999 Hotlines: (800)334-6622 (800)371-4373,www.butte-dbh.org,,MH-SA/TX/OP/SF/MD/SI/PI/MI/SS/PA/AH/SP/,3899CA95926,-121.85070195321488,39.751446461189396,100.0
Chico Recovery Center,,,2057 Forest Avenue,Suite 5,,Chico,CA,95928,(510)620-1034 Intakes: (530)343-6566 (530)365-1160,,,SA/TX/OP/PH/SF/PI/MI/,5456CA95928,-121.80149942720371,39.72283026656268,100.0
Employee Assistance Program,,,1068 East Avenue,Suite A-1,,Chico,CA,95926,(530)891-1513 Intake: (530)891-5571,,,MH-SA/TX/OP/CO/CJ/SF/SI/PI/MI/,2288CA95926,-121.83612238701252,39.76097379334322,100.0
Skyway House,,,564 Rio Lindo Avenue,Suite 103,,Chico,CA,95926,(530)898-8326,www.skywayhouse.org,,SA/TX/OP/AD/SF/,0436CA95926,-121.84898098085492,39.75518722075752,100.0
Skyway House,Mens Residential,,4133 Highway 32,,,Chico,CA,95973,(530)893-3698 Intake: (530)898-8326,www.skywayhouse.org,,SA/TX/RS/RL/MN/CJ/SF/,2094CA95973,-121.93278802648784,39.74753999139534,100.0
Solutions for Positive Choices,,,645 Normal Avenue,,,Chico,CA,95928,(530)898-8333 Intake: (530)532-6969,www.duisolution.com,DWI/DUI Clients Only,SA/TX/OP/CO/DU/SF/SP/,0606CA95928,-121.83931723322685,39.72510913839805,100.0
Touchstone Models for Change,,,566 Cohasset Ave,,,Chico,CA,95926,(530)332-5290 Intake: (800)822-8102x26228,www.Enloe.org,,SA/TX/OP/PW/WN/MD/PI/SS/PA/,9605CA95926,-121.84827351712481,39.75179815438232,98.04
Effort,Detoxification Program,,7586 Stockton Boulevard,,,Chino,CA,95823,(916)405-4600 Intake: (916)691-3417,www.theeffort.org,,SA/DT/RS/SF/SP/,3008CA95823,-121.42342538639132,38.48202742565519,98.48
Jericho Outreach Inc,Mens Home,,5151 F Street,,,Chino,CA,91710,(909)591-1465,,,SA/TX/DT/RS/RL/CO/MN/SF/SI/PI/MI/SS/SP/,5543CA91710,-117.69230869491228,34.01089756470679,100.0
