address,city,state,zip,Longitude,Latitude,Match Score
975 9TH AVE SW SUITE 500 BESSEMER AL 35022,BESSEMER,AL,35022,-86.99006171988401,33.37497393160017,96.94
6601 WALL STREET SUITE A MOBILE AL 36695,MOBILE,AL,36695,-88.19503087000693,30.670574242561294,97.17
3861 SALEM ROAD NA ENTERPRISE AL 36330,ENTERPRISE,AL,36330,-85.86933274002975,31.360627121041286,96.12
409 SOUTH FIRST STREET NA GADSDEN AL 35901,GADSDEN,AL,35901,-86.00307585019766,34.00637724623383,96.73
216 GRACELAND DR. NA DOTHAN AL 36305,DOTHAN,AL,36305,-85.45237902805785,31.232274030908975,96.43
120 CAHABA VALLEY PARKWAY SUITE 150 PELHAM AL 35124,PELHAM,AL,35124,-86.78465219530477,33.33710687856066,99.54
522 EAST 11TH STREET 1ST FLOOR ANNISTON AL 36207,ANNISTON,AL,36207,-85.82240577548866,33.65838727326635,97.27
20998 JOHN T. REID HWY NA SCOTTSBORO AL 35768,SCOTTSBORO,AL,35768,-86.03330499999998,34.66737000000006,85
2325 PANSY STREET SUITE C HUNTSVILLE AL 35801,HUNTSVILLE,AL,35801,-86.57751919076652,34.71460146117704,87.24
4391 RIVERCHASE DRIVE NA PHENIX CITY AL 36867,PHENIX CITY,AL,36867,-85.00565548070607,32.50893765274432,96.55
30230 HWY 43 NA THOMASVILLE AL 36784,THOMASVILLE,AL,36784,-87.74502794618935,31.88123634638322,95.83
901 WESTLAKE MALL STE 101 BESSEMER AL 35020,BESSEMER,AL,35020,-86.97440301613628,33.39823229644018,97.06
2202 JORDAN ROAD SW SUITE 100 FORT PAYNE AL 35968,FORT PAYNE,AL,35968,-85.7545896685776,34.434607749726716,97.14
1311 N MEMORIAL PKWY STE 100 NA HUNTSVILLE AL 35801,HUNTSVILLE,AL,35801,-86.60083659915348,34.74604060757862,96.78
4016 HWY 45 NA WHISTLER AL 36613,WHISTLER,AL,36613,-88.12178034633504,30.758571675142505,94.8
1208 WEST BYPASS NA ANDALUSIA AL 36420,ANDALUSIA,AL,36420,-86.50299996440454,31.291259998125646,96.25
2800 RAINBOW DRIVE NA RAINBOW CITY AL 35906,RAINBOW CITY,AL,35906,-86.02776072268722,33.9652976225899,96.3
1010 FIRST STREET NORTH SUITE 100 ALABASTER AL 35007,ALABASTER,AL,35007,-86.8141605177957,33.25401594082541,97.33
728 RICHARD ARRINGTON BLVD S NA BIRMINGHAM AL 35233,BIRMINGHAM,AL,35233,-86.7979605620718,33.50572956423539,95.51
1311 N MEMORIAL PKWY #200 NA HUNTSVILLE AL 35801,HUNTSVILLE,AL,35801,-86.60083659915348,34.74604060757862,96.61
2609 VILLAGE PROFESSIONAL DR STE 2 OPELIKA AL 36801,OPELIKA,AL,36801,-85.41278383946641,32.64736727469025,89.77
310 SOUTH BRINDLEE MOUNTAIN PARKWAY NA ARAB AL 35016,ARAB,AL,35016,-86.50275415448046,34.311437520912925,97.64
62 COGSWELL DRIVE NA PELL CITY AL 35125,PELL CITY,AL,35125,-86.28314499999999,33.591450000000066,85
2131 MAGNOLIA AVE SOUTH #100 NA BIRMINGHAM AL 35205,BIRMINGHAM,AL,35205,-86.79450931343922,33.503120822600586,99.36
575 STANTON ROAD UNIT B MOBILE AL 36617,MOBILE,AL,36617,-88.09637565761902,30.707475763921668,97.11
2104 LORNA RIDGE LANE NA HOOVER AL 35216,HOOVER,AL,35216,-86.79584253895837,33.39155597304542,96.74
3883 HIGHWAY 25 NA MONTEVALLO AL 35115,MONTEVALLO,AL,35115,-86.86652796662726,33.0919009647761,96.12
289 WILLIAM E HILL DRIVE SUITE A CARROLLTON AL 35447,CARROLLTON,AL,35447,-88.08980636177877,33.27436046689327,97.17
2505 HAND AVENUE NA BAY MINETTE AL 36507,BAY MINETTE,AL,36507,-87.78757247505139,30.911474749870305,96.2
1611 21ST COURT NA PHENIX CITY AL 36867,PHENIX CITY,AL,36867,-85.02324268455774,32.47631019096645,96.12
"201 ST. JOSEPH STREET, SUITE B NA MOBILE AL 36602",MOBILE,AL,36602,-88.04348756933756,30.695427884671528,96.08
14897 HWY 43 NA RUSSELLVILLE AL 35653,RUSSELLVILLE,AL,35653,-87.71706965429429,34.50512800297795,95.8
195 BUNTING DRIVE NA OZARK AL 36360,OZARK,AL,36360,-85.64584469999994,31.45883930000008,85
544 HIGHWAY 43 NA EUTAW AL 35462,EUTAW,AL,35462,-87.88163133529402,32.84041868990807,96.32
1120 S JACKSON HWY STE 107 NA SHEFFIELD AL 35660,SHEFFIELD,AL,35660,-87.70146448920626,34.747246433063395,96.73
7067 VETERANS PKWY SUITE 120 NA PELL CITY AL 35125,PELL CITY,AL,35125,-86.30065615681438,33.604942331686104,96.96
726 E BATTLE STREET SUITE A TALLADEGA AL 35160,TALLADEGA,AL,35160,-86.0896292505464,33.43688251560971,97.04
"27880 N. MAIN ST, SUITE A NA DAPHNE AL 36526",DAPHNE,AL,36526,-87.91054061820344,30.631300183696407,96.74
1450 ROSS CLARK CIRCLE SUITE 200 DOTHAN AL 36301,DOTHAN,AL,36301,-85.37020595063012,31.19895294830166,99.51
712 STATE STREET NA MUSCLE SHOALS AL 35661,MUSCLE SHOALS,AL,35661,-87.66483432898369,34.74375949895174,96.11
300 MEDICAL CENTER DRIVE SUITE 100 GADSDEN AL 35903,GADSDEN,AL,35903,-85.9672797710246,34.007959171549054,97.54
12401 SKOPELOS RD NA GRAND BAY AL 36541,GRAND BAY,AL,36541,-88.33620801956216,30.498290006303364,94.86
4748 BELL HILL ROAD NA BESSEMER AL 35022,BESSEMER,AL,35022,-86.99501010479916,33.32971654959733,96.46
"505 HIGHWAY 80 W, SUITE F NA DEMOPOLIS AL 36732",DEMOPOLIS,AL,36732,-87.84340020906224,32.5002186336582,96.6
11839 HIGHWAY 231-431 NORTH NA MERIDIANVILLE AL 35759,MERIDIANVILLE,AL,35759,-86.57147741457484,34.856025899691815,96.62
"2017 QUINTARD AVE, SUITE B NA ANNISTON AL 36201",ANNISTON,AL,36201,-85.8267469265622,33.67097027770756,99.36
"2017 QUINTARD AVENUE, SUITE A NA ANNISTON AL 36201",ANNISTON,AL,36201,-85.8267469265622,33.67097027770756,99.39
"2024 4TH AVE SOUTH, SUITE 100 NA BIRMINGHAM AL 35233",BIRMINGHAM,AL,35233,-86.80162982400586,33.509322341303076,96.78
3671 ROOSEVELT BLVD NA BIRMINGHAM AL 35235,BIRMINGHAM,AL,35235,-86.63700346212669,33.60920713451196,96.42
1023 DOUGLAS AVENUE SUITE 300 BREWTON AL 36426,BREWTON,AL,36426,-87.06858877193073,31.121534342994725,97.36
29569 HUNTSVILLE BROWNS FERRY RD NA MADISON AL 35756,MADISON,AL,35756,-86.7955209253335,34.72908329438853,97.24
700 SARA G LOTT BLVD NA BRUNDIDGE AL 36010,BRUNDIDGE,AL,36010,-85.83176723419764,31.72042740521501,96.4
"5406 HIGHWAY 280, SUITE D107 NA BIRMINGHAM AL 35242",BIRMINGHAM,AL,35242,-86.67170814549173,33.41878906982857,99.36
4459 US HIGHWAY 431 NA ROANOKE AL 36274,ROANOKE,AL,36274,-85.36997858924882,33.166138299584716,96.52
"150 GILBREATH DRIVE, SUITE 1 NA ONEONTA AL 35121",ONEONTA,AL,35121,-86.49406200577228,33.92961401675345,96.98
200 SOUTH PARK PL NA SELMA AL 36701,SELMA,AL,36701,-87.05442819141516,32.42611067948185,96.5
592 FIELDSTOWN ROAD SUITE 102 GARDENDALE AL 35071,GARDENDALE,AL,35071,-86.82073897068423,33.65222121758974,99.42
201 LINCOLN LANE NA SELMA AL 36701,SELMA,AL,36701,-87.05741114311722,32.43323320170549,96.5
3368 HWY 280 BYPASS SUITE G-1 ALEXANDER CITY AL 35010,ALEXANDER CITY,AL,35010,-85.96909779401926,32.93158692444261,85.59
4400 WATERMELON ROAD SUITE A NORTHPORT AL 35473,NORTHPORT,AL,35473,-87.54833879300791,33.24796433246137,97.14
"1216 SOMERVILLE ROAD, SE NA DECATUR AL 35601",DECATUR,AL,35601,-86.97275123883625,34.588361617451696,96.8
1920 E CAMBRIDGE RD STE 102 NA PHOENIX AZ 85016,PHOENIX,AZ,85016,-112.03018999999995,33.48822500000006,85
PO BOX 245148 NA TUCSON AZ 85724,TUCSON,AZ,85724,-110.94409999999999,32.24147000000005,87.95
6420 E BROADWAY BLVD STE C300 NA TUCSON AZ 85710,TUCSON,AZ,85710,-110.8556989724076,32.22093254431155,99.42
500 EDGEWATER DRIVE PO BOX 2910 TUBA CITY AZ 86045,TUBA CITY,AZ,86045,-111.23222566637345,36.12944816802289,86.98
1021 S 7TH AVE STE 108 NA PHOENIX AZ 85007,PHOENIX,AZ,85007,-112.08248144702902,33.43727947200493,96.6
135 S POWER RD STE 103 NA MESA AZ 85206,MESA,AZ,85206,-111.68450080402371,33.41307772482422,99.37
HWY 86 - MP 113 NA SELLS AZ 85634,SELLS,AZ,85634,-111.86749999999995,31.914625000000058,85
912 W CHANDLER BLVD BLDG A-D NA CHANDLER AZ 85225,CHANDLER,AZ,85225,-111.857964793154,33.30725259301597,99.44
35 WEST LAKESHORE DRIVE SUITE 105 BIRMINGHAM AL 35209,BIRMINGHAM,AL,35209,-86.81314446349305,33.45078065686423,97.26
40 PURPLE HEART BLVD NA SPRINGVILLE AL 35146,SPRINGVILLE,AL,35146,-86.46704030428101,33.76954353021829,96.36
289 N FIREWOOD LANE STE A NA SOLDOTNA AK 99669,SOLDOTNA,AK,99669,-151.15215499999996,60.48325500000004,85
360 BONIFACE PKWY SUITE A11 NA ANCHORAGE AK 99504,ANCHORAGE,AK,99504,-149.7785470307705,61.22111803908885,99.37
40 WASDEN RD NA HOPE HULL AL 36043,HOPE HULL,AL,36043,-86.35719399263955,32.27008083940962,95.95
10050 W BELL RD STE 29-31 NA SUN CITY AZ 85351,SUN CITY,AZ,85351,-112.27645997529682,33.638217488135595,99.43
1957 W DUNLAP AVE STE 6C NA PHOENIX AZ 85021,PHOENIX,AZ,85021,-112.10342869142609,33.56752125830361,96.73
US HWY 163 N NA KAYENTA AZ 86033,KAYENTA,AZ,86033,-110.24898999999999,36.710510000000056,85
"1699 E COTTONWOOD ST, A-200 NA COTTONWOOD AZ 86326",COTTONWOOD,AZ,86326,-112.00748264719105,34.72854672961295,95.96
1495 N HAYDEN STE D1-D4 NA SCOTTSDALE AZ 85257,SCOTTSDALE,AZ,85257,-111.92309279999995,33.46141000000006,85
4502 W INDIAN SCHOOL RD STE A4-11 NA PHOENIX AZ 85031,PHOENIX,AZ,85031,-112.15602297105492,33.495028739316,97.14
13000 N 103RD AVE STE 66 NA SUN CITY AZ 85351,SUN CITY,AZ,85351,-112.28128300620315,33.601880345308174,99.35
7490 S CAMINO DE OESTE NA TUCSON AZ 85757,TUCSON,AZ,85757,-111.06321435936894,32.11502250382445,96.27
1500 S WHITE MOUNTAIN BLVD STE 204 NA SHOW LOW AZ 85901,SHOW LOW,AZ,85901,-110.02658323851742,34.23632097162134,87.24
901 EAST DIMOND BOULEVARD SUITE G NA ANCHORAGE AK 99515,ANCHORAGE,AK,99515,-149.86602300306131,61.144807474289706,99.42
1605 N. INDUSTRIAL PARK DR. STE H NA NOGALES AZ 85621,NOGALES,AZ,85621,-110.9480048487653,31.361287530214288,99.42
26 E BASELINE STE 142 NA PHOENIX AZ 85042,PHOENIX,AZ,85042,-112.07238494049403,33.37780865266756,85.38
12213 W BELL ROAD STE 110 NA SURPRISE AZ 85374,SURPRISE,AZ,85374,-112.32317005857973,33.63859249448328,99.15
218 MAIN STREET SUITE 114 & 118 TRUSSVILLE AL 35173,TRUSSVILLE,AL,35173,-86.60918736206797,33.61941977106947,99.31
1830 LEE AVE SW SUITE B-D CULLMAN AL 35055,CULLMAN,AL,35055,-86.8418853389293,34.154271778722574,97.02
"1218 S EULAULA AVE, SUITE 1234 NA EUFAULA AL 36027",EUFAULA,AL,36027,-85.15334398725692,31.877493994253456,94.13
2705 HIGHWAY 31 SOUTH NA DECATUR AL 35603,DECATUR,AL,35603,-86.97367106889094,34.55527967054177,96.67
6521 HWY 69 S STE O TUSCALOOSA AL 35404,TUSCALOOSA,AL,35404,-87.54486248248453,33.14803477988969,99.08
1815 GLYNWOOD DRIVE NA PRATTVILLE AL 36066,PRATTVILLE,AL,36066,-86.42166901678864,32.461720859846906,96.42
105 INVERNESS CORS NA BIRMINGHAM AL 35242,BIRMINGHAM,AL,35242,-86.69257715656065,33.418594022941974,96.35
2250 HIGHWAY 60 STE O-2 NA MIAMI AZ 85539,MIAMI,AZ,85539,-110.95797831927662,33.36238696162,96.82
1337 S GILBERT RD STE 106 NA MESA AZ 85204,MESA,AZ,85204,-111.78831251887028,33.391286997772426,99.41
1525 N GILBERT RD STE 121 NA GILBERT AZ 85234,GILBERT,AZ,85234,-111.78823259203347,33.37789733193518,96.8
10238 E HAMPTON AVE STE 108 NA MESA AZ 85209,MESA,AZ,85209,-111.6100239062728,33.389833533852595,99.43
14671 W. MOUNTAIN VIEW BLVD. SUITE 106 SURPRISE AZ 85374,SURPRISE,AZ,85374,-112.37692652197444,33.65469607026561,97.5
13907 W CAMINO DEL SOL SUITE 103 SUN CITY WEST AZ 85375,SUN CITY WEST,AZ,85375,-112.36182747984404,33.657730977822844,97.1
500 N BULLARD AVE STE C34 NA GOODYEAR AZ 85338,GOODYEAR,AZ,85338,-112.3755375074111,33.45246198282226,99.35
1134 E UNIVERSITY DR STE 101 NA MESA AZ 85203,MESA,AZ,85203,-111.80688497228869,33.42243750273372,99.45
3540 E BASELINE RD STE 110 NA PHOENIX AZ 85042,PHOENIX,AZ,85042,-112.00537992269048,33.37815750081953,99.37
11540 E UNIVERSITY DR STE 109 NA APACHE JUNCTION AZ 85220,APACHE JUNCTION,AZ,85220,-111.58227643319023,33.422411839768955,95.88
9666 E RIGGS RD STE 143 NA SUN LAKES AZ 85248,SUN LAKES,AZ,85248,-111.87462230478705,33.21818564693198,96.5
13657 W MCDOWELL RD STE 106 NA GOODYEAR AZ 85338,GOODYEAR,AZ,85338,-112.35316604019756,33.46424249627806,99.19
1337 S GILBERT RD STE 109 NA MESA AZ 85204,MESA,AZ,85204,-111.78831251887028,33.3910279969643,99.41
"5115 EAST THOMAS, SUITE #115 NA PHOENIX AZ 85018",PHOENIX,AZ,85018,-111.97051620554926,33.48000135057079,86.67
629 N HIGHWAY 90 STE 6 & 7 NA SIERRA VISTA AZ 85635,SIERRA VISTA,AZ,85635,-110.257237791203,31.560620000381306,97.21
5957 W NORTHERN AVE STE 108 NA GLENDALE AZ 85301,GLENDALE,AZ,85301,-112.18966268570612,33.55302365662195,99.37
AGENCY ROAD BLDG 173 RURAL RT 1/AGENCY ROAD PARKER AZ 85344,PARKER,AZ,85344,-114.29079089999999,34.14598200000006,85
980 WILLOW CREEK RD STE 101 NA PRESCOTT AZ 86301,PRESCOTT,AZ,86301,-112.48215590253585,34.55930558245597,99.37
"2201 N VICKEY STREET, STE 120 NA FLAGSTAFF AZ 86004",FLAGSTAFF,AZ,86004,-111.60605934989005,35.20737141147599,99.37
9220 E MOUNTAIN VIEW RD STE 105 NA SCOTTSDALE AZ 85258,SCOTTSDALE,AZ,85258,-111.88009150879456,33.575846656959584,99.38
5750 W THUNDERBIRD RD BLDG G #750 NA GLENDALE AZ 85306,GLENDALE,AZ,85306,-112.18306897775413,33.61265100706957,99.41
3815 E. BELL ROAD STE. 1100 NA PHOENIX AZ 85032,PHOENIX,AZ,85032,-111.99901202321007,33.6385489924059,99.36
10301 E OSBORN RD BLDG 14 NA SCOTTSDALE AZ 85256,SCOTTSDALE,AZ,85256,-111.85880093630433,33.48772164984251,96.61
US 70 & AZ ROUTE 170 NA PERIDOT AZ 85542,PERIDOT,AZ,85542,-110.45718993547241,33.29794004713089,95.91
14786 S HIGHWAY 77 - POB 729 NA MAMMOTH AZ 85618,MAMMOTH,AZ,85618,-110.64899704914973,32.73899497126185,94.44
15930 48TH STREET NA PHOENIX AZ 85048,PHOENIX,AZ,85048,-111.99482199999994,33.299706600000036,85
2149 E WARNER RD STE 109 & STE 110 NA TEMPE AZ 85284,TEMPE,AZ,85284,-111.90066363285327,33.334720131631265,99.45
8410 W THOMAS RD STE 100 BLDG 1 NA PHOENIX AZ 85037,PHOENIX,AZ,85037,-112.24128372605958,33.47993383811798,99.41
6261 N LA CHOLLA BLVD STE 181 NA TUCSON AZ 85741,TUCSON,AZ,85741,-111.01231751545008,32.321244018301954,99.41
1700 W COMMERCE POINTE PL NA SAHUARITA AZ 85629,SAHUARITA,AZ,85629,-111.00220718002052,31.89705626661756,96.24
2945 W INA RD STE 105 NA TUCSON AZ 85741,TUCSON,AZ,85741,-111.030293847914,32.3373012721245,99.32
6622 N 91ST AVE SUITE 120 GLENDALE AZ 85305,GLENDALE,AZ,85305,-112.25525753211949,33.532457986628856,99.4
3600 W TANGERINE RD SUITE 120 MARANA AZ 85658,MARANA,AZ,85658,-111.04221601553364,32.423947519820345,97.4
14620 WEST ENCANTO NA GOODYEAR AZ 85395,GOODYEAR,AZ,85395,-112.37675999999999,33.48533500000008,85
6970 EAST CHAUNCEY LANE SUITE 130 PHOENIX AZ 85054,PHOENIX,AZ,85054,-111.93032400306795,33.65160745272984,99.5
"9721 WEST PECOS RD- RR2, BOX 807 NA LAVEEN AZ 85339",LAVEEN,AZ,85339,-112.16403999999994,33.37445500000007,85
20325 N 51ST AVE STE 186 BLDG 11 NA GLENDALE AZ 85308,GLENDALE,AZ,85308,-112.16922224134603,33.66941736250626,99.4
5222 E BASELINE RD STE 104 NA GILBERT AZ 85234,GILBERT,AZ,85234,-111.7188200036617,33.37930745602576,95.88
10750 W MCDOWELL RD STE E500 NA AVONDALE AZ 85323,AVONDALE,AZ,85323,-112.29112403108326,33.46450749014726,99.2
13055 W MCDOWELL RD STE F101 NA AVONDALE AZ 85392,AVONDALE,AZ,85392,-112.33728870392652,33.46418826536451,99.38
8910 N 43RD AVE STE 107 NA GLENDALE AZ 85302,GLENDALE,AZ,85302,-112.15169299959776,33.56614083217743,99.32
975 W CHANDLER HEIGHTS STE 101 NA CHANDLER AZ 85248,CHANDLER,AZ,85248,-111.8571414203748,33.232711555275124,87.05
7355 S HOUGHTON RD STE 101 NA TUCSON AZ 85747,TUCSON,AZ,85747,-110.77258251177693,32.11830800032165,99.39
4845 W MCDOWELL RD STE 10A NA PHOENIX AZ 85035,PHOENIX,AZ,85035,-112.16344493076366,33.465947123926846,96.86
3511 MERCY RD STE 101 NA GILBERT AZ 85297,GILBERT,AZ,85297,-111.75039067596744,33.285552407650606,85.99
811 N TEGNER ST  #101 NA WICKENBURG AZ 85390,WICKENBURG,AZ,85390,-112.73583504033068,33.97588317001984,96.27
HIGHWAY 264 MP 388 NA POLACCA AZ 86042,POLACCA,AZ,86042,-110.42044949999996,35.805785600000036,85
3121 W SECOND CT NA RUSSELLVILLE AR 72801,RUSSELLVILLE,AR,72801,-93.16754639761886,35.285762406553,96.04
108 D ANNA PL NA HELENA AR 72342,HELENA,AR,72342,-90.63338140520891,34.51763742348078,96.05
312 PROFESSIONAL PARK DR STE H NA ARKADELPHIA AR 71923,ARKADELPHIA,AR,71923,-93.08923645554535,34.12119062809326,99.37
301 S POWER ROAD SUITE 104 NA MESA AZ 85206,MESA,AZ,85206,-111.68452268079102,33.41043771869058,99.42
9250 WEST THOMAS ROAD SUITE 120 PHOENIX AZ 85037,PHOENIX,AZ,85037,-112.25870098558195,33.47963778929786,99.48
7362 W THUNDERBIRD RD SUITE 104 NA PEORIA AZ 85381,PEORIA,AZ,85381,-112.21747527977625,33.61045152638598,97.22
"5705 N SCOTTSDALE RD, STE 120 NA SCOTTSDALE AZ 85250",SCOTTSDALE,AZ,85250,-111.92584035542097,33.51997662033884,99.36
5115 E THOMAS RD STE 100 NA PHOENIX AZ 85018,PHOENIX,AZ,85018,-111.97051620554926,33.48000135057079,96.73
5555 E 5TH ST #155 NA TUCSON AZ 85711,TUCSON,AZ,85711,-110.87419959291545,32.228947487766455,96.34
13430 N SAGUARO BLVD BLDG 3 FOUNTAIN HILLS AZ 85268,FOUNTAIN HILLS,AZ,85268,-111.7144196721327,33.608097915355145,97.87
16605 NORTH 28TH AVENUE SUITE 100 PHOENIX AZ 85053,PHOENIX,AZ,85053,-112.11882554558979,33.63615709060646,99.5
4141 N SCOTTSDALE RD STE 100 SCOTTSDALE AZ 85251,SCOTTSDALE,AZ,85251,-111.92605250139054,33.49565799510836,99.4
2545 EAST THOMAS ROAD SUITE 100 PHOENIX AZ 85016,PHOENIX,AZ,85016,-112.02649446242424,33.48028370366801,97.41
4901 W MCDOWELL ROAD SUITE 120 PHOENIX AZ 85035,PHOENIX,AZ,85035,-112.16577996135027,33.46594247197069,97.36
540 E WASHINGTON NA JONESBORO AR 72401,JONESBORO,AR,72401,-90.70193499999993,35.83414000000005,85
SPRINGHILL MEDICAL PLAZA 3401 SPRINGHILL DR STE 190 NORTH LITTLE ROCK AR 72117,NORTH LITTLE ROCK,AR,72117,-92.21958608935579,34.78517570290017,99
1411 N JACKSON NA MAGNOLIA AR 71754,MAGNOLIA,AR,71754,-93.23587516939081,33.28035242542645,95.66
201 SKYLINE DR  STE 32 NA CONWAY AR 72032,CONWAY,AR,72032,-92.42962175871581,35.112419909908645,96.67
10310 W MARKHAM STE 100 NA LITTLE ROCK AR 72205,LITTLE ROCK,AR,72205,-92.33069711578393,34.74730210595285,90.4
1114 WASHINGTON NW NA CAMDEN AR 71701,CAMDEN,AR,71701,-92.84902474488398,33.584931308267564,85.37
505 SAINT MARYS STREET NA LAKE VILLAGE AR 71653,LAKE VILLAGE,AR,71653,-91.28598765357543,33.32985570637208,97.42
310 S RHODES NA WEST MEMPHIS AR 72301,WEST MEMPHIS,AR,72301,-90.17113999999998,35.14264000000003,85
210 BARROW HILL RD NA FORREST CITY AR 72335,FORREST CITY,AR,72335,-90.78887861724425,35.04169949099493,96.23
805 WEST MADISON NA STUTTGART AR 72160,STUTTGART,AR,72160,-91.54959999999994,34.49482000000006,85
509 E MILLSAP STE 111 NA FAYETTEVILLE AR 72703,FAYETTEVILLE,AR,72703,-94.15016099999997,36.11366200000003,94.56
1900 MALVERN AVE STE 102 NA HOT SPRINGS AR 71901,HOT SPRINGS,AR,71901,-93.03452375020605,34.48762606107037,99.32
5320 WEST 12TH ST NA EAST LITTLE ROCK AR 72204,EAST LITTLE ROCK,AR,72204,-92.33295577221222,34.7411046199227,95.34
9421 WEST MARKHAM SUITE B LITTLE ROCK AR 72205,LITTLE ROCK,AR,72205,-92.37932999263487,34.75343314220813,86.62
500 S MT OLIVE STE 107 NA SILOAM SPRINGS AR 72761,SILOAM SPRINGS,AR,72761,-94.54237249999994,36.18400100000008,85
1001 E MOULTRIE NA BLYTHEVILLE AR 72315,BLYTHEVILLE,AR,72315,-89.92531999999994,35.92207500000006,85
PRATT SQUARE 1912 MCCLAIN NEWPORT AR 72112,NEWPORT,AR,72112,-91.28296999999998,35.60226000000006,85
GROUND LEVEL-1200 N MAIN STE 2 NA BENTON AR 72015,BENTON,AR,72015,-92.58175509999995,34.563643300000024,85
"1301 N HERVEY ST, SUITE B NA HOPE AR 71801",HOPE,AR,71801,-93.60340226143744,33.679296399317714,99.4
2800 W 28TH ST NA PINE BLUFF AR 71603,PINE BLUFF,AR,71603,-92.03173213267314,34.201796708722426,88.49
200 EAST 8TH ST #101 NA MOUNTAIN HOME AR 72653,MOUNTAIN HOME,AR,72653,-92.38320016878806,36.333972162722546,99.24
2070 MCKENZIE ROAD STE B SPRINGDALE AR 72762,SPRINGDALE,AR,72762,-94.18552392822959,36.16753241800124,99.37
1590 TANNER RD NA MALVERN AR 72104,MALVERN,AR,72104,-92.81203499999998,34.35935500000005,85
225 N DUDNEY NA MAGNOLIA AR 71753,MAGNOLIA,AR,71753,-93.23297372421463,33.26824553026325,95.95
#2 LILE CT STE 102 NA LITTLE ROCK AR 72205,LITTLE ROCK,AR,72205,-92.37788478488945,34.74567326006758,99.22
1521 E TANGERINE ROAD SUITE 101 ORO VALLEY AZ 85755,ORO VALLEY,AZ,85755,-110.94867132374219,32.427345678817325,97.24
6622 N 91ST AVENUE STE 210 GLENDALE AZ 85305,GLENDALE,AZ,85305,-112.25525753211949,33.53240899440479,99.41
5555 MESA VERDE DR SUITE 120 SIERRA VISTA AZ 85635,SIERRA VISTA,AZ,85635,-110.23332446385045,31.55138685011304,97.81
926 E MC DOWELL RD SUITE 100 PHOENIX AZ 85006,PHOENIX,AZ,85006,-112.06140713221507,33.46581870559644,97.2
2125 E MAIN STE 12 NA SILOAM SPRINGS AR 72761,SILOAM SPRINGS,AR,72761,-94.54237249999994,36.18400100000008,85
139 W HWY 64 STE 100 NA MCCRORY AR 72101,MCCRORY,AR,72101,-91.20142075607971,35.26906814504625,96.44
1501 N WASHINGTON ST NA FORREST CITY AR 72335,FORREST CITY,AR,72335,-90.78814696091614,35.024371498741324,96.36
"2628 INTERNATIONAL BLVD, STE 100 NA OAKLAND CA 94601",OAKLAND,CA,94601,-122.23186891629909,37.78102078371735,97.19
125 E. ARBOR VITAE NA INGLEWOOD CA 90301,INGLEWOOD,CA,90301,-118.35494499999999,33.95853500000004,85
2521 STOCKTON BLVD DEPARTMENT OF PEDIATRICS SACRAMENTO CA 95817,SACRAMENTO,CA,95817,-121.45538558319927,38.55204267825562,96.25
"CHILDRENS HOSPITAL 11234 ANDERSON ST., RM. 4219 NA LOMA LINDA CA 92354",LOMA LINDA,CA,92354,-117.26117458996792,34.04920047871882,95.14
3600 E. MARTIN LUTHER KING JR. BLVD. NA LYNWOOD CA 90262,LYNWOOD,CA,90262,-118.20400100117735,33.932167982650995,87.77
9022 LANDERS RD SUITE E NA NORTH LITTLE ROCK AR 72117,NORTH LITTLE ROCK,AR,72117,-92.16838649109393,34.83518087995939,99.26
310 S FALLS BLVD PO BOX 590 WYNNE AR 72396,WYNNE,AR,72396,-90.78740038480008,35.21985634007484,95.28
1120 STATE HWY 77  STE 2 NA MARION AR 72364,MARION,AR,72364,-90.18441632864258,35.18395945671199,99.35
"PERITONEAL DIALYSIS UNIT, 3460 E. LA PALMA AVENUE NA ANAHEIM CA 92806",ANAHEIM,CA,92806,-117.84308841227322,33.85464697084054,94.57
"3020 CHILDRENS WAY, MC 5115 NA SAN DIEGO CA 92123",SAN DIEGO,CA,92123,-117.15082752385709,32.79832199811857,95.74
27303 SLEEPY HOLLOW NA HAYWARD CA 94545,HAYWARD,CA,94545,-122.11773879999998,37.645260000000064,85
PERITONEAL DIALYSIS UNIT 1813 N HACIENDA BLVD. NA LA PUENTE CA 91744,LA PUENTE,CA,91744,-117.94375581571096,34.05069442188886,94.51
"200 MUIR ROAD, HACIENDA BUILDING, SECOND FLOOR NA MARTINEZ CA 94553",MARTINEZ,CA,94553,-122.1106632436209,37.994323665273335,94.71
"1759 W. AVENUE J, SUITE 102 NA LANCASTER CA 93534",LANCASTER,CA,93534,-118.16317099061011,34.68944749547641,96.67
1020 SECOND STREET NA SANTA ROSA CA 95404,SANTA ROSA,CA,95404,-122.7053596091947,38.44243688901996,96.4
"227 W. JANSS ROAD, SUITE 115 NA THOUSAND OAKS CA 91360",THOUSAND OAKS,CA,91360,-118.88397283800138,34.20607558647471,99.31
"1045 W. REDONDO BEACH BLVD., SUITE 105 NA GARDENA CA 90247",GARDENA,CA,90247,-118.29297708267951,33.892479000563135,99.46
2765 TIMBER RIDGE LANE NA EUREKA CA 95503,EUREKA,CA,95503,-124.1367500387769,40.780067458180774,96.81
9432 VENICE BLVD. NA CULVER CITY CA 90230,CULVER CITY,CA,90230,-118.39550703689247,34.02486600634869,95.73
"18546 ROSCOE BLVD., SUITE 108 NA NORTHRIDGE CA 91324",NORTHRIDGE,CA,91324,-118.53761830088958,34.2206544067958,96.78
"2031 ALAMEDA AVENUE, SUITE 202 NA BURBANK CA 91506",BURBANK,CA,91506,-118.3237141083571,34.15972626030438,87.96
"6840 SEPULVEDA BLVD, SUITE 101 NA VAN NUYS CA 91405",VAN NUYS,CA,91405,-118.46617251563168,34.195225003266344,97.09
"3393 G STREET, SUITE A NA MERCED CA 95340",MERCED,CA,95340,-120.46926297269279,37.326144537574685,96.67
"14624 SHERMAN WAY, SUITE 106 NA VAN NUYS CA 91405",VAN NUYS,CA,91405,-118.45149395915283,34.20115251755385,99.4
"7230 MEDICAL CENTER DRIVE, SUITE 101 NA WEST HILLS CA 91307",WEST HILLS,CA,91307,-118.62943380075934,34.20174532765603,98.72
SR. ELIZABETH BLDG. 1100 W. STEWART DRIVE NA ORANGE CA 92868,ORANGE,CA,92868,-117.86493700829564,33.78236250196687,95
"DIVISION OF NEPHROLOGY (DIALYSIS) 4650 SUNSET BLVD., BOX 40 NA LOS ANGELES CA 90027",LOS ANGELES,CA,90027,-118.28742499999998,34.104820000000075,85
"DIALYSIS UNIT 4700 SUNSET BLVD., 2ND FLOOR NA LOS ANGELES CA 90027",LOS ANGELES,CA,90027,-118.28742499999998,34.104820000000075,85
"PERITONEAL DIALYSIS UNIT, 9985 SIERRA AVENUE MOB-3 NA FONTANA CA 92335",FONTANA,CA,92335,-117.43561814263961,34.072890722882676,94.17
"5601 DE SOTO AVENUE, AREA 247 PERITONEAL DIALYSIS NA WOODLAND HILLS CA 91365",WOODLAND HILLS,CA,91365,-118.58815200561116,34.1712554423936,95.14
"PERITONEAL DIALYSIS UNIT, 10800 MAGNOLIA AVENUE, MODULE 1X NA RIVERSIDE CA 92505",RIVERSIDE,CA,92505,-117.46918201328683,33.9049449860607,94.22
"DIALYSIS UNIT 6041 CADILLAC AVENUE, SUITE 442 NA LOS ANGELES CA 90034",LOS ANGELES,CA,90034,-118.37526599800921,34.03775339202867,95.81
"CAPD DEPARTMENT-BASEMENT, 9333 E. IMPERIAL HWY NA DOWNEY CA 90242",DOWNEY,CA,90242,-118.14984499999997,33.921475000000044,85
725 WELCH ROAD PEDIATRIC DIALYSIS  RM 1229 NA PALO ALTO CA 94304,PALO ALTO,CA,94304,-122.17301915500924,37.43688406303367,94.93
710 LAWRENCE EXPRESSWAY #460 NA SANTA CLARA CA 95051,SANTA CLARA,CA,95051,-121.99582009988426,37.33543747879059,96.83
9041 IMPERIAL HWY. NA DOWNEY CA 90242,DOWNEY,CA,90242,-118.13617950218551,33.917113875000425,96.51
"7927 OSTROW STREET, SUITE A NA SAN DIEGO CA 92111",SAN DIEGO,CA,92111,-117.15481093952195,32.81329475939883,99.37
1729 NORTH OLIVE #9 NA TURLOCK CA 95382,TURLOCK,CA,95382,-120.83513499999998,37.52849500000008,85
"31736 RANCHO VIEJO ROAD, SUITE B NA SAN JUAN CAPISTRANO CA 92675",SAN JUAN CAPISTRANO,CA,92675,-117.65345983097934,33.50162817328334,99.32
15625 LAKEWOOD BLVD. NA PARAMOUNT CA 90723,PARAMOUNT,CA,90723,-118.14283455030196,33.89182709736766,96.47
"4567 TELEPHONE ROAD, SUITE 101 NA VENTURA CA 93003",VENTURA,CA,93003,-119.23500702680802,34.255960525132686,99.42
"81715 DOCTOR CARREON BLVD., SUITE B-2 NA INDIO CA 92201",INDIO,CA,92201,-116.23861200932349,33.70738252238707,97.45
40 PENNY LANE SUITE 1 NA WATSONVILLE CA 95076,WATSONVILLE,CA,95076,-121.7782352034831,36.929944463507304,99.27
"14901 RINALDI STREET, SUITE 100 NA MISSION HILLS CA 91345",MISSION HILLS,CA,91345,-118.4578590087862,34.27903749713634,98.73
1525 PLUMAS COURT SUITE A NA YUBA CITY CA 95991,YUBA CITY,CA,95991,-121.61835802794343,39.152613458760456,99.36
"1100 TRANCAS, SUITE 267 NA NAPA CA 94558",NAPA,CA,94558,-122.29826146843764,38.323152474278324,86.87
5720 STONERIDGE MALL ROAD #160 NA PLEASANTON CA 94588,PLEASANTON,CA,94588,-121.93031570032734,37.69254744876739,99.38
7000 FRANKLIN BLVD. #880 NA SACRAMENTO CA 95823,SACRAMENTO,CA,95823,-121.46408532814313,38.499228809261325,99.31
32930 ALVARADO-NILES ROAD #300 NA UNION CITY CA 94587,UNION CITY,CA,94587,-122.04603288635097,37.59413978005571,96.95
"595 TAMARACK AVENUE, SUITES A & B NA BREA CA 92821",BREA,CA,92821,-117.90014980263093,33.92798092864825,95.71
"1700 CESAR E. CHAVEZ AVE., SUITE L-100 NA LOS ANGELES CA 90033",LOS ANGELES,CA,90033,-118.21745445868815,34.051098639169254,87.73
"715 SOUTH POINT BLVD., SUITE A NA PETALUMA CA 94954",PETALUMA,CA,94954,-122.64625855844744,38.257672669485856,99.38
402 W. EIGHTH STREET NA HANFORD CA 93230,HANFORD,CA,93230,-119.65096442012629,36.32693727329703,96.52
"8501 BRIMHALL ROAD, BLDG. 500 NA BAKERSFIELD CA 93312",BAKERSFIELD,CA,93312,-119.09623146015045,35.36876621440441,99.34
"16892 BOLSA CHICA AVENUE, SUITE 100 NA HUNTINGTON BEACH CA 92649",HUNTINGTON BEACH,CA,92649,-118.04131873792078,33.716572860123854,85.49
"8635 W. THIRD STREET, SUITE 560 NA LOS ANGELES CA 90048",LOS ANGELES,CA,90048,-118.38115411735194,34.073632673394826,99.37
"12555 GARDEN GROVE BLVD., SUITE 100 NA GARDEN GROVE CA 92843",GARDEN GROVE,CA,92843,-117.91381004169295,33.77450752713472,98.73
3115 WEST MARCH LANE SUITE A NA STOCKTON CA 95219,STOCKTON,CA,95219,-121.35043837192956,37.98422485496133,99.38
1315 ALHAMBRA BLVD #100 NA SACRAMENTO CA 95816,SACRAMENTO,CA,95816,-121.4665590792273,38.56843068197762,96.55
"3300 VISTA WAY, SUITE A NA OCEANSIDE CA 92056",OCEANSIDE,CA,92056,-117.31559738391803,33.180810116781366,99.31
"1260 15TH STREET, SUITE 102 NA SANTA MONICA CA 90404",SANTA MONICA,CA,90404,-118.48679467965239,34.0265341308091,99.33
"5429 W. CYPRESS AVENUE, SUITE A NA VISALIA CA 93277",VISALIA,CA,93277,-119.35178630023813,36.32442559410093,97.04
"1007 W. AVENUE M-14, SUITE B NA PALMDALE CA 93551",PALMDALE,CA,93551,-118.14814047801687,34.63304830930813,98.35
"20911 EARL STREET, SUITE 160 NA TORRANCE CA 90503",TORRANCE,CA,90503,-118.35809742955415,33.840444019921335,99.38
"11550 INDIAN HILLS ROAD, SUITE 100 NA MISSION HILLS CA 91345",MISSION HILLS,CA,91345,-118.45887388962255,34.28029407015084,98.74
"50 N. LA CIENEGA BLVD., SUITE 300 NA BEVERLY HILLS CA 90211",BEVERLY HILLS,CA,90211,-118.37625036871809,34.06689454525099,98.72
393 BLOSSOM HILL ROAD SUITE 110 NA SAN JOSE CA 95123,SAN JOSE,CA,95123,-121.82695853608985,37.25147607142652,99.43
"4753 WEST SHAW AVENUE, SUITE 101 NA FRESNO CA 93722",FRESNO,CA,93722,-119.8789060022118,36.80812255330753,97.22
18330 HWY 108 NA JAMESTOWN CA 95327,JAMESTOWN,CA,95327,-120.42363687998161,37.95537244642052,96
"17815 VENTURA BLVD., SUITE 100 NA ENCINO CA 91316",ENCINO,CA,91316,-118.52084113216064,34.16310127552747,97.12
"332 SANTA FE DRIVE, SUITE 100 NA ENCINITAS CA 92024",ENCINITAS,CA,92024,-117.28501601018246,33.03955698527375,99.37
365 LENNON LANE #160 NA WALNUT CREEK CA 94598,WALNUT CREEK,CA,94598,-122.03006152036953,37.927708126951785,97.33
"1801 W. VALLEY BLVD., SUITE 102 NA ALHAMBRA CA 91803",ALHAMBRA,CA,91803,-118.14329615707662,34.07741848569251,99.38
"1801 HOLSER WALK, SUITE 310 NA OXNARD CA 93030",OXNARD,CA,93030,-119.15640681942757,34.22021539612697,99.2
"3801 LAS POSAS ROAD, SUITE 103 NA CAMARILLO CA 93010",CAMARILLO,CA,93010,-119.01934551960761,34.24135304719287,99.38
405 DOVER PARKWAY NA DELANO CA 93215,DELANO,CA,93215,-119.24965356441673,35.75559615891222,96.51
13939 E 14TH STREET STE 110 NA SAN LEANDRO CA 94578,SAN LEANDRO,CA,94578,-122.140789060919,37.713810074009814,99.34
3636 NORTH FIRST #144 NA FRESNO CA 93726,FRESNO,CA,93726,-119.7723907044957,36.78374768550682,85.66
"720 GATEWAY CENTER DRIVE, SUITE B NA SAN DIEGO CA 92102",SAN DIEGO,CA,92102,-117.11421662807207,32.71366930227431,99.42
"809 S. ATLANTIC BLVD., SUITE 103 NA MONTEREY PARK CA 91754",MONTEREY PARK,CA,91754,-118.13718977297532,34.052431864688415,98.72
21615 HESPERIAN BOULEVARD SUITE F NA HAYWARD CA 94541,HAYWARD,CA,94541,-122.11546674469288,37.661122394567805,99.46
"20710 S. LEAPWOOD AVENUE, SUITE F NA CARSON CA 90746",CARSON,CA,90746,-118.25837314979091,33.8426167768625,87.88
110 S. FIFTH STREET NA EL CENTRO CA 92243,EL CENTRO,CA,92243,-115.55477725208294,32.79267730377032,96.38
14651 SOUTH BASCOM SUITE 100 NA LOS GATOS CA 95032,LOS GATOS,CA,95032,-121.95048222409136,37.25553626532471,86.84
"1938 TYLER AVENUE, SUITE J-168 NA SOUTH EL MONTE CA 91733",SOUTH EL MONTE,CA,91733,-118.03745454092608,34.05108740146976,96.25
"315 N. THIRD AVENUE, SUITE 104 NA COVINA CA 91723",COVINA,CA,91723,-117.89238640009077,34.08874252070149,99.41
"630 BAY BLVD., SUITE 101 NA CHULA VISTA CA 91910",CHULA VISTA,CA,91910,-117.09476868486733,32.62448970816303,98.67
21602 S. VERMONT AVENUE NA TORRANCE CA 90502,TORRANCE,CA,90502,-118.29022265817714,33.83276822263787,96.67
"36O CROWN POINT CIRCLE, SUITE 210 NA GRASS VALLEY CA 95945",GRASS VALLEY,CA,95945,-121.06169499999999,39.21548000000007,85
1620 WEST YOSEMITE AVE NA MANTECA CA 95337,MANTECA,CA,95337,-121.24272102547937,37.79731256319056,96.73
"10012 NORWALK BLVD., SUITE 190 NA SANTA FE SPRINGS CA 90670",SANTA FE SPRINGS,CA,90670,-118.07266264990761,33.94709733106328,96.62
950 S. EASTERN AVENUE NA EAST LOS ANGELES CA 90022,EAST LOS ANGELES,CA,90022,-118.17390250888364,34.02258998436042,96.23
"1801 W. VALLEY BLVD., SUITE 204 NA ALHAMBRA CA 91803",ALHAMBRA,CA,91803,-118.14329816873338,34.07741823423542,96.91
"56845 TWENTY-NINE PALMS HIGHWAY, NA YUCCA VALLEY CA 92284",YUCCA VALLEY,CA,92284,-116.42420530811287,34.120550820504725,96.92
"23861 W. MCBEAN PARKWAY, SUITE E-11 NA VALENCIA CA 91355",VALENCIA,CA,91355,-118.55436924777672,34.395622519960625,87.47
"3780 KILROY AIRPORT WAY, SUITE 110 NA LONG BEACH CA 90806",LONG BEACH,CA,90806,-118.14501863817935,33.80729141356767,99.42
8095 CAMINO ARROYO #100 NA GILROY CA 95020,GILROY,CA,95020,-121.56064761875236,37.01955283387537,96.81
3011 CERES AVENUE #125 NA CHICO CA 95973,CHICO,CA,95973,-121.83846823025432,39.775915164396174,99.36
"1610 WEST KETTLEMAN LANE, SUITE D NA LODI CA 95242",LODI,CA,95242,-121.29285595439973,38.11535763466507,97.45
1715 IRON HORSE DR STE 170 NA LONGMONT CO 80501,LONGMONT,CO,80501,-105.06080961090551,40.159182506687436,99.36
1057 S WADSWORTH BLVD STE 100 NA LAKEWOOD CO 80226,LAKEWOOD,CO,80226,-105.08164744129492,39.69794800025315,99.39
108 WEST LEE AVE NA LAMAR CO 81052,LAMAR,CO,81052,-102.62166499999995,38.08546000000007,85
3426 LAKE AVENUE STE 110 NA PUEBLO CO 81004,PUEBLO,CO,81004,-104.6257429032705,38.21515265769093,99.38
"301 N. PRAIRIE AVENUE, SUITE 100 NA INGLEWOOD CA 90301",INGLEWOOD,CA,90301,-118.34399755967044,33.965714999458626,99.39
"292 EUCLID AVENUE, SUITE 100 NA SAN DIEGO CA 92114",SAN DIEGO,CA,92114,-117.0850865808714,32.707198514932394,99.38
5961 UNIVERSITY AVENUE SUITE 317 SAN DIEGO CA 92115,SAN DIEGO,CA,92115,-117.06828742776797,32.75135308656207,97.41
322 EAST MAIN STREET SUITE 1A BRANFORD CT 06405,BRANFORD,CT,6405,-72.78747642515742,41.292556126097075,97.17
720 N MAIN STREET EXT SUITE 3 WALLINGFORD CT 06492,WALLINGFORD,CT,6492,-72.80945792459406,41.472863481134645,96.9
ONE HERALD SQUARE SUITE 100 NEW BRITAIN CT 06051,NEW BRITAIN,CT,6051,-72.77977944946838,41.66702938809377,96.96
821 STATE ROAD 44 NA NEW SMYRNA BEACH FL 32168,NEW SMYRNA BEACH,FL,32168,-80.93003397850794,29.01918291068615,97.24
14522 LANDSTAR BLVD SUITE 108 ORLANDO FL 32824,ORLANDO,FL,32824,-81.36131583776398,28.352880826384247,99.74
925 MAR WALT DR STE 2 NA FORT WALTON BEACH FL 32547,FORT WALTON BEACH,FL,32547,-86.63208378787704,30.452312710905588,99.45
5285 MCWHINNEY BLVD #190 NA LOVELAND CO 80538,LOVELAND,CO,80538,-104.9993747913686,40.41090867933172,96.73
"1865 W 121ST AVE, STE 300C NA WESTMINSTER CO 80234",WESTMINSTER,CO,80234,-105.00980114367347,39.91617472485821,96.55
"11700 W 2ND PL, STE 325 NA LAKEWOOD CO 80228",LAKEWOOD,CO,80228,-105.13008604065054,39.71552099553659,99.31
3410 S GALENA ST SUITE 100 NA DENVER CO 80231,DENVER,CO,80231,-104.86930474865683,39.65436847398738,99.39
9143 PHILIPS HWY SUITE 110 NA JACKSONVILLE FL 32256,JACKSONVILLE,FL,32256,-81.57282964399673,30.200595106091686,99.55
219 NW 12TH AVE #C4 NA MIAMI FL 33128,MIAMI,FL,33128,-80.21469168374993,25.775890301808673,96.5
26338 US HWY 19 N NA CLEARWATER FL 33761,CLEARWATER,FL,33761,-82.73581091441962,28.013221215462746,97.55
2514 N STATE ROAD 7 NA MARGATE FL 33063,MARGATE,FL,33063,-80.20147308716598,26.259409229391917,98
1625 UNITY WAY NW NA WINTER HAVEN FL 33881,WINTER HAVEN,FL,33881,-81.7309860986338,28.03813533300448,97.5
5135 ADANSON ST STE 700 NA ORLANDO FL 32804,ORLANDO,FL,32804,-81.39347418276276,28.60542044444261,99.63
6071 E WOODMEN RD STE 100/120 NA COLORADO SPRINGS CO 80923,COLORADO SPRINGS,CO,80923,-104.71678436953424,38.940221312893485,99.22
10371 S PARK GLENN WAY STE 180 NA PARKER CO 80138,PARKER,CO,80138,-104.76511853345872,39.530565404482985,97.12
2180 HOLLOWBROOK DR NA COLORADO SPRINGS CO 80918,COLORADO SPRINGS,CO,80918,-104.78557054176254,38.920658956710675,96.19
CHILDRENS HOSP DIALYSIS UNIT RM 3130 111 MICHIGAN AVE NW WASHINGTON DC 20010,WASHINGTON,DC,20010,-77.01375383744657,38.92768705679461,94.81
11 DUPONT CIR NW STE LL100 WASHINGTON DC 20036,WASHINGTON,DC,20036,-77.04258305814237,38.91010764935524,96.91
106 IRVING ST NW STE 1400 WASHINGTON DC 20010,WASHINGTON,DC,20010,-77.01439597504884,38.9293745015419,96.85
4601 MARTI LUTHER KING JR. AVENUE SOUTHWEST SUITE A WASHINGTON DC 20032,WASHINGTON,DC,20032,-77.01322778920327,38.82485870682859,97.5
14965 OLD ST AUGUSTINE RD UNIT 114 NA JACKSONVILLE FL 32258,JACKSONVILLE,FL,32258,-81.52032070864026,30.141887334241712,99.59
2424 B WARM SPRINGS ROAD NA COLUMBUS GA 31904,COLUMBUS,GA,31904,-84.95493537045775,32.50139886164163,95.57
165 EMERY HIGHWAY SUITE 101 NA MACON GA 31217,MACON,GA,31217,-83.62398402934149,32.84818250352897,97.14
419 E FIRST ST NA SANFORD FL 32771,SANFORD,FL,32771,-81.26417502819754,28.811732525383793,97.8
6541 ST JOHN AVE NA PALATKA FL 32177,PALATKA,FL,32177,-81.69279412445279,29.648142736241223,96.08
4515 GEORGE RD SUITE 300 NA TAMPA FL 33634,TAMPA,FL,33634,-82.55047253451787,27.984635991968517,99.7
561 25 ROAD STE D NA GRAND JUNCTION CO 81505,GRAND JUNCTION,CO,81505,-108.58947928463576,39.08590138847282,99.2
605 W. NEWPORT PIKE NA WILMINGTON DE 19804,WILMINGTON,DE,19804,-75.61556571890392,39.71378313364188,96.27
"97 COMMERCE WAY, SUITE 104 NA DOVER DE 19904",DOVER,DE,19904,-75.54676387251672,39.15348123719635,99.4
635 4TH ST NO NA SAINT PETERSBURG FL 33701,SAINT PETERSBURG,FL,33701,-82.63850255060864,27.779086999492293,96.96
4204 N MACDILL AVE SOUTH BLDG NA TAMPA FL 33607,TAMPA,FL,33607,-82.49375867087919,27.903913829013533,95.32
"2200 PLAZA PARKWAY,  SUITE B1-B4 NA MODESTO CA 95350",MODESTO,CA,95350,-121.03390451568828,37.67159248128124,97.09
145 W. VICTORIA STREET NA LONG BEACH CA 90805,LONG BEACH,CA,90805,-118.20275511508936,33.864893444751004,96.54
2525 SECOND STREET NA MACON GA 31206,MACON,GA,31206,-83.64626160554555,32.81429460104032,96.67
2700 HIGHLANDS PARKWAY STE A NA SMYRNA GA 30082,SMYRNA,GA,30082,-84.4933173919531,33.82837910849054,88.06
4553 GUNN HWY WESTWOOD PLAZA TAMPA FL 33624,TAMPA,FL,33624,-82.51972142724293,28.049340344988593,96.25
8585 SW HIGHWAY 200 SUITE 19 OCALA FL 34481,OCALA,FL,34481,-82.26231033087838,29.074398488306823,99.79
4700 E BROMLEY LN STE 103 NA BRIGHTON CO 80601,BRIGHTON,CO,80601,-104.75887099502556,39.97231254352807,99.35
1510 HIGHWAY 41 NORTH NA INVERNESS FL 34450,INVERNESS,FL,34450,-82.34279596355874,28.843487994206825,97.77
"44950 VALLEY CENTRAL WAY, SUITE 108 NA LANCASTER CA 93536",LANCASTER,CA,93536,-118.17408303575748,34.6987736476176,97.14
1525 MERIDIAN AVENUE SUITE 101 NA SAN JOSE CA 95125,SAN JOSE,CA,95125,-121.91362045794439,37.29735534046654,99.43
901 LOS COCHES DRIVE NA SOLEDAD CA 93960,SOLEDAD,CA,93960,-121.31734041558457,36.41515508592843,96.6
794 MCDONOUGH ROAD SUITE 103 JACKSON GA 30233,JACKSON,GA,30233,-83.97540982066428,33.30104172849154,99.46
100 NW 170TH ST STE 106 NA NORTH MIAMI BEACH FL 33169,NORTH MIAMI BEACH,FL,33169,-80.20307797016724,25.930803672378158,99.47
19801 HAMPTON DR NA BOCA RATON FL 33434,BOCA RATON,FL,33434,-80.1947775390908,26.382225987679433,97.71
1190 NW 95TH ST STE 208 NA MIAMI FL 33150,MIAMI,FL,33150,-80.21481439481246,25.861634111898454,99.68
8661 S US HWY 1 NA PORT SAINT LUCIE FL 34952,PORT SAINT LUCIE,FL,34952,-80.31165974229206,27.310801678016105,97.09
745 W SR 434 STE A NA LONGWOOD FL 32750,LONGWOOD,FL,32750,-81.35717065136747,28.69794500465436,99.56
12674 TELECOM DRIVE NA TAMPA FL 33637,TAMPA,FL,33637,-82.37892716302524,28.061834284133255,98.37
100 GRAND STREET NA NEW BRITAIN CT 06050,NEW BRITAIN,CT,6050,-72.78661857954533,41.66205498001619,95.65
"HEMODIALYSIS UNIT, CHRISTIANA HOSPITAL 4755 OGLETOWN-STANTON ROAD, P.O. BOX 6001 NEWARK DE 19718",NEWARK,DE,19718,-75.66978999999998,39.68813000000006,94.54
4300 KINGS HWY #406-D17 NA PORT CHARLOTTE FL 33980,PORT CHARLOTTE,FL,33980,-82.07030062660085,26.96321995321811,95.83
"375 ROLLING OAKS DRIVE, SUITE 100 NA THOUSAND OAKS CA 91361",THOUSAND OAKS,CA,91361,-118.87059749982811,34.17433277432553,99.37
73 N ASPEN SKI WAY NA PUEBLO WEST CO 81007,PUEBLO WEST,CO,81007,-104.73782671836099,38.338429205277194,96.2
1725 OAKHURST AVENUE SUITE 100 NA JACKSONVILLE FL 32208,JACKSONVILLE,FL,32208,-81.68504539024322,30.38599492534347,99.58
12961 NORTH MAIN ST SUITE 305 NA JACKSONVILLE FL 32218,JACKSONVILLE,FL,32218,-81.63030494080373,30.474188765731597,99.56
444 PARK 20 WEST DRIVE NA GROVETOWN GA 30813,GROVETOWN,GA,30813,-82.13473885419535,33.48008429327998,95.58
8425 US HIGHWAY 441 SUITE 104 LEESBURG FL 34788,LEESBURG,FL,34788,-81.81700579906673,28.832470569216067,99.7
245 S COURTENAY PKWY BLDG A NA MERRITT ISLAND FL 32952,MERRITT ISLAND,FL,32952,-80.70018090340338,28.352837156668688,99.53
1500 N FEDERAL HWY #100 NA FORT LAUDERDALE FL 33304,FORT LAUDERDALE,FL,33304,-80.12002252979185,26.146744003587756,96.29
3421 S RIO GRANDE STE D NA MONTROSE CO 81401,MONTROSE,CO,81401,-107.86944826905778,38.44613342359162,85.4
8601 W CROSS DR SUITE C2 NA DENVER CO 80123,DENVER,CO,80123,-105.09359576045237,39.61451487132099,96.81
2000 CONTINENTAL DR STE A NA WEST PALM BEACH FL 33407,WEST PALM BEACH,FL,33407,-80.0850735139498,26.756606710495667,99.52
3801 WOODLAKE DRIVE NA HEPHZIBAH GA 30815,HEPHZIBAH,GA,30815,-82.08584930844886,33.37895474553993,96.47
1250 NORTH MEADOW PKWY SUITE 120 ROSWELL GA 30076,ROSWELL,GA,30076,-84.3150875364969,34.06146701148779,99.49
12505 STARKEY RD SUITE B NA LARGO FL 33773,LARGO,FL,33773,-82.76229010092187,27.88603254029809,99.7
264 SOUTHPARK CIR E NA SAINT AUGUSTINE FL 32086,SAINT AUGUSTINE,FL,32086,-81.32541799048218,29.86262101207986,97.33
"4923 OGLETOWN-STANTON ROAD, SUITE 210 NA NEWARK DE 19713",NEWARK,DE,19713,-75.66310519150593,39.697111570135164,97.46
"2520 WRANGLE HILL ROAD, SUITE 100 NA BEAR DE 19701",BEAR,DE,19701,-75.71528949575257,39.604884609396045,97.45
"1415 PULASKI HIGHWAY, SUITE B NA NEWARK DE 19702",NEWARK,DE,19702,-75.67975651271635,39.62443091423467,97.12
"5936 LIMESTONE ROAD, SUITE 101 NA HOCKESSIN DE 19707",HOCKESSIN,DE,19707,-75.70369321652869,39.75806208781806,99.39
850 RIVERSIDE DRIVE NA POMPANO BEACH FL 33071,POMPANO BEACH,FL,33071,-80.24306445592278,26.242847354812323,97.44
4970 SOUTH US HWY 17-92 NA CASSELBERRY FL 32707,CASSELBERRY,FL,32707,-81.3397620252053,28.667712988642847,97.68
3727 N GOLDENROD RD NA WINTER PARK FL 32792,WINTER PARK,FL,32792,-81.28642252706274,28.594350003914144,97.69
1150 LAKE HEARN DRIVE SUITE 100 ATLANTA GA 30342,ATLANTA,GA,30342,-84.34930296817296,33.91252750713058,99.48
2485 PARK CENTRAL BLVD NA DECATUR GA 30035,DECATUR,GA,30035,-84.1731375754687,33.715008377896126,96.73
2545 SULLIVAN ROAD NA COLLEGE PARK GA 30337,COLLEGE PARK,GA,30337,-84.47282699145043,33.624727485526776,97.23
612 DEL SOL DR NA ALAMOSA CO 81101,ALAMOSA,CO,81101,-105.90272941009273,37.47952836455636,96.1
710 WELLINGTON AVE STE 20 NA GRAND JUNCTION CO 81501,GRAND JUNCTION,CO,81501,-108.5609470347692,39.0900275479492,99.3
4407 VINELAND RD SUITE D2 ORLANDO FL 32811,ORLANDO,FL,32811,-81.43041297859997,28.49822700885042,99.71
160 NW 176TH ST #100 NA MIAMI FL 33169,MIAMI,FL,33169,-80.20331635149348,25.936085863940285,99.66
2800 N STATE ROAD 7 NA MARGATE FL 33063,MARGATE,FL,33063,-80.20150141799878,26.261202579485822,98
1575 NORTHSIDE DRIVE NE SUITE 365 ATLANTA GA 30318,ATLANTA,GA,30318,-84.41046999999998,33.77307500000006,85
747 SECOND STREET NA MACON GA 31201,MACON,GA,31201,-83.63290650356869,32.832061709921184,96.59
1040 EAST NINE MILE RD NA PENSACOLA FL 32514,PENSACOLA,FL,32514,-87.2429753891594,30.532769935929224,97.88
1905 CLINT MOORE RD STE 211 NA BOCA RATON FL 33496,BOCA RATON,FL,33496,-80.12529566889891,26.407709781270583,99.61
"BLUE HEN CORPORATE CENTER 655 SOUTH BAY ROAD, SUITE 4M DOVER DE 19901",DOVER,DE,19901,-75.5026260276803,39.15233098862336,99
2141 LOCH RAND BLVD #113 NA ORANGE PARK FL 32073,ORANGE PARK,FL,32073,-81.74974102608383,30.164400204161026,96.92
"9808 VENICE BLVD., SUITE 200 NA CULVER CITY CA 90232",CULVER CITY,CA,90232,-118.39809863753526,34.02363415994848,99.34
"636 E. BRIER DRIVE, SUITE 150 NA SAN BERNARDINO CA 92408",SAN BERNARDINO,CA,92408,-117.27163731924813,34.07021369508944,99.31
110 LONDONDERRY COURT SUITE 100 WOODSTOCK GA 30188,WOODSTOCK,GA,30188,-84.5054325948029,34.085723987820316,99.46
906 E FIRST STREET NA VIDALIA GA 30474,VIDALIA,GA,30474,-82.40126920975796,32.21247595837929,96.44
2575 S VOLUSIA AVE #400 NA ORANGE CITY FL 32763,ORANGE CITY,FL,32763,-81.30205209427618,28.91454440491023,96.48
1222 WINTER GARDEN VINELAND ROAD BLDG 3 SUITE 100 WINTER GARDEN FL 34787,WINTER GARDEN,FL,34787,-81.58770375027716,28.548093884507246,99.52
3227 LEE BOULEVARD UNIT A LEHIGH ACRES FL 33971,LEHIGH ACRES,FL,33971,-81.68298402879526,26.61707253969128,99.61
601 N FLAMINGO ROAD STE 109 NA HOLLYWOOD FL 33028,HOLLYWOOD,FL,33028,-80.31189386515857,26.012285036710956,96.69
"5397 WEST COLONIAL DRIVE, SUITE #120 NA ORLANDO FL 32808",ORLANDO,FL,32808,-81.45356765084601,28.55256504311835,97.29
"RIVERSIDE MEDICAL ARTS COMPLEX, SUITE G2 700 W. LEA BOULEVARD WILMINGTON DE 19802",WILMINGTON,DE,19802,-75.52989571147138,39.76836742822455,98.95
1680 OSCEOLA ELEMENTARY ROAD SUITE B NA SAINT AUGUSTINE FL 32084,SAINT AUGUSTINE,FL,32084,-81.33711451726829,29.870646935827487,99.57
17801 NW 2ND AVE SUITE 229 MIAMI FL 33169,MIAMI,FL,33169,-80.20469039688088,25.93887913317369,97.33
"2020 S. HACIENDA BLVD., SUITE G NA HACIENDA HEIGHTS CA 91745",HACIENDA HEIGHTS,CA,91745,-117.96782378012676,33.99666920024745,96.52
4348 WOODLAND BLVD STE 131 NA CASTLE ROCK CO 80104,CASTLE ROCK,CO,80104,-104.85273246879345,39.4063207178406,97.23
723 DELAWARE ST #M105 NA DENVER CO 80204,DENVER,CO,80204,-104.99291451880384,39.72780496800681,96.67
11306 53RD ST NA TEMPLE TERRACE FL 33617,TEMPLE TERRACE,FL,33617,-82.39554939903124,28.05137521962233,87.26
6925 LAKE ELLENOR DR STE 650 NA ORLANDO FL 32809,ORLANDO,FL,32809,-81.40067088482894,28.46623089558735,99.66
4204 N. MAC DILL AVE NORTH BLDG. SUITE 1 TAMPA FL 33607,TAMPA,FL,33607,-82.49306747805946,27.97752998209444,93.12
1260 UPPER HEMBREE ROAD SUITE A ROSWELL GA 30076,ROSWELL,GA,30076,-84.32299200646715,34.067346329832276,99.48
14153 YOSEMITE DR STE 102 NA HUDSON FL 34667,HUDSON,FL,34667,-82.6869175129976,28.3634700199419,99.67
5600 W COLONIAL DR STE 101 NA ORLANDO FL 32808,ORLANDO,FL,32808,-81.45806822993701,28.552202567715078,99.65
750 WEST HAMPDEN AVE #110 NA ENGLEWOOD CO 80110,ENGLEWOOD,CO,80110,-104.99645101139157,39.65315251129341,99.33
LANTANA SQUARE SHOPPING CENTER 214 LANTANA DRIVE HOCKESSIN DE 19707,HOCKESSIN,DE,19707,-75.71099293218461,39.77426497720853,94.19
"1198 SOUTH GOVERNORS AVENUE BUILDING B, SUITE 201 DOVER DE 19904",DOVER,DE,19904,-75.52664904342062,39.13855498384626,98.15
1407 SOUTHEAST GOLDTREE DRIVE STE A NA PORT SAINT LUCIE FL 34952,PORT SAINT LUCIE,FL,34952,-80.29417316443019,27.28482268158576,99.57
16201 SUITE 102 PANAMA CITY BEACH PKWY NA PANAMA CITY FL 32413,PANAMA CITY,FL,32413,-85.87950941449013,30.227273739980046,99.55
5258-10 NORWOOD AVENUE NA JACKSONVILLE FL 32208,JACKSONVILLE,FL,32208,-81.66379707982988,30.371122876277465,96.81
325 CEDAR ROAD NA METTER GA 30439,METTER,GA,30439,-82.1074015134834,32.346214482759734,87.45
2096 MCGEE ROAD NA SNELLVILLE GA 30078,SNELLVILLE,GA,30078,-84.03552046377686,33.85647685244487,96.12
9332 STATE ROAD 54 SUITE 306 TRINITY FL 34655,TRINITY,FL,34655,-82.65953425441846,28.205991409814526,99.63
750 S NORTH LAKE BLVD STE 1024 NA ALTAMONTE SPRINGS FL 32701,ALTAMONTE SPRINGS,FL,32701,-81.38635744405308,28.6476014501637,88.98
1299 EAST COMMERCIAL BLVD #100 NA OAKLAND PARK FL 33334,OAKLAND PARK,FL,33334,-80.13054600922882,26.18906754357239,99.59
80 SALT CREEK DRIVE NA DOVER DE 19901,DOVER,DE,19901,-75.57063502984617,39.20915899295787,96.67
1417 FOULK ROAD NA WILMINGTON DE 19803,WILMINGTON,DE,19803,-75.52463103808678,39.80197198679764,96.12
"230 E. MAIN STREET, UNIT 325 NA NEWARK DE 19711",NEWARK,DE,19711,-75.74382635566585,39.68380571793951,96.94
36819 EILAND BLVD UNIT 2 ZEPHYRHILLS FL 33542,ZEPHYRHILLS,FL,33542,-82.20736309988767,28.244681227135022,96.79
2501 DYKES RD SUITE 200 NA MIRAMAR FL 33027,MIRAMAR,FL,33027,-80.35977692101851,25.985712832087444,96.73
515 PALM COAST PARKWAY SW ROMA COURT #2 #3 #4 PALM COAST FL 32137,PALM COAST,FL,32137,-81.24185410386033,29.551177108451462,96.77
5825 GLENRIDGE DRIVE BLDG 3 SUITE 150 ATLANTA GA 30328,ATLANTA,GA,30328,-84.36230254562629,33.914811994840775,97.63
7815 CORAL WAY STE 115 NA MIAMI FL 33155,MIAMI,FL,33155,-80.32255654342768,25.74816863304691,96.82
1750 SW HEALTH PARKWAY NA NAPLES FL 34109,NAPLES,FL,34109,-81.78584238597455,26.27032209014068,98.3
7061 CYPRESS RD STE 103 NA PLANTATION FL 33317,PLANTATION,FL,33317,-80.2429676988362,26.12405968183855,99.56
8410 DECATUR ST STE 200 NA WESTMINSTER CO 80031,WESTMINSTER,CO,80031,-105.02245544689814,39.849580861558024,96.49
12365 HURON ST STE 500 NA WESTMINSTER CO 80234,WESTMINSTER,CO,80234,-104.99678754480423,39.92139801379358,99.29
UNIVERSITY PLAZA SHOPPING CENTER 63 UNIVERSITY PLAZA NEWARK DE 19702,NEWARK,DE,19702,-75.66894695892417,39.66626000575074,94.17
656D NORTH DUPONT HIGHWAY NA MILFORD DE 19963,MILFORD,DE,19963,-75.44083966661262,38.917722273113824,85.99
1921 WALDEMERE ST STE 107 NA SARASOTA FL 34239,SARASOTA,FL,34239,-82.53142868286531,27.319203027207205,99.62
1515 INDIAN RIVER BLVD STE A-101 NA VERO BEACH FL 32960,VERO BEACH,FL,32960,-80.37881102430596,27.629688963121584,97
"3333 W. COAST HIGHWAY, SUITE 101 NA NEWPORT BEACH CA 92663",NEWPORT BEACH,CA,92663,-117.92677299022989,33.621202518055746,96.77
595 HURRICANE SHOALS RD NW SUITE 202 LAWRENCEVILLE GA 30046,LAWRENCEVILLE,GA,30046,-84.01027719676954,33.963124572282126,99.43
6320 HOLLY ST NA COMMERCE CITY CO 80022,COMMERCE CITY,CO,80022,-104.92219254603695,39.81128499368731,95.88
"19339 COASTAL HIGHWAY, SUITE 100 NA REHOBOTH BEACH DE 19971",REHOBOTH BEACH,DE,19971,-75.12258198816433,38.723090877162065,96.81
"ST. FRANCIS MEDICAL OFFICE BUILDING, SUITE 404 7TH AND CLAYTON STREET WILMINGTON DE 19805",WILMINGTON,DE,19805,-75.5665899233737,39.749520048382465,92.93
"GATEWAY NORTH SHOPPING CENTER 210 STADIUM STREET, RT. 13 SMYRNA DE 19977",SMYRNA,DE,19977,-75.58976574846689,39.280671400638596,94.03
401 E NORTH AVE NA LEESBURG FL 34748,LEESBURG,FL,34748,-81.87185999093198,28.814350990026426,95.83
731 WEST LUMSDEN NA BRANDON FL 33511,BRANDON,FL,33511,-82.2964024647588,27.923128371090918,96.82
720 CLYDE MORRIS BLVD NA DAYTONA BEACH FL 32114,DAYTONA BEACH,FL,32114,-81.0612254315342,29.211918487777844,89.94
292 INDUSTRIAL BLVD SUITE 100 HAWKINSVILLE GA 31036,HAWKINSVILLE,GA,31036,-83.48375001153151,32.30541751827384,99.4
449 INDUSTRIAL BLVD #240 NA ELLIJAY GA 30540,ELLIJAY,GA,30540,-84.48532600164658,34.686267233773435,96.8
1989 STAMBUK LANE SUITE A STATESBORO GA 30458,STATESBORO,GA,30458,-81.76366569247723,32.40531758259126,96.91
521 NORTH EXPRESSWAY SUITE 1509 GRIFFIN GA 30223,GRIFFIN,GA,30223,-84.28832583500633,33.25702270386178,97.45
"3470 LA SIERRA AVENUE, SUITE E NA RIVERSIDE CA 92503",RIVERSIDE,CA,92503,-117.47248389640492,33.89883629693584,99.38
9267 GREENBACK LANE #A2 NA ORANGEVALE CA 95662,ORANGEVALE,CA,95662,-121.20859880056634,38.67873057661518,99.31
"1149 W. 190TH STREET, SUITE 1004 NA GARDENA CA 90248",GARDENA,CA,90248,-118.29651952641854,33.85834374179066,99.42
8470 COOPER CREEK BLVD NA UNIVERSITY PARK FL 34201,UNIVERSITY PARK,FL,34201,-82.45383623170387,27.392187569007458,97.47
12703 TAMIAMI TRAIL EAST # 121 NA NAPLES FL 34113,NAPLES,FL,34113,-81.70032702465556,26.067584010803884,97.12
4612 ROSEVILLE ROAD SUITE 100 NA NORTH HIGHLANDS CA 95660,NORTH HIGHLANDS,CA,95660,-121.38717164350076,38.652740264615375,96.67
105 MELVIN PAGE DR NA VIDALIA GA 30474,VIDALIA,GA,30474,-82.3903794411525,32.20050253542149,96.44
105 PROFESSIONAL PLACE NA CALHOUN GA 30701,CALHOUN,GA,30701,-84.92712270697925,34.49681535106935,86.81
911 MARKET PLACE BLVD SUITE 3 CUMMING GA 30041,CUMMING,GA,30041,-84.13381144596907,34.181783741424695,99.46
D/B/A PERRY DIALYSIS CENTER 1027 KEITH DR PERRY GA 31069,PERRY,GA,31069,-83.70745236226715,32.459722656039396,94.04
3850 NW 83RD STREET STE 101 NA GAINESVILLE FL 32606,GAINESVILLE,FL,32606,-82.43028191031468,29.68842737827843,96.67
5837 WEST 21ST AVENUE NA BRADENTON FL 34209,BRADENTON,FL,34209,-82.61854616115734,27.48122630523562,96.77
2150 45TH STREET SUITE 102 VERO BEACH FL 32967,VERO BEACH,FL,32967,-80.40624766477615,27.675021239356205,97.04
"PROBST BUILDING 39000 BOB HOPE DRIVE, SUITE 103 NA RANCHO MIRAGE CA 92270",RANCHO MIRAGE,CA,92270,-116.40806693416405,33.76462048560597,95.57
2227 EL CAMINO REAL SUITE B OCEANSIDE CA 92054,OCEANSIDE,CA,92054,-117.32841976793924,33.18658759500201,87.74
7720 US HWY 98 W SUITE 150 MIRAMAR BEACH FL 32550,MIRAMAR BEACH,FL,32550,-86.30541486646824,30.376618704764002,96.72
1301 S ANDREWS AVE SUITE 101 FORT LAUDERDALE FL 33315,FORT LAUDERDALE,FL,33315,-80.14305331750921,26.1056112386778,99.42
1355 PALM BAY RD NA PALM BAY FL 32905,PALM BAY,FL,32905,-80.63324981398566,28.03529508320407,97.44
4700 CONGRESS AVE STE 106 NA WEST PALM BEACH FL 33407,WEST PALM BEACH,FL,33407,-80.08634471338506,26.76244076656305,90.07
15300 JOG ROAD SUITE 104 DELRAY BEACH FL 33446,DELRAY BEACH,FL,33446,-80.1467926048539,26.449638489166226,96.79
4880 LOWER ROSWELL RD SUITE 770 MARIETTA GA 30068,MARIETTA,GA,30068,-84.40809296649326,33.963776013797045,99.46
"1181 BROADWAY, SUITE 5 NA CHULA VISTA CA 91911",CHULA VISTA,CA,91911,-117.08011602846899,32.60735043445949,98.67
44 TU SU LANE NA BISHOP CA 93514,BISHOP,CA,93514,-118.39531429999994,37.364460000000065,85
"2685 EXECUTIVE PARK DRIVE, SUITE #1 NA WESTON FL 33331",WESTON,FL,33331,-80.37322549166772,26.085527150931654,99.71
1905 CLINT MOORE RD STE 306 NA BOCA RATON FL 33496,BOCA RATON,FL,33496,-80.12529566889891,26.407709781270583,99.61
6228 BRADLEY PARK DRIVE SUITE B COLUMBUS GA 31904,COLUMBUS,GA,31904,-84.96321836717567,32.53523258144737,99.46
806 FORREST DRIVE NA DAWSON GA 39842,DAWSON,GA,39842,-84.44423499999994,31.774090000000058,85
1522 N DIXIE HWY NA WEST PALM BEACH FL 33401,WEST PALM BEACH,FL,33401,-80.05308247173808,26.727078983898778,97.27
4895 WINDWARD PASSAGE DR STE 5 NA BOYNTON BEACH FL 33436,BOYNTON BEACH,FL,33436,-80.1215219684511,26.54943498156473,96.77
890 SECOND STREET 1ST FLOOR MACON GA 31201,MACON,GA,31201,-83.63433660177246,32.830200806646666,97.45
"3268 GREENBRIAR PKWY, SW NA ATLANTA GA 30331",ATLANTA,GA,30331,-84.49678071052612,33.686063570755444,96.8
1279 HWY 54 WEST #110 NA FAYETTEVILLE GA 30214,FAYETTEVILLE,GA,30214,-84.50941332825903,33.45076737154805,99.25
2070 PALMETTO ST SUITE 9 MIDDLEBURG FL 32068,MIDDLEBURG,FL,32068,-81.86293770645894,30.072492845390144,99.63
551858 US HWY 1 #118 NA HILLIARD FL 32046,HILLIARD,FL,32046,-81.91892042857681,30.692747697333314,96.38
617 LAKEVIEW RD SUITE C NA CLEARWATER FL 33756,CLEARWATER,FL,33756,-82.79786298181762,27.9481324683632,99.56
560 FIRST STREET BLDG D103 NA BENICIA CA 94510,BENICIA,CA,94510,-122.15941725399314,38.04858353829409,99.38
737 W. HOBSON WAY NA BLYTHE CA 92225,BLYTHE,CA,92225,-114.60475989366171,33.610318849847886,96.34
"1001 POTRERO BLDG. 100, ROOM 342 NA SAN FRANCISCO CA 94110",SAN FRANCISCO,CA,94110,-122.40522991949913,37.7551800594377,89.81
"425 BEVERLY PLACE, SUITE A NA TRACY CA 95376",TRACY,CA,95376,-121.41833229056482,37.74526345904236,87.69
1250 NW 7TH ST STE 106 NA MIAMI FL 33125,MIAMI,FL,33125,-80.21597201946004,25.78018250678667,99.67
27401 CASHFORD CIRCLE #102 NA WESLEY CHAPEL FL 33544,WESLEY CHAPEL,FL,33544,-82.35943999251324,28.18999249403828,96.61
5340 USEPPA DRIVE SUITE 101 NA AVE MARIA FL 34142,AVE MARIA,FL,34142,-81.43875749848716,26.322553165407204,99.64
"1365 ROCK QUARRY ROAD, ST 100 NA STOCKBRIDGE GA 30281",STOCKBRIDGE,GA,30281,-84.22999755676385,33.51521398104505,95.9
2400 BELLEVUE ROAD ERIN OFFICE PARK #8 DUBLIN GA 31021,DUBLIN,GA,31021,-82.94259081950382,32.52895309056761,95.09
6955 FOOTHILL BLVD. STE 220 NA OAKLAND CA 94605,OAKLAND,CA,94605,-122.17329349470013,37.769242617194124,96.92
655 HELEN RUNYON DR NA BARSTOW CA 92311,BARSTOW,CA,92311,-117.01955866213096,34.89143691510138,96.52
"UCSD DIALYSIS CENTER - 200 W. ARBOR DRIVE DIALYSIS PROGRAM, MAIL CODE 8781 SAN DIEGO CA 92103",SAN DIEGO,CA,92103,-117.16612139584795,32.75373727211448,93.26
14942 TAMIAMI TRAIL SUITE G NA NORTH PORT FL 34287,NORTH PORT,FL,34287,-82.22234105794807,27.038904808945283,99.61
11706 MERCY BLVD BLDG 9 SAVANNAH GA 31419,SAVANNAH,GA,31419,-81.15287064628309,31.985416990698134,99.39
301 NORTH BROAD STREE NA WINDER GA 30680,WINDER,GA,30680,-83.72043529999996,33.99308460000003,85
7840 ROSWELL RD BLDG 200 STE 210 NA ATLANTA GA 30350,ATLANTA,GA,30350,-84.36036238649889,33.969660235554834,99.43
3546 HWY 138 SE NA STOCKBRIDGE GA 30281,STOCKBRIDGE,GA,30281,-84.2752179087379,33.549530032857476,96
380 FOREST PARKWAY NA FOREST PARK GA 30297,FOREST PARK,GA,30297,-84.37725334632083,33.62077428662262,97.27
4645 TIMBER RIDGE ROAD BLDG 200 SUITE 140 DOUGLASVILLE GA 30135,DOUGLASVILLE,GA,30135,-84.81531650496407,33.81639419229718,91.04
1350 MONTREAL ROAD SUITE 200 TUCKER GA 30084,TUCKER,GA,30084,-84.25088240962995,33.82328324663599,99.48
"7007 MISSION GORGE ROAD, 1ST FLOOR NA SAN DIEGO CA 92120",SAN DIEGO,CA,92120,-117.09129899604758,32.80032904483382,97.17
"305 E. GRANGER AVE.., STE. 102 NA MODESTO CA 95350",MODESTO,CA,95350,-120.98916200035679,37.66729751027534,99.36
1987 CANDLER RD NA DECATUR GA 30032,DECATUR,GA,30032,-84.28429879447654,33.73306668537338,96.28
1856 THOMPSON BRIDGE ROAD SUITE 101 GAINESVILLE GA 30501,GAINESVILLE,GA,30501,-83.8382681383928,34.32928889260147,99.45
5503 SOUTH CONGRESS AVE SUITE 101 ATLANTIS FL 33462,ATLANTIS,FL,33462,-80.09209034037423,26.595777392664914,99.72
2940 N. BLUE ANGEL PARKWAY NA PENSACOLA FL 32506,PENSACOLA,FL,32506,-87.32450057162161,30.4315338891146,98
510 N MCARTHUR AVE NA PANAMA CITY FL 32401,PANAMA CITY,FL,32401,-85.64922986815174,30.157657549789946,95.6
2525 E. HILLSBOROUGH AVE SUITE 209 TAMPA FL 33610,TAMPA,FL,33610,-82.43065599465308,27.99606245383409,99.81
9400 GLADIOLUS DR STE 200 NA FORT MYERS FL 33908,FORT MYERS,FL,33908,-81.90889681967086,26.520559033083646,96.73
5934 BERRY HILL ROAD #2 NA MILTON FL 32570,MILTON,FL,32570,-87.07062529816393,30.63388970236018,96.74
555 WEST BENJAMIN HOLT DRIVE  #200 NA STOCKTON CA 95207,STOCKTON,CA,95207,-121.31892560111314,38.011504471307646,99.42
1721 W. WHITTIER BLVD. NA MONTEBELLO CA 90640,MONTEBELLO,CA,90640,-118.12009203160186,34.01234801114181,96.42
657 HEMLOCK ST STE 100 NA MACON GA 31201,MACON,GA,31201,-83.63428051706222,32.83195684376686,96.82
3431 HWY 81 S NA LOGANVILLE GA 30052,LOGANVILLE,GA,30052,-83.89711519999997,33.838467800000046,85
1705 BELLE MEADE CT STE 110 NA LAWRENCEVILLE GA 30043,LAWRENCEVILLE,GA,30043,-84.0561292246244,33.96309259532155,99.31
312 MOWHAWK RD NA CLERMONT FL 34715,CLERMONT,FL,34715,-81.73163343301596,28.567099975686105,94.76
497 WINN WAY SUITE 160 NA DECATUR GA 30030,DECATUR,GA,30030,-84.28000902025012,33.790176656930875,99.33
1747 LANGFORD DRIVE BLDG 500 WATKINSVILLE GA 30677,WATKINSVILLE,GA,30677,-83.47036738110276,33.91593663669937,99.39
53 SCRANTON CONNECTOR NA BRUNSWICK GA 31525,BRUNSWICK,GA,31525,-81.48236552322398,31.21131290272393,96.6
617 LAKEVIEW ROAD SUITE B NA CLEARWATER FL 33756,CLEARWATER,FL,33756,-82.79786298181762,27.9481324683632,99.58
1711 5TH STREET SOUTH NA JACKSONVILLE BEACH FL 32250,JACKSONVILLE BEACH,FL,32250,-81.39079893072632,30.272056027442247,97.21
2548 N ORANGE BLOSSOM TRAIL #400 NA ORLANDO FL 32804,ORLANDO,FL,32804,-81.40685957921997,28.57451351758766,99.68
1125 INDUSTRIAL RD SUITE G NA SAN CARLOS CA 94070,SAN CARLOS,CA,94070,-122.24751254930933,37.50293066391056,96.79
13500 N KENDALL DR #131 NA MIAMI FL 33186,MIAMI,FL,33186,-80.41377770388098,25.685291501629724,96.82
118 WEST MAIN NA PERRY FL 32347,PERRY,FL,32347,-83.58263978901442,30.117957503589835,91.36
1120 INDIAN HILLS BLVD NA VENICE FL 34293,VENICE,FL,34293,-82.38751752413229,27.072260089717826,98.3
3925 W BOYNTON BEACH BLVD #110 NA BOYNTON BEACH FL 33436,BOYNTON BEACH,FL,33436,-80.10466084820436,26.52733676439501,99.56
2704 N OAK STREET BUILDING H NA VALDOSTA GA 31602,VALDOSTA,GA,31602,-83.29353939895218,30.86568743030814,99.38
1451 A GA HWY 21 SOUTH NA SPRINGFIELD GA 31329,SPRINGFIELD,GA,31329,-81.29112133822915,32.35094843966677,96.18
3 MEDICAL CENTER DRIVE NA SWAINSBORO GA 30401,SWAINSBORO,GA,30401,-82.34784746350095,32.59330520344368,96.55
1950 LAUREL MANOR DRIVE #190 NA THE VILLAGES FL 32162,THE VILLAGES,FL,32162,-82.00300224218651,28.92521343609553,99.57
3363 NW 167TH ST NA OPA LOCKA FL 33056,OPA LOCKA,FL,33056,-80.2564349026682,25.926233737893902,97.68
1757 CANDLER ROAD SE NA DECATUR GA 30032,DECATUR,GA,30032,-84.28852562060983,33.73960972472072,85.41
11135 COLUMBIA STREET NA BLAKELY GA 39823,BLAKELY,GA,39823,-84.95553336803943,31.370083582285215,96.73
"17197 NEWHOPE STREET, SUITE A, B, C & D NA FOUNTAIN VALLEY CA 92708",FOUNTAIN VALLEY,CA,92708,-117.92840452768328,33.71359326118304,99.27
"995 GATEWAY CENTER WAY, SUITE 101 NA SAN DIEGO CA 92102",SAN DIEGO,CA,92102,-117.11584682442066,32.71405398972053,99.42
1711 35TH STREET #109 NA ORLANDO FL 32839,ORLANDO,FL,32839,-81.40155903128979,28.507577440937858,99.62
4270 TAMIAMI TRAIL EAST SUITE 1 NA NAPLES FL 34112,NAPLES,FL,34112,-81.75650983199334,26.116399921530867,99.7
6085 HILLANDALE DRIVE NA LITHONIA GA 30058,LITHONIA,GA,30058,-84.14286457195078,33.7055170460163,96.67
6851 SHANNON PARKWAY SUITE 200 NA UNION CITY GA 30291,UNION CITY,GA,30291,-84.53987702007419,33.567194856501736,97
"2026 S MILLEDGE AVE, STREET A2 NA ATHENS GA 30605",ATHENS,GA,30605,-83.37854941532893,33.9241579007004,95.58
522 EG MILES PARKWAY NA HINESVILLE GA 31313,HINESVILLE,GA,31313,-81.6052639911677,31.837914422945396,96.42
1065 HWY 19 NORTH NA THOMASTON GA 30286,THOMASTON,GA,30286,-84.33357903361924,32.92356799609116,96.25
2714 OSBORNE RD NA SAINT MARYS GA 31558,SAINT MARYS,GA,31558,-81.57920885904645,30.753175719060728,96.12
2001 PROFESSIONAL PARKWAY SUITE 100 WOODSTOCK GA 30188,WOODSTOCK,GA,30188,-84.52232287217367,34.08308310780534,97.46
"1045 ATLANTIC AVENUE, SUITE 108 NA LONG BEACH CA 90813",LONG BEACH,CA,90813,-118.18507751365436,33.780259985374414,99.4
4358 KINGS WAY NA VALDOSTA GA 31602,VALDOSTA,GA,31602,-83.33066829635322,30.89930556756421,96.14
3614 W KENNEDY BLVD SUITE A NA TAMPA FL 33609,TAMPA,FL,33609,-82.50241397065223,27.944712526139153,99.71
11011 SHERIDAN ST SUITE 308 COOPER CITY FL 33026,COOPER CITY,FL,33026,-80.29369472539692,26.029737706310232,99.65
1354 CLEVELAND AVENUE NA EAST POINT GA 30344,EAST POINT,GA,30344,-84.43321000991072,33.679446183927034,97.2
5723 MEMORIAL DR NA STONE MOUNTAIN GA 30083,STONE MOUNTAIN,GA,30083,-84.20414097802909,33.800902182143496,96.07
5819 HIGHWAY 90 NA MILTON FL 32583,MILTON,FL,32583,-87.08082414561922,30.6024273999977,98.05
"433 N. 4TH. ST., SUITE 102 NA MONTEBELLO CA 90640",MONTEBELLO,CA,90640,-118.10199407772261,34.01559080184234,99.28
1405 WEST F STREET SUITE B NA OAKDALE CA 95361,OAKDALE,CA,95361,-120.86282878223004,37.75992772437619,96.86
15757 E. VALLEY BLVD. NA CITY OF INDUSTRY CA 91744,CITY OF INDUSTRY,CA,91744,-117.95564638355539,34.017741514378166,96.17
"10532 ACACIA STREET, SUITE B2-B3 NA RANCHO CUCAMONGA CA 91730",RANCHO CUCAMONGA,CA,91730,-117.57501007876127,34.09001946174098,99.39
5105 JEFFERSON RD SUITE B NA ATHENS GA 30607,ATHENS,GA,30607,-83.4356375520284,33.99292932077906,99.39
2701 EVANS MILL ROAD NA LITHONIA GA 30058,LITHONIA,GA,30058,-84.11440876504156,33.70575379287167,96.53
1550 BUFORD HWY STE 1E NA BUFORD GA 30518,BUFORD,GA,30518,-84.01182793267645,34.097498508215885,96.74
1115 HERRINGTON ROAD NA LAWRENCEVILLE GA 30044,LAWRENCEVILLE,GA,30044,-84.08251579109712,33.94750007612045,96.33
4245 SUN N LAKE BLVD NA SEBRING FL 33872,SEBRING,FL,33872,-81.5079412243831,27.53730840400662,98.04
45597 US HWY 27 NA DAVENPORT FL 33897,DAVENPORT,FL,33897,-81.65861244738906,28.255408251354165,97.61
5730 BOWDEN ROAD SUITE 110 NA JACKSONVILLE FL 32216,JACKSONVILLE,FL,32216,-81.60617612377098,30.26462802675758,99.55
1424 US HWY 1 SUITE C NA SEBASTIAN FL 32958,SEBASTIAN,FL,32958,-80.4705392198965,27.819404582408964,99.56
13940 US HWY 441 BLDG 400 NA LADY LAKE FL 32159,LADY LAKE,FL,32159,-81.96442897523028,28.95755400366967,97.27
14 SUNTREE PLACE SUITE 102 NA MELBOURNE FL 32940,MELBOURNE,FL,32940,-80.6798540338315,28.227603434691,99.61
5300 W FLAGLER STREET NA CORAL GABLES FL 33134,CORAL GABLES,FL,33134,-80.28203357541139,25.770986422277108,97.58
"2679 S. SAVIERS ROAD, SUITE B NA OXNARD CA 93033",OXNARD,CA,93033,-119.18002299926245,34.175468019291515,87
2620 WEST HWY 316 NA CITRA FL 32113,CITRA,FL,32113,-82.17164001528715,29.366932525004582,98.25
425 N LEE STREET SUITE 103 NA JACKSONVILLE FL 32204,JACKSONVILLE,FL,32204,-81.66903729628245,30.332124936549015,99.54
4965 LECHALET BLVD NA BOYNTON BEACH FL 33436,BOYNTON BEACH,FL,33436,-80.1217455138088,26.5548287362582,97.5
18004 NW 6TH STREET NA HOLLYWOOD FL 33029,HOLLYWOOD,FL,33029,-80.38596196118088,26.00944298133693,97.8
5130 LINTON BLVD SUITE G4 NA DELRAY BEACH FL 33484,DELRAY BEACH,FL,33484,-80.12412035843549,26.43922246826774,99.56
4529 EXECUTIVE DRIVE NA NAPLES FL 34119,NAPLES,FL,34119,-81.7310079754009,26.274017461703306,98.26
598 FAIRFIELD DRIVE NA PENSACOLA FL 32506,PENSACOLA,FL,32506,-87.31737352317064,30.417188513286963,97.4
3046 DEL PRADO BLVD SOUTH  SUITE 4A NA CAPE CORAL FL 33904,CAPE CORAL,FL,33904,-81.94181158664057,26.595533294826996,87.39
"2020 E. FIRST STREET, SUITE 100 NA SANTA ANA CA 92705",SANTA ANA,CA,92705,-117.83711755547547,33.74515498231405,99.39
"511 N. BROOKHURST STREET, SUITE 100 NA ANAHEIM CA 92801",ANAHEIM,CA,92801,-117.95906745733666,33.83922101642901,99.45
"1850 N. RIVERSIDE AVENUE, SUITE 150 NA RIALTO CA 92376",RIALTO,CA,92376,-117.37046750139947,34.132902996676464,99.46
9999 NE 2ND AVE SUITE 119 MIAMI SHORES FL 33138,MIAMI SHORES,FL,33138,-80.19353131772644,25.866601688725222,99.61
11570 W STATE ROAD 84 NA DAVIE FL 33325,DAVIE,FL,33325,-80.30303694321924,26.111413359693604,98.37
6901  OKEECHOBEE BLVD #D19 NA WEST PALM BEACH FL 33411,WEST PALM BEACH,FL,33411,-80.15007844201756,26.708137433374763,99.52
2409 SW ARCHER RD NA GAINESVILLE FL 32608,GAINESVILLE,FL,32608,-82.36053533962018,29.632398001678393,97.5
506 ROSWELL STREET SUITE 100 MARIETTA GA 30060,MARIETTA,GA,30060,-84.53766872386339,33.95044250132066,88.49
120 PIEDMONT AVENUE STE 300 NA ATLANTA GA 30303,ATLANTA,GA,30303,-84.38223839941547,33.757669960035784,87.53
7444 HANNOVER PARKWAY SUITE 150 STOCKBRIDGE GA 30281,STOCKBRIDGE,GA,30281,-84.27076101501964,33.55125993655596,88.17
557 BLUEBIRD BLVD NA FORT VALLEY GA 31030,FORT VALLEY,GA,31030,-83.87756987655422,32.56522767333284,96.27
567 NORTH AVE NE STE 200 NA ATLANTA GA 30308,ATLANTA,GA,30308,-84.36855695413824,33.77113737341526,99.35
567 NORTH AVE NE SUITE 100 NA ATLANTA GA 30308,ATLANTA,GA,30308,-84.36855695413824,33.77113737341526,99.37
2685 METROPOLITAN PARKWAY SW SUITE F ATLANTA GA 30315,ATLANTA,GA,30315,-84.41029899959001,33.682392003798114,99.53
"1445 30TH STREET, SUITE A AND B NA SAN DIEGO CA 92154",SAN DIEGO,CA,92154,-117.0671270122132,32.57106102657098,96.25
"1135 S. SUNSET AVENUE, SUITE 103 NA WEST COVINA CA 91790",WEST COVINA,CA,91790,-117.9455369701356,34.0620119609228,99.38
1540 W. COVINA PARKWAY NA WEST COVINA CA 91790,WEST COVINA,CA,91790,-117.94029853210803,34.07036653909376,91.85
1302 N 5TH STREET EXT NA CORDELE GA 31015,CORDELE,GA,31015,-83.7796523998397,31.972369384939018,96.6
5235 MEMORIAL DRIVE NA STONE MOUNTAIN GA 30083,STONE MOUNTAIN,GA,30083,-84.22173182676619,33.79826217600975,96.27
10680 MEDLOCK BRIDGE RD  STE 103 NA DULUTH GA 30097,DULUTH,GA,30097,-84.18393254474954,34.04108532426958,99.44
"12400 NORTH MERIDIAN ST., STE 200 NA CARMEL IN 46032",CARMEL,IN,46032,-86.15920019622865,39.9710040027139,99.44
604 MT. TALBOT RD NA NEW ALBANY IN 47150,NEW ALBANY,IN,47150,-85.83143499999994,38.29879500000004,85
705 RILEY HOSPITAL DRIVE ROC DIALYSIS RM 1240 INDIANAPOLIS IN 46202,INDIANAPOLIS,IN,46202,-86.18137904730659,39.777439455398095,96.05
5823 US HWY 6 NA PORTAGE IN 46368,PORTAGE,IN,46368,-87.18892773009951,41.55039654171347,96
"4529 S. COTTAGE GROVE AVENUE, STE 100 NA CHICAGO IL 60653",CHICAGO,IL,60653,-87.60658311175281,41.81241728379233,97.29
7000-C S. PULASKI NA CHICAGO IL 60629,CHICAGO,IL,60629,-87.69867499999998,41.78268500000007,85
4259 COTTAGE GROVE AVE SUITE 200 CHICAGO IL 60653,CHICAGO,IL,60653,-87.60671254601637,41.817042991433766,89.41
6225 ATLANTA HIGHWAY SUITE 117 ALPHARETTA GA 30004,ALPHARETTA,GA,30004,-84.25094820756975,34.13126148475858,97.17
4585 NELSON BROGDON BLVD NA BUFORD GA 30518,BUFORD,GA,30518,-84.01872690954178,34.10009006694906,96.94
311 S CLARK ST DIALYSIS UNIT CARROLL IA 51401,CARROLL,IA,51401,-94.86779824123614,42.05727969806459,94.9
417 S. EAST ST. NA CORYDON IA 50060,CORYDON,IA,50060,-93.31227928008406,40.75466312142787,96
"2410 ALFT LANE, STE 101 NA ELGIN IL 60124",ELGIN,IL,60124,-88.33771709049458,42.075407229002984,96.82
209 S FIFTH ST NA WATSEKA IL 60970,WATSEKA,IL,60970,-87.73109143959879,40.774726425658315,96.1
442 N IL RTE 31 NA CRYSTAL LAKE IL 60012,CRYSTAL LAKE,IL,60012,-88.28676724334363,42.25397094078147,97.16
"2150 GETTLER STREET, SUITE 105 NA DYER IN 46311",DYER,IN,46311,-87.5229595808544,41.492617937743724,97.35
1300 LAFAYETTE PKWY SUITE E LAGRANGE GA 30241,LAGRANGE,GA,30241,-84.9966075946561,33.041195647344324,99.43
2516 TOBACCO RD NA HEPHZIBAH GA 30815,HEPHZIBAH,GA,30815,-82.07471453681349,33.377042330510996,96.17
5615 OLD NATIONAL HWY NA ATLANTA GA 30349,ATLANTA,GA,30349,-84.47216750330878,33.6028979921727,96.67
557 W. POLK STREET STE 100 NA CHICAGO IL 60607,CHICAGO,IL,60607,-87.64191855101004,41.87196826183789,99.36
177 B WEST JOE ORR RD NA SOUTH CHICAGO HEIGHT IL 60411,SOUTH CHICAGO HEIGHT,IL,60411,-87.6486720129807,41.520658303259516,94.82
7831 W 95TH ST STE CNE NA HICKORY HILLS IL 60457,HICKORY HILLS,IL,60457,-87.81473411611036,41.71856103544974,96.37
4480 UTICA RIDGE ROAD SUITE 1130 NA BETTENDORF IA 52722,BETTENDORF,IA,52722,-90.5173689921007,41.565172249248796,99.4
95 UNIVERSITY STE. 11 NA DES MOINES IA 50314,DES MOINES,IA,50314,-93.62938499999996,41.604940000000056,85
1301 PENNSYLVANIA AVE STE 208 NA DES MOINES IA 50316,DES MOINES,IA,50316,-93.60842779912446,41.60188133902935,96.95
1657 OLD SKOKIE ROAD NA HIGHLAND PARK IL 60035,HIGHLAND PARK,IL,60035,-87.82184280819345,42.182919854383414,97.42
1600 W 13TH STREET UNIT 3 NA CHICAGO IL 60608,CHICAGO,IL,60608,-87.66689746066318,41.86510256112796,99.36
3825 HIGHLAND SUITE 102 NA DOWNERS GROVE IL 60515,DOWNERS GROVE,IL,60515,-88.01018325053589,41.81826218116012,92.06
1806 W HUBBARD NA CHICAGO IL 60622,CHICAGO,IL,60622,-87.67293999999998,41.90555000000006,85
901 BIESTERFIELD ROAD  STE 400 NA ELK GROVE VILLAGE IL 60007,ELK GROVE VILLAGE,IL,60007,-88.01920997352302,42.00338246394071,99.32
917 SOUTH STATE NA JERSEYVILLE IL 62052,JERSEYVILLE,IL,62052,-90.32356779999998,39.11798730000004,85
14 CHEROKEE RD SUITE A CEDARTOWN GA 30125,CEDARTOWN,GA,30125,-85.23575930168654,34.050487514608875,96.8
"2855 MILLER DRIVE,  STE 209 NA PLYMOUTH IN 46563",PLYMOUTH,IN,46563,-86.34431955700009,41.359632518775385,99.36
"250 E. DAY ROAD, SUITE 300 NA MISHAWAKA IN 46545",MISHAWAKA,IN,46545,-86.17912054349628,41.6986056937366,99.32
1890 SILVER CROSS BLVD  STE 465 NA NEW LENOX IL 60451,NEW LENOX,IL,60451,-87.98600322007452,41.54416435004406,99.4
4802 BROADWAY NA GARY IN 46408,GARY,IN,46408,-87.33624718566982,41.531127645906835,96.39
401 W. NIPPERSINK NA ROUND LAKE IL 60073,ROUND LAKE,IL,60073,-88.09277156744747,42.352521588258696,92.24
2450 MT. ZION PARKWAY NA JONESBORO GA 30236,JONESBORO,GA,30236,-84.30971599384664,33.557652981745846,96.47
8060 SUMMIT BUSINESS PARKWAY NA JONESBORO GA 30236,JONESBORO,GA,30236,-84.30537400036377,33.535928807005185,96.95
2101-2121 EISENHOWER PARKWAY SUITE 2117 MACON GA 31206,MACON,GA,31206,-83.6848875660539,32.81535916327474,97.24
518 N AUSTIN SUITE 5000 NA OAK PARK IL 60302,OAK PARK,IL,60302,-87.77504101655974,41.890199611743085,90.74
"972 EMERSON PARKWAY, SUITE E NA GREENWOOD IN 46143",GREENWOOD,IN,46143,-86.08388058193209,39.63008882460665,99.37
502 NORTH 9TH AVENUE DIALYSIS UNIT VINTON IA 52349,VINTON,IA,52349,-92.01329115834253,42.174446512876784,95.45
671 3 RD AVE SUITE A NA JASPER IN 47546,JASPER,IN,47546,-86.91787399673713,38.37940443231718,99.3
"2350 S DIXON ROAD,  STE 450 NA KOKOMO IN 46902",KOKOMO,IN,46902,-86.1650574280073,40.45904021638874,96.88
"2340 NORTH STATE HWY 7., STE A NA NORTH VERNON IN 47265",NORTH VERNON,IN,47265,-85.64477022781142,39.01896551774123,96.67
309 HOMER ADAMS PARKWAY NA ALTON IL 62002,ALTON,IL,62002,-90.17038686674579,38.91967307725892,96.96
"2845 N. SHERIDAN ROAD, SUITE 703 NA CHICAGO IL 60657",CHICAGO,IL,60657,-87.63923260665662,41.93348914188895,97.09
# 7 PROFESSIONAL DRIVE NA ALTON IL 62002,ALTON,IL,62002,-90.13249366998866,38.90684413441769,96.82
6800 LAKE DR #185 NA WEST DES MOINES IA 50266,WEST DES MOINES,IA,50266,-93.8028110907426,41.594081810486315,99.2
507 S WHITE ST SAUNDERS PARK MOUNT PLEASANT IA 52641,MOUNT PLEASANT,IA,52641,-91.55825560519399,40.96191569741904,94.92
8110 NETWORK DRIVE NA PLAINFIELD IN 46168,PLAINFIELD,IN,46168,-86.37825981079523,39.651675661863706,96.35
2130 POINT BLVD. SUITE 800 NA ELGIN IL 60123,ELGIN,IL,60123,-88.32809408583095,42.079950730353474,99.4
2540 FLAT SHOALS ROAD NA ATLANTA GA 30349,ATLANTA,GA,30349,-84.4724913800473,33.58912095128967,96.67
3492 WASHINGTON ROAD NA ATLANTA GA 30344,ATLANTA,GA,30344,-84.47712741069353,33.65983558989106,96.67
12541 HIGHWAY 27 NA SUMMERVILLE GA 30747,SUMMERVILLE,GA,30747,-85.32336309800093,34.50990985357665,96.15
2721 N SPAULDING NA CHICAGO IL 60647,CHICAGO,IL,60647,-87.69137499999994,41.92102500000004,85
18325 PULASKI ROAD UNIT A-B NA HAZEL CREST IL 60429,HAZEL CREST,IL,60429,-87.71350577209346,41.55645036199235,97.45
2491 INDUSTRIAL DR. SUITE 200 NA HIGHLAND IL 62249,HIGHLAND,IL,62249,-89.68526475818459,38.74654395737829,86.13
300 W BROADWAY SUITE 150 NA COUNCIL BLUFFS IA 51503,COUNCIL BLUFFS,IA,51503,-95.84747637428701,41.26148215088144,99.29
1275 CLEVELAND AVE 1ST FL NA ATLANTA GA 30344,ATLANTA,GA,30344,-84.43032378537137,33.6799837991969,96.86
"700 WILLOW STREET, STE 101 NA VINCENNES IN 47591",VINCENNES,IN,47591,-87.53565789551267,38.67183122256391,99.35
"1420 N. SENATE AVE., SUITE B NA INDIANAPOLIS IN 46202",INDIANAPOLIS,IN,46202,-86.16304204154916,39.78676956137025,96.5
"3100 VILLAGE POINT, SUITE 101 NA CHESTERTON IN 46304",CHESTERTON,IN,46304,-87.04269717848786,41.573657339042704,96.83
112 SULLIVAN DR NA RUSHVILLE IL 62681,RUSHVILLE,IL,62681,-90.57744586401512,40.11895854962941,96.17
2953 CENTRAL ST 1ST FLOOR NA EVANSTON IL 60201,EVANSTON,IL,60201,-87.71725551584608,42.06452610067305,96.79
5526 E. HIGHWAY 62 NA JEFFERSONVILLE IN 47130,JEFFERSONVILLE,IN,47130,-85.70123138016181,38.358526447169375,96.03
"1705 W. 25TH AVE, SUITE 101 NA GARY IN 46404",GARY,IN,46404,-87.35781008720298,41.57331246024607,97.05
"1937 B  OLD STATE ROAD, 135 NORTH NA CORYDON IN 47112",CORYDON,IN,47112,-86.12347919999996,38.20742590000003,85
"1159 WEST JEFFERSON ST., SUITE 201 NA FRANKLIN IN 46131",FRANKLIN,IN,46131,-86.07820997297694,39.48107438603431,97.12
805 BEACHWAY DRIVE  SUITE 100 NA INDIANAPOLIS IN 46224,INDIANAPOLIS,IN,46224,-86.26865108789337,39.777989601612866,99.34
4001 EAST WABASH AVENUE NA TERRE HAUTE IN 47803,TERRE HAUTE,IN,47803,-87.35871608711713,39.47416266867593,85.45
1350 E COUNTY LINE RD SUITE L NA INDIANAPOLIS IN 46227,INDIANAPOLIS,IN,46227,-86.13527526692384,39.63559444501079,96.67
3470 W 183RD ST NA HAZEL CREST IL 60429,HAZEL CREST,IL,60429,-87.70049824737967,41.557195024358805,97.13
110 N. WEST STREET NA WAUKEGAN IL 60085,WAUKEGAN,IL,60085,-87.83585248879895,42.36146344447576,96.3
1808 S WEST AVE NA FREEPORT IL 61032,FREEPORT,IL,61032,-89.63156711758664,42.27542999772143,96.14
2540 HAUSER ROSS DRIVE NA SYCAMORE IL 60178,SYCAMORE,IL,60178,-88.71582077591256,41.96101700828434,96.67
"396 REMINGTON BLVD., SUITE 100 NA BOLINGBROOK IL 60440",BOLINGBROOK,IL,60440,-88.08347268406484,41.67971577573582,99.35
107 S 11TH ST SUITE 2 NA MANCHESTER IA 52057,MANCHESTER,IA,52057,-91.47489451107447,42.48374557504439,96.35
1213 S. GEAR NA WEST BURLINGTON IA 52655,WEST BURLINGTON,IA,52655,-91.15782999999999,40.82124500000003,85
1700 W TOWNLINE ST #2B NA CRESTON IA 50801,CRESTON,IA,50801,-94.38511087297702,41.07115247336701,96.6
1661 W. RIDGEWAY NA WATERLOO IA 50701,WATERLOO,IA,50701,-92.36091999999996,42.48390000000006,85
"2257 KARISA DRIVE, SUITE 1 NA GOSHEN IN 46526",GOSHEN,IN,46526,-85.80513955364243,41.55831681637022,96.94
"4311 HWY 261, SUITE A NA NEWBURGH IN 47630",NEWBURGH,IN,47630,-87.39432668657722,37.9719377392773,99.29
13155 S. LAGRANGE ROAD NA ORLAND PARK IL 60462,ORLAND PARK,IL,60462,-87.85383754450922,41.65158489235249,93.74
"3901 GENERAL ELECTRIC ROAD, SUITE 1 NA BLOOMINGTON IL 61704",BLOOMINGTON,IL,61704,-88.90569044691775,40.502680316801424,99.4
"10801 S WESTERN AVENUE, SUITE 100 NA CHICAGO IL 60643",CHICAGO,IL,60643,-87.68130427584104,41.69734128364237,97.19
"3050 FINLEY ROAD, SUITE 300A NA DOWNERS GROVE IL 60515",DOWNERS GROVE,IL,60515,-88.02565253975972,41.83236701796368,97.57
455 W COURT STREET SUITE 100 NA KANKAKEE IL 60901,KANKAKEE,IL,60901,-87.87130056315628,41.121147759780904,99.38
7435 W TALCOTT AVE - OUTPATIENT DIALYSIS NA CHICAGO IL 60631,CHICAGO,IL,60631,-87.81260880074132,41.988494653249155,94.6
676 N. ST. CLAIR ARKES PAVILLION SUITE 2020 CHICAGO IL 60611,CHICAGO,IL,60611,-87.62277499999999,41.895350000000064,85
1500 E MARKET ST LOT 4 NA RED BUD IL 62278,RED BUD,IL,62278,-89.98158897637542,38.21164525864592,96.9
"4916 ILLINOIS ROAD, SUITE 118 NA FORT WAYNE IN 46804",FORT WAYNE,IN,46804,-85.20556559097281,41.07455648997567,99.38
911 W. NORTH AVENUE NA MELROSE PARK IL 60160,MELROSE PARK,IL,60160,-87.84655810699174,41.908206204841264,97.3
"329 REMINGTON BLVD, STE 110 NA BOLINGBROOK IL 60440",BOLINGBROOK,IL,60440,-88.07669214349086,41.68365728188471,99.33
5673 PEACHTREE DUNWOODY ROAD SUITE 501 ATLANTA GA 30342,ATLANTA,GA,30342,-84.352397315368,33.90997551098016,99.54
2047 PRINCE AVENUE SUITE A ATHENS GA 30606,ATHENS,GA,30606,-83.40950001189941,33.96967289222839,99.46
"315 W. 10TH STREET, NE SUITE 105 ROME GA 30165",ROME,GA,30165,-85.17856479863572,34.26295723498943,99.52
1710 LAFAYETTE ROAD NA CRAWFORDSVILLE IN 47933,CRAWFORDSVILLE,IN,47933,-86.90812450223929,40.06534601099103,96.23
"1140 W JEFFERSON STREET, SUITE A NA FRANKLIN IN 46131",FRANKLIN,IN,46131,-86.07721462197466,39.48084312932623,97.07
232 STATE ROAD 129 SO. NA BATESVILLE IN 47006,BATESVILLE,IN,47006,-85.20336859991981,39.28325329972996,96.42
"501 W. LAKE STREET, SUITE 201 NA ELMHURST IL 60126",ELMHURST,IL,60126,-87.9552712235391,41.919236035048755,99.37
17524 CARRIAGE WAY NA HAZEL CREST IL 60429,HAZEL CREST,IL,60429,-87.6904274745335,41.57038902005664,92.32
405 LAKE COOK RD. SUITE A13 NA DEERFIELD IL 60015,DEERFIELD,IL,60015,-87.83781150720912,42.152726101759846,95.82
"2400 WOLF ROAD, SUITE 101 A NA WESTCHESTER IL 60154",WESTCHESTER,IL,60154,-87.90123219701029,41.844162915527136,96.44
"4701 NORTH CUMBERLAND AVENUE,  STE 15/18A NA NORRIDGE IL 60706",NORRIDGE,IL,60706,-87.8365625198167,41.9648509807721,99.38
"2460 INTELLIPLEX DRIVE, SUITE 120 NA SHELBYVILLE IN 46176",SHELBYVILLE,IN,46176,-85.78373435222697,39.56171998733734,96.97
999 N. MICHIGAN AVE. NA GREENSBURG IN 47240,GREENSBURG,IN,47240,-85.49551557013655,39.346416869489886,96.27
1925 VAUGHN ROAD SUITE 150 KENNESAW GA 30144,KENNESAW,GA,30144,-84.59063749042846,34.00361499004234,88.06
"900 SKYLINE DR, SUITE 200 NA MARION IL 62959",MARION,IL,62959,-88.98448461153765,37.74223947792424,99.38
12250 S CICERO STE 105 NA ALSIP IL 60803,ALSIP,IL,60803,-87.73891963425069,41.66934338010351,86.26
6300 S KINGERY HWY STE 408 NA WILLOWBROOK IL 60527,WILLOWBROOK,IL,60527,-87.94647760127994,41.7729945815042,85.46
800 ROOSEVELT RD STE C-16 NA GLEN ELLYN IL 60137,GLEN ELLYN,IL,60137,-88.05444296824487,41.85943752613846,96.67
"711 PLAZA DRIVE, SUITE 6 NA PORTER IN 46304",PORTER,IN,46304,-87.04410324934078,41.61801670020405,96.81
204 N 4TH AVE E  SUITE 134 NA NEWTON IA 50208,NEWTON,IA,50208,-93.05157949824425,41.70240751546926,96.81
1200 BROOKSTONE CENTRE PARKWAY SUITE 111 COLUMBUS GA 31904,COLUMBUS,GA,31904,-84.97711061731759,32.53698154936408,99.54
DIALYSIS UNIT-CLINIC J 1969 W OGDEN AV CHICAGO IL 60612,CHICAGO,IL,60612,-87.67593284469798,41.873077753029705,94.41
"28160 W. NORTHWEST HWY, SUITE 104 NA LAKE BARRINGTON IL 60010",LAKE BARRINGTON,IL,60010,-88.18262649149756,42.18065812354007,96.71
405 HIGHWAY 150 N P O BOX 516 WEST UNION IA 52175,WEST UNION,IA,52175,-91.81453732392514,42.96743707403886,95.1
368 SOUTH WEBER NA ROMEOVILLE IL 60446,ROMEOVILLE,IL,60446,-88.08156499999996,41.65967920000003,85
1600 W 16TH ST  STE 13 NA OAK BROOK IL 60523,OAK BROOK,IL,60523,-87.95925665086102,41.85375262603822,89.61
"1859 W TAYLOR , UIMCC MC 794, ROOM 1003 NA CHICAGO IL 60612",CHICAGO,IL,60612,-87.68559499999998,41.87987500000003,85
"5401 N KNOXVILLE AVENUE, SUITE 300 NA PEORIA IL 61614",PEORIA,IL,61614,-89.59331659704362,40.75220794593588,97.32
4800 NORTH KILPATRICK NA CHICAGO IL 60630,CHICAGO,IL,60630,-87.74576957698257,41.96819016335913,85.93
1231 STATE ROUTE 161 EAST NA CENTRALIA IL 62801,CENTRALIA,IL,62801,-89.130973113374,38.528355077290364,86
"4209 W. SHAMROCK LANE, UNIT A NA MCHENRY IL 60050",MCHENRY,IL,60050,-88.27998313507064,42.31488235868265,99.38
149 IRVING PARK NA STREAMWOOD IL 60107,STREAMWOOD,IL,60107,-88.17356999999998,42.00764000000004,85
3753 MARIETTA HIGHWAY SUITE 100 CANTON GA 30114,CANTON,GA,30114,-84.50925776013592,34.19476785426715,97.55
521 STANLEY K. TANGER BLVD. NA LOCUST GROVE GA 30248,LOCUST GROVE,GA,30248,-84.12128263271673,33.345745882625515,97.47
2640 N. NARRAGANSETT AVE. SUITE D8 NA CHICAGO IL 60639,CHICAGO,IL,60639,-87.7856675199167,41.928716009449545,96.32
"409 GREENVILLE AVENUE,  STE 500 NA WINCHESTER IN 47394",WINCHESTER,IN,47394,-84.97196002163533,40.16913283158532,87.14
901 W. UNIVERSITY AVE  SUITE 302 NA URBANA IL 61801,URBANA,IL,61801,-88.21976997341018,40.11641246272078,99.43
"7836 W. JEFFERSON BLVD.,  SUITE LL10 NA FORT WAYNE IN 46804",FORT WAYNE,IN,46804,-85.2467079950714,41.0400380105898,97.05
133 E. BRUSH HILL RD. NA ELMHURST IL 60126,ELMHURST,IL,60126,-87.93684310649375,41.86162700497659,96.38
2500 PARKWAY DR. NA SHELBYVILLE IN 46176,SHELBYVILLE,IN,46176,-85.74208928539515,39.51709750085938,96.08
165 SHERIDAN ROAD NA NOBLESVILLE IN 46060,NOBLESVILLE,IN,46060,-86.02519929689613,40.048184273786866,96.23
"2325 18TH STREET, SUITE 120 NA COLUMBUS IN 47201",COLUMBUS,IN,47201,-85.89850607602787,39.21679025479438,99.37
"2859 NORTH PARK AVENUE, STE. 111 & 112 NA HUNTINGTON IN 46750",HUNTINGTON,IN,46750,-85.50979129295314,40.90260363225952,96.56
3300 TAMIAMI TRAIL SUITE 101A NA PORT CHARLOTTE FL 33952,PORT CHARLOTTE,FL,33952,-82.0994452583135,26.982663915018904,96.72
"240 INDIAN RIVER RD, SUITE D NA ORANGE CT 06477",ORANGE,CT,6477,-73.00055266032034,41.2630232475992,96.94
4220 EXECUTIVE CIRCLE #38 NA FORT MYERS FL 33916,FORT MYERS,FL,33916,-81.84528734620918,26.60152322920112,99.6
700 WILLOW ST  SUITE 102 NA VINCENNES IN 47591,VINCENNES,IN,47591,-87.53565789551267,38.67183122256391,99.32
820 E MCGALLIARD NA MUNCIE IN 47303,MUNCIE,IN,47303,-85.41027499999996,40.195260000000076,85
1740 INDUSTRY DRIVE SUITE A INDIANAPOLIS IN 46219,INDIANAPOLIS,IN,46219,-86.04875582243223,39.79004730163559,96.89
"2669 CHARLESTOWN RD., SUITE F NA NEW ALBANY IN 47150",NEW ALBANY,IN,47150,-85.80315551295614,38.319525650127346,96.84
215 NORTH FRESNO STREET SUITE 150 FRESNO CA 93701,FRESNO,CA,93701,-119.78157509108165,36.745246712465416,99.52
7783 SOUTH FREEDOM ROAD NA FRENCH CAMP CA 95231,FRENCH CAMP,CA,95231,-121.28198568715682,37.88257424802372,87.06
13123 E 16TH AVE #328 NA AURORA CO 80045,AURORA,CO,80045,-104.83503743299984,39.74216144985621,96.59
7910 US HWY 19N NA PINELLAS PARK FL 33781,PINELLAS PARK,FL,33781,-82.68759326203168,27.84443537604259,97.06
2900 N MILITARY TRAIL SUITE 195 NA BOCA RATON FL 33431,BOCA RATON,FL,33431,-80.12101251637583,26.37875198217982,99.63
1705 E INDUSTRIAL DRIVE NA TERRE HAUTE IN 47802,TERRE HAUTE,IN,47802,-87.39041443326973,39.34539999782359,96.61
"1002 4TH AVENUE SE, SUITE A NA CEDAR RAPIDS IA 52403",CEDAR RAPIDS,IA,52403,-91.65694874322831,41.98183057922023,96.61
800 N. MAIN ST. NA EVANSVILLE IN 47711,EVANSVILLE,IN,47711,-87.56387800330484,37.985205747180245,95.87
"10120 CALUMET AVENUE, SUITE 102 NA MUNSTER IN 46321",MUNSTER,IN,46321,-87.50913718207035,41.52866055007842,97.14
DIALYSIS UNIT 137 WATER STREET NEW HAVEN CT 06511,NEW HAVEN,CT,6511,-72.92032460352421,41.30126295671862,95.55
5 SHAW'S COVE SUITE 100 NEW LONDON CT 06320,NEW LONDON,CT,6320,-72.1007817574315,41.34614352199528,99.34
11616 LAKE UNDERHILL ROAD BLDG 2 STE 206 ORLANDO FL 32825,ORLANDO,FL,32825,-81.2151517072763,28.546570431695315,99.54
1107 MYRA ST STE 101 NA JACKSONVILLE FL 32204,JACKSONVILLE,FL,32204,-81.6820954632396,30.317315077556987,99.5
7150 W 20TH AVE STE 109 NA HIALEAH FL 33016,HIALEAH,FL,33016,-80.3244251293711,25.886841679870557,99.63
1228 E RUSHOLME ST #1000 NA DAVENPORT IA 52803,DAVENPORT,IA,52803,-90.5570356783257,41.54286297575713,99.32
"1941 FRANK SCOTT PARKWAY EAST, SUITE B NA SHILOH IL 62269",SHILOH,IL,62269,-89.92076071441208,38.5703418816303,99.49
1890 SILVER CROSS BLVD SUITE 150 NEW LENOX IL 60451,NEW LENOX,IL,60451,-87.98600322007452,41.54416435004406,99.47
1051 ESSINGTON ROAD SUITE 160 NA JOLIET IL 60435,JOLIET,IL,60435,-88.16082516133858,41.54118797813595,99.43
1634 S ARDMORE AVE  SUITE 200 NA VILLA PARK IL 60181,VILLA PARK,IL,60181,-87.9778752885657,41.859084103190845,97.42
1600 SW ARCHER ROAD NA GAINESVILLE FL 32610,GAINESVILLE,FL,32610,-82.3432061739002,29.639293541963955,97.59
PEDIATRIC DIALYSIS 1 TAMPA GENERAL CIRCLE TAMPA FL 33601,TAMPA,FL,33601,-82.45928497168202,27.937529989489136,95.86
610 E MAIN STE C NA CORTEZ CO 81321,CORTEZ,CO,81321,-108.58574499999997,37.34863000000007,85
4320 FIR STREET SUITE 404 NA EAST CHICAGO IN 46312,EAST CHICAGO,IN,46312,-87.44853319480724,41.636126169553236,96.61
27025 W. EAMES STREET UNIT G CHANNAHON IL 60410,CHANNAHON,IL,60410,-88.2657278647021,41.4187059511516,97.04
501 6TH AVE S 6500000410 SAINT PETERSBURG FL 33701,SAINT PETERSBURG,FL,33701,-82.641003039964,27.764277475776368,96.09
2735 W OLD HWY 441 NA MOUNT DORA FL 32757,MOUNT DORA,FL,32757,-81.67277897786013,28.809950993773498,97.71
10770 N 46TH STREET #A100 NA TAMPA FL 33617,TAMPA,FL,33617,-82.4099203396637,28.046926105416812,99.7
2459 S CONGRESS AVE #100 NA WEST PALM BEACH FL 33406,WEST PALM BEACH,FL,33406,-80.08834681477796,26.640265475325418,96.39
3000 DIXWELL AVENUE SUITE 100 NA HAMDEN CT 06518,HAMDEN,CT,6518,-72.90006579500626,41.38324928534377,97.12
111 OSBORNE STREET SUITE 211 DANBURY CT 06810,DANBURY,CT,6810,-73.44168023832233,41.40411863168904,99.45
"11 SOUTH RD, SUITE 110 NA FARMINGTON CT 06032",FARMINGTON,CT,6032,-72.79846698641705,41.72792999154325,96.35
5950 US HIGHWAY 6 NA PORTAGE IN 46368,PORTAGE,IN,46368,-87.1852232207129,41.550646612503925,96.36
1534 US HIGHWAY 41 NA SCHERERVILLE IN 46375,SCHERERVILLE,IN,46375,-87.47097722675963,41.49383731720443,96.18
1601 PROSPECT PARKWAY SUITE 180 FORT COLLINS CO 80525,FORT COLLINS,CO,80525,-105.03364717895602,40.56728274048843,97.14
50 BUCK CREEK ROAD SUITE 110 AVON CO 81620,AVON,CO,81620,-106.5228747048055,39.63994066214181,97.56
5992 IRIS PARKWAY NA LONGMONT CO 80504,LONGMONT,CO,80504,-104.94308603226351,40.11134250094701,96.38
1321 S 4TH AVE SUITE 100 BRIGHTON CO 80601,BRIGHTON,CO,80601,-104.81828745678932,39.96690898200819,96.94
420 S NOVA RD SUITE 7 NA ORMOND BEACH FL 32174,ORMOND BEACH,FL,32174,-81.0811860119373,29.270838405597278,99.52
1000 RUSH DRIVE NA SALIDA CO 81201,SALIDA,CO,81201,-106.00816122536028,38.542967465959016,96.34
4600 HALE PKWY STE 120 NA DENVER CO 80220,DENVER,CO,80220,-104.93429651713666,39.73337671241409,99.35
9193 SW 72ND ST # 100-B NA MIAMI FL 33173,MIAMI,FL,33173,-80.34132086687784,25.70208445922578,99.67
1701 MILITARY TRAIL #140 NA JUPITER FL 33458,JUPITER,FL,33458,-80.10222246875134,26.917319268415362,99.64
3727 N FRONTAGE ROAD NA MICHIGAN CITY IN 46360,MICHIGAN CITY,IN,46360,-86.89025302738416,41.66158546770998,96.32
1005 PENNSYLVANIA AVE #101 NA OTTUMWA IA 52501,OTTUMWA,IA,52501,-92.38981013763221,41.02752747527678,99.38
2233 WISCONSIN AVE SUITE 214 WASHINGTON DC 20007,WASHINGTON,DC,20007,-77.07074222949834,38.91994976388287,87.86
RENAL DIALYSIS UNIT 3857 A PENNSYLVANIA AVE SE WASHINGTON DC 20020,WASHINGTON,DC,20020,-76.95070080317124,38.864817167103666,95.33
2131 K STREET NW STE 300 WASHINGTON DC 20037,WASHINGTON,DC,20037,-77.04766785588473,38.90289954790049,96.79
2002 LELARAY ST STE 130 NA COLORADO SPRINGS CO 80909,COLORADO SPRINGS,CO,80909,-104.79077897257673,38.856885623585995,99.26
2343 W 27TH ST STE 503 NA GREELEY CO 80634,GREELEY,CO,80634,-104.71695108558842,40.393583392907864,99.32
270 FARMINGTON AVE STE160 FARMINGTON CT 06032,FARMINGTON,CT,6032,-72.79583188369712,41.73510674468041,99.38
7777 W LINCOLN HIGHWAY SUITE E FRANKFORT IL 60423,FRANKFORT,IL,60423,-87.80371920569043,41.50621939054972,97.19
5 LIONS DRIVE N LIBERTY OUTREACH DIALYSIS UNIT NORTH LIBERTY IA 52317,NORTH LIBERTY,IA,52317,-91.61112889999998,41.74410820000003,85
8901 S. KEDZIE NA EVERGREEN PARK IL 60805,EVERGREEN PARK,IL,60805,-87.70212735408076,41.73134322824484,92.78
1801 S NOVA RD #306 NA DAYTONA BEACH FL 32119,DAYTONA BEACH,FL,32119,-81.0252558351611,29.16978794111399,99.48
600 SW 3RD ST #1100 NA POMPANO BEACH FL 33060,POMPANO BEACH,FL,33060,-80.13515957637463,26.226562520594275,99.48
34 EAST INDUSTRIAL ROAD NA BRANFORD CT 06405,BRANFORD,CT,6405,-72.75753352775342,41.297904310213134,96.67
"C/O JOSEPH MARCANTONIO KIDNEY CENTER 780 LITCHFIELD STREET, SUITE 100 TORRINGTON CT 06790",TORRINGTON,CT,6790,-73.13647578150803,41.79048878689792,98.99
"100 MAIN STREET, SUITE A NA MIDDLETOWN CT 06457",MIDDLETOWN,CT,6457,-72.64788492240368,41.55774144062674,99.3
851 W. BURRELL ST. NA CROWN POINT IN 46307,CROWN POINT,IN,46307,-87.37738535151695,41.390617020144326,90.13
"1670 CAPITAL STREET, SUITE 900 NA ELGIN IL 60124",ELGIN,IL,60124,-88.3372389936528,42.07754877027008,99.45
"9115 S CICERO AVE, SUITE 300 NA OAK LAWN IL 60453",OAK LAWN,IL,60453,-87.74098870704918,41.72689482650111,99.38
200 EAST THIRD STREET NA SEYMOUR IN 47274,SEYMOUR,IN,47274,-85.88771412423239,38.96070291239797,96.67
"46-767 MONROE STREET, SUITE 101 NA INDIO CA 92201",INDIO,CA,92201,-116.21943499999998,33.72014500000006,85
"19222 PIONEER BLVD., SUITE 101 NA CERRITOS CA 90703",CERRITOS,CA,90703,-118.08199133634646,33.855607762865546,99.39
"2090 N. TUSTIN AVENUE, SUITE 100 NA SANTA ANA CA 92705",SANTA ANA,CA,92705,-117.83580453034307,33.7644220859578,99.4
92 W MILLER STREET NA ORLANDO FL 32806,ORLANDO,FL,32806,-81.37912000593688,28.523852498514454,98
1494 NW 7 ST NA MIAMI FL 33125,MIAMI,FL,33125,-80.2197577186321,25.78003640019212,98
365 QUARTER MASTER COURT NA JEFFERSONVILLE IN 47130,JEFFERSONVILLE,IN,47130,-85.73959734558103,38.28357065482236,95.46
973 EMERSON PARKWAY SUITE C GREENWOOD IN 46143,GREENWOOD,IN,46143,-86.08344681654589,39.63015258103178,97.09
300 NORTH 1ST NA VINCENNES IN 47591,VINCENNES,IN,47591,-87.52998359852009,38.68224531816429,95.5
136 SHERMAN AVENUE SUITE 206 NEW HAVEN CT 06511,NEW HAVEN,CT,6511,-72.94492850682936,41.31053091087872,98.74
11705 SAN JOSE BLVD SUITE 100 JACKSONVILLE FL 32223,JACKSONVILLE,FL,32223,-81.63260250428324,30.158788017071217,99.61
200 EAST 80TH PLACE SUITE 2 NA MERRILLVILLE IN 46410,MERRILLVILLE,IN,46410,-87.33410799286054,41.47332750329451,96.61
"2302 CHESTER BLVD, SUITE B NA RICHMOND IN 47374",RICHMOND,IN,47374,-84.88858615275886,39.866187423405336,96.79
810 1ST ST NE STE 100 WASHINGTON DC 20002,WASHINGTON,DC,20002,-77.0070279468815,38.900612922804726,96.6
1411 S POTOMAC ST STE 100 NA AURORA CO 80012,AURORA,CO,80012,-104.83268287257881,39.69104709554978,99.38
2880 FOLSOM ST STE 110 NA BOULDER CO 80304,BOULDER,CO,80304,-105.2630640963385,40.02839925234596,99.33
5264 COUNCIL ST NE SUITE 200 NA CEDAR RAPIDS IA 52402,CEDAR RAPIDS,IA,52402,-91.65679837188534,42.03114860785712,96.72
550 N HILLSIDE NA WICHITA KS 67214,WICHITA,KS,67214,-97.31156499999997,37.69279000000006,85
10370 HALIGUS ROAD SUITE 100 HUNTLEY IL 60142,HUNTLEY,IL,60142,-88.40300260429609,42.17673480162876,97.31
3322 VOLLMER RD. SUITE C OLYMPIA FIELDS IL 60461,OLYMPIA FIELDS,IL,60461,-87.69694297932877,41.527842521447404,97.81
9640 S. ROBERTS ROAD SUITE B-3A HICKORY HILLS IL 60457,HICKORY HILLS,IL,60457,-87.8177716340024,41.71530818646555,97.55
1200 DELTONA BLVD STE 26 NA DELTONA FL 32725,DELTONA,FL,32725,-81.27160860284798,28.895739605136175,99.64
2814 LEE BOULEVARD SUITE 16 LEHIGH ACRES FL 33971,LEHIGH ACRES,FL,33971,-81.67211890298506,26.61736749886423,99.63
2200 NORTH ALAFAYA TRAIL SUITE 600 ORLANDO FL 32826,ORLANDO,FL,32826,-81.20789566133554,28.57393436998777,99.75
460 HARTFORD TURNPIKE NA VERNON ROCKVILLE CT 06066,VERNON ROCKVILLE,CT,6066,-72.47844407915994,41.8299015852761,96.25
5454 HOHMAN AVENUE DIALYSIS UNIT ON CAMPUS HAMMOND IN 46320,HAMMOND,IN,46320,-87.5220475287746,41.614997005842156,95.63
2309 S MILLER STREET   STE 100 NA SHELBYVILLE IN 46176,SHELBYVILLE,IN,46176,-85.78738450342216,39.502516761190506,96.72
9836 W. 400 N. NA MICHIGAN CITY IN 46360,MICHIGAN CITY,IN,46360,-86.89055678755537,41.66581941846062,95.71
15 E INDEPENDENCE DRIVE NA CHICAGO HEIGHTS IL 60411,CHICAGO HEIGHTS,IL,60411,-87.63994499999995,41.497520000000065,85
1602 MAIN ST NA TELL CITY IN 47586,TELL CITY,IN,47586,-86.76969519200247,37.964650009742314,95.95
"1125 W. 6TH STREET, SUITE 101 NA LOS ANGELES CA 90017",LOS ANGELES,CA,90017,-118.2628067574756,34.0543850995854,99.34
"1825 4TH STREET, ROOM M5209 BOX SAN FRANCISCO CA 94143",SAN FRANCISCO,CA,94143,-122.39042904339277,37.76534779824571,96.03
775 GATEWAY DRIVE SUITE 1010 ALTAMONTE SPRINGS FL 32714,ALTAMONTE SPRINGS,FL,32714,-81.4133541292573,28.64462256368468,99.54
1775 NW 80TH BLVD NA GAINESVILLE FL 32606,GAINESVILLE,FL,32606,-82.429346825196,29.669398404503927,97.5
124 EAST NORTHFIELD DRIVE NA BROWNSBURG IN 46112,BROWNSBURG,IN,46112,-86.3905529614494,39.858014983990245,96.72
1406 EAST LINCOLNWAY SUITE A LA PORTE IN 46350,LA PORTE,IN,46350,-86.69264567027567,41.62403470882242,97.65
809 BROADWAY SUITE A NA KING CITY CA 93930,KING CITY,CA,93930,-121.13382166304328,36.208186282873086,85.11
"501 MEDICAL CENTER DR EAST, SUITE 1100 NA CLOVIS CA 93611",CLOVIS,CA,93611,-119.66027692064502,36.837619883783304,97.46
10543 SUWANNEE PLAZA BLVD NA LIVE OAK FL 32060,LIVE OAK,FL,32060,-82.96461815775093,30.325926333673525,98.27
250 HARRISON STREET SUITE 110 TITUSVILLE FL 32780,TITUSVILLE,FL,32780,-80.80537281401837,28.584305294212967,97.12
801 GARDEN ST SUITE B TITUSVILLE FL 32796,TITUSVILLE,FL,32796,-80.81427000500926,28.61534248041696,96.67
320 SOUTH STREET NA SOUTH BEND IN 46601,SOUTH BEND,IN,46601,-86.25574499999999,41.67501000000004,85
700 SECOND ST NE 6TH FLOOR - NEPHROLOGY WASHINGTON DC 20002,WASHINGTON,DC,20002,-77.00394055666585,38.89949025069339,95.85
1951 N.W. 7TH. AVE. SUITE 500 NA MIAMI FL 33136,MIAMI,FL,33136,-80.2069725376585,25.794622011387077,99.7
41 MONTEBELLO RD STE 102 NA PUEBLO CO 81001,PUEBLO,CO,81001,-104.59763997448498,38.305717487030634,99.38
3120 2ND ST. NA MARSHALLTOWN IA 50158,MARSHALLTOWN,IA,50158,-92.90551499999998,42.051600000000064,85
112 W. 87TH STREET SUITE N NA CHICAGO IL 60620,CHICAGO,IL,60620,-87.62815655564339,41.736289179761435,96.8
2041 GEORGIA AVE NW TOWER BUILDING SUITE 1119B WASHINGTON DC 20060,WASHINGTON,DC,20060,-77.02092262777543,38.91781028309734,95.89
"2601 18TH STREET NE, A WING BASEMENT NA WASHINGTON DC 20018",WASHINGTON,DC,20018,-76.97814826712857,38.92344661006865,97.38
266 STATE STREET SUITE 2 NA NORTH HAVEN CT 06473,NORTH HAVEN,CT,6473,-72.88335174653017,41.376088009195094,96.55
"2550 W. ADDISON, SUITE A4 NA CHICAGO IL 60618",CHICAGO,IL,60618,-87.69253300861108,41.94673747846254,85.93
"22151 MOROSS RD PB1, SUITE G-05 DETROIT MI 48236",DETROIT,MI,48236,-82.9138939189323,42.418573164576145,96.73
"2050 LIVERNOIS, SUITE A NA TROY MI 48083",TROY,MI,48083,-83.14719271061331,42.55291143551139,86.87
15204 OMEGA DRIVE SUITE 110 ROCKVILLE MD 20850,ROCKVILLE,MD,20850,-77.19597381409095,39.10651374566686,99.42
6495 NEW HAMPSHIRE AVE STE LL 100 HYATTSVILLE MD 20783,HYATTSVILLE,MD,20783,-77.00001204246655,38.96798146374894,96.67
207 HIGHLAND AVE SUITE 2 SALEM MA 01970,SALEM,MA,1970,-70.9190189889255,42.50528013916002,97.21
17123 COMMERCE CENTER DR NA PRAIRIEVILLE LA 70769,PRAIRIEVILLE,LA,70769,-90.97932710823574,30.32045741114793,96.56
360 E CHICAGO ST STE 112 NA COLDWATER MI 49036,COLDWATER,MI,49036,-84.98676846014527,41.938298446338365,96.6
4 EDWARD AVENUE NA DAMARISCOTTA ME 04543,DAMARISCOTTA,ME,4543,-69.50570438499828,44.0361200059001,95.96
246 EASTERN BLVD. STE. 104 HAGERSTOWN MD 21740,HAGERSTOWN,MD,21740,-77.69467098531047,39.639794020745754,87.01
2220 COMMERCE AVE   STE 1 NA FOREST HILL MD 21050,FOREST HILL,MD,21050,-76.36827713640805,39.578754529160825,90.9
330 LIBBEY INDUSTRIAL PARKWAY SUITE 900 WEYMOUTH MA 02189,WEYMOUTH,MA,2189,-70.93557769010569,42.190853786743645,99.52
UNIT 1 STETSON WEST 2 WEST STREET UNIT 1 WEYMOUTH MA 02190,WEYMOUTH,MA,2190,-70.95647846858785,42.188313776714864,99.15
35351A S GRATIOT AVE NA CLINTON TOWNSHIP MI 48035,CLINTON TOWNSHIP,MI,48035,-82.89866366413189,42.55700690241177,96.19
11200 METRO AIRPORT CENTER DR STE 120 NA ROMULUS MI 48174,ROMULUS,MI,48174,-83.38033476070534,42.22080886467396,99.48
61 DEWEY STREET NA PRESTONSBURG KY 41653,PRESTONSBURG,KY,41653,-82.78002555982884,37.683014012687146,96.04
132 FUTURE DRIVE NA CORBIN KY 40701,CORBIN,KY,40701,-84.11208924855923,36.920218054131524,96.43
DIALYSIS SERVICES 73 ALLEN STREET WILTON ME 04294,WILTON,ME,4294,-70.22515758416857,44.58234558560995,94.63
"DIALYSIS CLINIC INC. SKOWHEGAN, ME 27 RESEARCH DRIVE/PO BOX  2231 SKOWHEGAN ME 04976",SKOWHEGAN,ME,4976,-69.70684801680355,44.75302309484825,92.8
MED. OFFICE BLDG SUITE M107 907 SUMNER STREET STOUGHTON MA 02072,STOUGHTON,MA,2072,-71.0829690988562,42.10019700792628,95.74
7700 2ND AVE STE 130 NA DETROIT MI 48202,DETROIT,MI,48202,-83.0784620265841,42.37242814729573,96.52
1200 MERCANTILE LN   STE 105 NA LARGO MD 20774,LARGO,MD,20774,-76.83885520176909,38.9068653196594,96.98
2600 WEST BROADWAY SUITE 112 NA LOUISVILLE KY 40211,LOUISVILLE,KY,40211,-85.79516534032076,38.24946397833953,99.37
306 SOUTH PLAZA NA LONDON KY 40741,LONDON,KY,40741,-84.08002291199149,37.10648838355935,96.34
210 THOMAS MORE PARKWAY SUITE 1 CRESTVIEW HILLS KY 41017,CRESTVIEW HILLS,KY,41017,-84.57014122259352,39.023010124928895,97.87
205 STEEPLE CHASE DR   STE 201 NA PRINCE FREDERICK MD 20678,PRINCE FREDERICK,MD,20678,-76.59166188950303,38.550926961334056,96.52
DIALYSIS UNIT 57 PROSPECT STREET NANTUCKET MA 02554,NANTUCKET,MA,2554,-70.10145360142991,41.275178306398544,95.25
DIALYSIS UNIT 55 LAKE AVENUE NORTH RM H7-331 WORCESTER MA 01655,WORCESTER,MA,1655,-71.76167233463454,42.27757354373,95.37
3170 PROFESSIONAL CT NA BAY CITY MI 48706,BAY CITY,MI,48706,-83.92652672898328,43.60020278654992,96.67
1536 W. CENTER RD. NA ESSEXVILLE MI 48732,ESSEXVILLE,MI,48732,-83.838447762578,43.594275649448186,96.12
"500 CADMUS LN, SUITE 201 NA EASTON MD 21601",EASTON,MD,21601,-76.07039603221695,38.763103442621905,99.36
1531 S EDGEWOOD ST SUITE 302 HALETHORPE MD 21227,HALETHORPE,MD,21227,-76.66744021995194,39.260748310267985,97.02
1046 OLD NORTHPOINT RD NA BALTIMORE MD 21224,BALTIMORE,MD,21224,-76.50802701549047,39.28863800097659,95.08
2077 CATON STREET SUITE A NEW ORLEANS LA 70128,NEW ORLEANS,LA,70128,-90.0625260221132,29.9987768148999,99.2
2908 GENERAL DEGUALLE DR NA NEW ORLEANS LA 70114,NEW ORLEANS,LA,70114,-90.02795653884667,29.928126968409998,95.67
DIALYSIS UNIT - 1 HOSPITAL ROAD P.O. BOX 1477 OAK BLUFFS MA 02557,OAK BLUFFS,MA,2557,-70.5797990088257,41.460611234167885,93.78
"HEMODIALYSIS UNIT 123 SUMMER ST, SUITE 380 WORCESTER MA 01608",WORCESTER,MA,1608,-71.79700054777646,42.264658330131624,95.15
"10 MAPLE AVENUE, SUITE 200 NA GREAT BARRINGTON MA 01230",GREAT BARRINGTON,MA,1230,-73.36576785583317,42.1892635720732,96.36
5999 HARPERS FARM RD STE E-110 COLUMBIA MD 21044,COLUMBIA,MD,21044,-76.88000255119042,39.21689175964188,97.22
