address,city,state,zip,Longitude,Latitude,Match Score,geo_method,category
975 9TH AVE SW SUITE 500 BESSEMER AL 35022,BESSEMER,AL,35022,-86.99006172,33.37497393,96.94,,dialysis
6601 WALL STREET SUITE A MOBILE AL 36695,MOBILE,AL,36695,-88.19503087,30.67057424,97.17,,dialysis
3861 SALEM ROAD NA ENTERPRISE AL 36330,ENTERPRISE,AL,36330,-85.86933274,31.36062712,96.12,,dialysis
409 SOUTH FIRST STREET NA GADSDEN AL 35901,GADSDEN,AL,35901,-86.00307585,34.00637725,96.73,,dialysis
216 GRACELAND DR. NA DOTHAN AL 36305,DOTHAN,AL,36305,-85.45237903,31.23227403,96.43,,dialysis
120 CAHABA VALLEY PARKWAY SUITE 150 PELHAM AL 35124,PELHAM,AL,35124,-86.7846522,33.33710688,99.54,,dialysis
522 EAST 11TH STREET 1ST FLOOR ANNISTON AL 36207,ANNISTON,AL,36207,-85.82240578,33.65838727,97.27,,dialysis
20998 JOHN T. REID HWY NA SCOTTSBORO AL 35768,SCOTTSBORO,AL,35768,-86.033305,34.66737,85,,dialysis
2325 PANSY STREET SUITE C HUNTSVILLE AL 35801,HUNTSVILLE,AL,35801,-86.57751919,34.71460146,87.24,,dialysis
4391 RIVERCHASE DRIVE NA PHENIX CITY AL 36867,PHENIX CITY,AL,36867,-85.00565548,32.50893765,96.55,,dialysis
30230 HWY 43 NA THOMASVILLE AL 36784,THOMASVILLE,AL,36784,-87.74502795,31.88123635,95.83,,dialysis
901 WESTLAKE MALL STE 101 BESSEMER AL 35020,BESSEMER,AL,35020,-86.97440302,33.3982323,97.06,,dialysis
2202 JORDAN ROAD SW SUITE 100 FORT PAYNE AL 35968,FORT PAYNE,AL,35968,-85.75458967,34.43460775,97.14,,dialysis
1311 N MEMORIAL PKWY STE 100 NA HUNTSVILLE AL 35801,HUNTSVILLE,AL,35801,-86.6008366,34.74604061,96.78,,dialysis
4016 HWY 45 NA WHISTLER AL 36613,WHISTLER,AL,36613,-88.12178035,30.75857168,94.8,,dialysis
1208 WEST BYPASS NA ANDALUSIA AL 36420,ANDALUSIA,AL,36420,-86.50299996,31.29126,96.25,,dialysis
2800 RAINBOW DRIVE NA RAINBOW CITY AL 35906,RAINBOW CITY,AL,35906,-86.02776072,33.96529762,96.3,,dialysis
1010 FIRST STREET NORTH SUITE 100 ALABASTER AL 35007,ALABASTER,AL,35007,-86.81416052,33.25401594,97.33,,dialysis
728 RICHARD ARRINGTON BLVD S NA BIRMINGHAM AL 35233,BIRMINGHAM,AL,35233,-86.79796056,33.50572956,95.51,,dialysis
1311 N MEMORIAL PKWY #200 NA HUNTSVILLE AL 35801,HUNTSVILLE,AL,35801,-86.6008366,34.74604061,96.61,,dialysis
2609 VILLAGE PROFESSIONAL DR STE 2 OPELIKA AL 36801,OPELIKA,AL,36801,-85.41278384,32.64736727,89.77,,dialysis
310 SOUTH BRINDLEE MOUNTAIN PARKWAY NA ARAB AL 35016,ARAB,AL,35016,-86.50275415,34.31143752,97.64,,dialysis
62 COGSWELL DRIVE NA PELL CITY AL 35125,PELL CITY,AL,35125,-86.283145,33.59145,85,,dialysis
2131 MAGNOLIA AVE SOUTH #100 NA BIRMINGHAM AL 35205,BIRMINGHAM,AL,35205,-86.79450931,33.50312082,99.36,,dialysis
575 STANTON ROAD UNIT B MOBILE AL 36617,MOBILE,AL,36617,-88.09637566,30.70747576,97.11,,dialysis
2104 LORNA RIDGE LANE NA HOOVER AL 35216,HOOVER,AL,35216,-86.79584254,33.39155597,96.74,,dialysis
3883 HIGHWAY 25 NA MONTEVALLO AL 35115,MONTEVALLO,AL,35115,-86.86652797,33.09190096,96.12,,dialysis
289 WILLIAM E HILL DRIVE SUITE A CARROLLTON AL 35447,CARROLLTON,AL,35447,-88.08980636,33.27436047,97.17,,dialysis
2505 HAND AVENUE NA BAY MINETTE AL 36507,BAY MINETTE,AL,36507,-87.78757248,30.91147475,96.2,,dialysis
1611 21ST COURT NA PHENIX CITY AL 36867,PHENIX CITY,AL,36867,-85.02324268,32.47631019,96.12,,dialysis
"201 ST. JOSEPH STREET, SUITE B NA MOBILE AL 36602",MOBILE,AL,36602,-88.04348757,30.69542788,96.08,,dialysis
14897 HWY 43 NA RUSSELLVILLE AL 35653,RUSSELLVILLE,AL,35653,-87.71706965,34.505128,95.8,,dialysis
195 BUNTING DRIVE NA OZARK AL 36360,OZARK,AL,36360,-85.6458447,31.4588393,85,,dialysis
544 HIGHWAY 43 NA EUTAW AL 35462,EUTAW,AL,35462,-87.88163134,32.84041869,96.32,,dialysis
1120 S JACKSON HWY STE 107 NA SHEFFIELD AL 35660,SHEFFIELD,AL,35660,-87.70146449,34.74724643,96.73,,dialysis
7067 VETERANS PKWY SUITE 120 NA PELL CITY AL 35125,PELL CITY,AL,35125,-86.30065616,33.60494233,96.96,,dialysis
726 E BATTLE STREET SUITE A TALLADEGA AL 35160,TALLADEGA,AL,35160,-86.08962925,33.43688252,97.04,,dialysis
"27880 N. MAIN ST, SUITE A NA DAPHNE AL 36526",DAPHNE,AL,36526,-87.91054062,30.63130018,96.74,,dialysis
1450 ROSS CLARK CIRCLE SUITE 200 DOTHAN AL 36301,DOTHAN,AL,36301,-85.37020595,31.19895295,99.51,,dialysis
712 STATE STREET NA MUSCLE SHOALS AL 35661,MUSCLE SHOALS,AL,35661,-87.66483433,34.7437595,96.11,,dialysis
300 MEDICAL CENTER DRIVE SUITE 100 GADSDEN AL 35903,GADSDEN,AL,35903,-85.96727977,34.00795917,97.54,,dialysis
12401 SKOPELOS RD NA GRAND BAY AL 36541,GRAND BAY,AL,36541,-88.33620802,30.49829001,94.86,,dialysis
4748 BELL HILL ROAD NA BESSEMER AL 35022,BESSEMER,AL,35022,-86.9950101,33.32971655,96.46,,dialysis
"505 HIGHWAY 80 W, SUITE F NA DEMOPOLIS AL 36732",DEMOPOLIS,AL,36732,-87.84340021,32.50021863,96.6,,dialysis
11839 HIGHWAY 231-431 NORTH NA MERIDIANVILLE AL 35759,MERIDIANVILLE,AL,35759,-86.57147741,34.8560259,96.62,,dialysis
"2017 QUINTARD AVE, SUITE B NA ANNISTON AL 36201",ANNISTON,AL,36201,-85.82674693,33.67097028,99.36,,dialysis
"2017 QUINTARD AVENUE, SUITE A NA ANNISTON AL 36201",ANNISTON,AL,36201,-85.82674693,33.67097028,99.39,,dialysis
"2024 4TH AVE SOUTH, SUITE 100 NA BIRMINGHAM AL 35233",BIRMINGHAM,AL,35233,-86.80162982,33.50932234,96.78,,dialysis
3671 ROOSEVELT BLVD NA BIRMINGHAM AL 35235,BIRMINGHAM,AL,35235,-86.63700346,33.60920713,96.42,,dialysis
1023 DOUGLAS AVENUE SUITE 300 BREWTON AL 36426,BREWTON,AL,36426,-87.06858877,31.12153434,97.36,,dialysis
29569 HUNTSVILLE BROWNS FERRY RD NA MADISON AL 35756,MADISON,AL,35756,-86.79552093,34.72908329,97.24,,dialysis
700 SARA G LOTT BLVD NA BRUNDIDGE AL 36010,BRUNDIDGE,AL,36010,-85.83176723,31.72042741,96.4,,dialysis
"5406 HIGHWAY 280, SUITE D107 NA BIRMINGHAM AL 35242",BIRMINGHAM,AL,35242,-86.67170815,33.41878907,99.36,,dialysis
4459 US HIGHWAY 431 NA ROANOKE AL 36274,ROANOKE,AL,36274,-85.36997859,33.1661383,96.52,,dialysis
"150 GILBREATH DRIVE, SUITE 1 NA ONEONTA AL 35121",ONEONTA,AL,35121,-86.49406201,33.92961402,96.98,,dialysis
200 SOUTH PARK PL NA SELMA AL 36701,SELMA,AL,36701,-87.05442819,32.42611068,96.5,,dialysis
592 FIELDSTOWN ROAD SUITE 102 GARDENDALE AL 35071,GARDENDALE,AL,35071,-86.82073897,33.65222122,99.42,,dialysis
201 LINCOLN LANE NA SELMA AL 36701,SELMA,AL,36701,-87.05741114,32.4332332,96.5,,dialysis
3368 HWY 280 BYPASS SUITE G-1 ALEXANDER CITY AL 35010,ALEXANDER CITY,AL,35010,-85.96909779,32.93158692,85.59,,dialysis
4400 WATERMELON ROAD SUITE A NORTHPORT AL 35473,NORTHPORT,AL,35473,-87.54833879,33.24796433,97.14,,dialysis
"1216 SOMERVILLE ROAD, SE NA DECATUR AL 35601",DECATUR,AL,35601,-86.97275124,34.58836162,96.8,,dialysis
1920 E CAMBRIDGE RD STE 102 NA PHOENIX AZ 85016,PHOENIX,AZ,85016,-112.03019,33.488225,85,,dialysis
PO BOX 245148 NA TUCSON AZ 85724,TUCSON,AZ,85724,-110.9441,32.24147,87.95,,dialysis
6420 E BROADWAY BLVD STE C300 NA TUCSON AZ 85710,TUCSON,AZ,85710,-110.855699,32.22093254,99.42,,dialysis
500 EDGEWATER DRIVE PO BOX 2910 TUBA CITY AZ 86045,TUBA CITY,AZ,86045,-111.2322257,36.12944817,86.98,,dialysis
1021 S 7TH AVE STE 108 NA PHOENIX AZ 85007,PHOENIX,AZ,85007,-112.0824814,33.43727947,96.6,,dialysis
135 S POWER RD STE 103 NA MESA AZ 85206,MESA,AZ,85206,-111.6845008,33.41307772,99.37,,dialysis
HWY 86 - MP 113 NA SELLS AZ 85634,SELLS,AZ,85634,-111.8675,31.914625,85,,dialysis
912 W CHANDLER BLVD BLDG A-D NA CHANDLER AZ 85225,CHANDLER,AZ,85225,-111.8579648,33.30725259,99.44,,dialysis
35 WEST LAKESHORE DRIVE SUITE 105 BIRMINGHAM AL 35209,BIRMINGHAM,AL,35209,-86.81314446,33.45078066,97.26,,dialysis
40 PURPLE HEART BLVD NA SPRINGVILLE AL 35146,SPRINGVILLE,AL,35146,-86.4670403,33.76954353,96.36,,dialysis
289 N FIREWOOD LANE STE A NA SOLDOTNA AK 99669,SOLDOTNA,AK,99669,-151.152155,60.483255,85,,dialysis
360 BONIFACE PKWY SUITE A11 NA ANCHORAGE AK 99504,ANCHORAGE,AK,99504,-149.778547,61.22111804,99.37,,dialysis
40 WASDEN RD NA HOPE HULL AL 36043,HOPE HULL,AL,36043,-86.35719399,32.27008084,95.95,,dialysis
10050 W BELL RD STE 29-31 NA SUN CITY AZ 85351,SUN CITY,AZ,85351,-112.27646,33.63821749,99.43,,dialysis
1957 W DUNLAP AVE STE 6C NA PHOENIX AZ 85021,PHOENIX,AZ,85021,-112.1034287,33.56752126,96.73,,dialysis
US HWY 163 N NA KAYENTA AZ 86033,KAYENTA,AZ,86033,-110.24899,36.71051,85,,dialysis
"1699 E COTTONWOOD ST, A-200 NA COTTONWOOD AZ 86326",COTTONWOOD,AZ,86326,-112.0074826,34.72854673,95.96,,dialysis
1495 N HAYDEN STE D1-D4 NA SCOTTSDALE AZ 85257,SCOTTSDALE,AZ,85257,-111.9230928,33.46141,85,,dialysis
4502 W INDIAN SCHOOL RD STE A4-11 NA PHOENIX AZ 85031,PHOENIX,AZ,85031,-112.156023,33.49502874,97.14,,dialysis
13000 N 103RD AVE STE 66 NA SUN CITY AZ 85351,SUN CITY,AZ,85351,-112.281283,33.60188035,99.35,,dialysis
7490 S CAMINO DE OESTE NA TUCSON AZ 85757,TUCSON,AZ,85757,-111.0632144,32.1150225,96.27,,dialysis
1500 S WHITE MOUNTAIN BLVD STE 204 NA SHOW LOW AZ 85901,SHOW LOW,AZ,85901,-110.0265832,34.23632097,87.24,,dialysis
901 EAST DIMOND BOULEVARD SUITE G NA ANCHORAGE AK 99515,ANCHORAGE,AK,99515,-149.866023,61.14480747,99.42,,dialysis
1605 N. INDUSTRIAL PARK DR. STE H NA NOGALES AZ 85621,NOGALES,AZ,85621,-110.9480048,31.36128753,99.42,,dialysis
26 E BASELINE STE 142 NA PHOENIX AZ 85042,PHOENIX,AZ,85042,-112.0723849,33.37780865,85.38,,dialysis
12213 W BELL ROAD STE 110 NA SURPRISE AZ 85374,SURPRISE,AZ,85374,-112.3231701,33.63859249,99.15,,dialysis
218 MAIN STREET SUITE 114 & 118 TRUSSVILLE AL 35173,TRUSSVILLE,AL,35173,-86.60918736,33.61941977,99.31,,dialysis
1830 LEE AVE SW SUITE B-D CULLMAN AL 35055,CULLMAN,AL,35055,-86.84188534,34.15427178,97.02,,dialysis
"1218 S EULAULA AVE, SUITE 1234 NA EUFAULA AL 36027",EUFAULA,AL,36027,-85.15334399,31.87749399,94.13,,dialysis
2705 HIGHWAY 31 SOUTH NA DECATUR AL 35603,DECATUR,AL,35603,-86.97367107,34.55527967,96.67,,dialysis
6521 HWY 69 S STE O TUSCALOOSA AL 35404,TUSCALOOSA,AL,35404,-87.54486248,33.14803478,99.08,,dialysis
1815 GLYNWOOD DRIVE NA PRATTVILLE AL 36066,PRATTVILLE,AL,36066,-86.42166902,32.46172086,96.42,,dialysis
105 INVERNESS CORS NA BIRMINGHAM AL 35242,BIRMINGHAM,AL,35242,-86.69257716,33.41859402,96.35,,dialysis
2250 HIGHWAY 60 STE O-2 NA MIAMI AZ 85539,MIAMI,AZ,85539,-110.9579783,33.36238696,96.82,,dialysis
1337 S GILBERT RD STE 106 NA MESA AZ 85204,MESA,AZ,85204,-111.7883125,33.391287,99.41,,dialysis
1525 N GILBERT RD STE 121 NA GILBERT AZ 85234,GILBERT,AZ,85234,-111.7882326,33.37789733,96.8,,dialysis
10238 E HAMPTON AVE STE 108 NA MESA AZ 85209,MESA,AZ,85209,-111.6100239,33.38983353,99.43,,dialysis
14671 W. MOUNTAIN VIEW BLVD. SUITE 106 SURPRISE AZ 85374,SURPRISE,AZ,85374,-112.3769265,33.65469607,97.5,,dialysis
13907 W CAMINO DEL SOL SUITE 103 SUN CITY WEST AZ 85375,SUN CITY WEST,AZ,85375,-112.3618275,33.65773098,97.1,,dialysis
500 N BULLARD AVE STE C34 NA GOODYEAR AZ 85338,GOODYEAR,AZ,85338,-112.3755375,33.45246198,99.35,,dialysis
1134 E UNIVERSITY DR STE 101 NA MESA AZ 85203,MESA,AZ,85203,-111.806885,33.4224375,99.45,,dialysis
3540 E BASELINE RD STE 110 NA PHOENIX AZ 85042,PHOENIX,AZ,85042,-112.0053799,33.3781575,99.37,,dialysis
11540 E UNIVERSITY DR STE 109 NA APACHE JUNCTION AZ 85220,APACHE JUNCTION,AZ,85220,-111.5822764,33.42241184,95.88,,dialysis
9666 E RIGGS RD STE 143 NA SUN LAKES AZ 85248,SUN LAKES,AZ,85248,-111.8746223,33.21818565,96.5,,dialysis
13657 W MCDOWELL RD STE 106 NA GOODYEAR AZ 85338,GOODYEAR,AZ,85338,-112.353166,33.4642425,99.19,,dialysis
1337 S GILBERT RD STE 109 NA MESA AZ 85204,MESA,AZ,85204,-111.7883125,33.391028,99.41,,dialysis
"5115 EAST THOMAS, SUITE #115 NA PHOENIX AZ 85018",PHOENIX,AZ,85018,-111.9705162,33.48000135,86.67,,dialysis
629 N HIGHWAY 90 STE 6 & 7 NA SIERRA VISTA AZ 85635,SIERRA VISTA,AZ,85635,-110.2572378,31.56062,97.21,,dialysis
5957 W NORTHERN AVE STE 108 NA GLENDALE AZ 85301,GLENDALE,AZ,85301,-112.1896627,33.55302366,99.37,,dialysis
AGENCY ROAD BLDG 173 RURAL RT 1/AGENCY ROAD PARKER AZ 85344,PARKER,AZ,85344,-114.2907909,34.145982,85,,dialysis
980 WILLOW CREEK RD STE 101 NA PRESCOTT AZ 86301,PRESCOTT,AZ,86301,-112.4821559,34.55930558,99.37,,dialysis
"2201 N VICKEY STREET, STE 120 NA FLAGSTAFF AZ 86004",FLAGSTAFF,AZ,86004,-111.6060593,35.20737141,99.37,,dialysis
9220 E MOUNTAIN VIEW RD STE 105 NA SCOTTSDALE AZ 85258,SCOTTSDALE,AZ,85258,-111.8800915,33.57584666,99.38,,dialysis
5750 W THUNDERBIRD RD BLDG G #750 NA GLENDALE AZ 85306,GLENDALE,AZ,85306,-112.183069,33.61265101,99.41,,dialysis
3815 E. BELL ROAD STE. 1100 NA PHOENIX AZ 85032,PHOENIX,AZ,85032,-111.999012,33.63854899,99.36,,dialysis
10301 E OSBORN RD BLDG 14 NA SCOTTSDALE AZ 85256,SCOTTSDALE,AZ,85256,-111.8588009,33.48772165,96.61,,dialysis
US 70 & AZ ROUTE 170 NA PERIDOT AZ 85542,PERIDOT,AZ,85542,-110.4571899,33.29794005,95.91,,dialysis
14786 S HIGHWAY 77 - POB 729 NA MAMMOTH AZ 85618,MAMMOTH,AZ,85618,-110.648997,32.73899497,94.44,,dialysis
15930 48TH STREET NA PHOENIX AZ 85048,PHOENIX,AZ,85048,-111.994822,33.2997066,85,,dialysis
2149 E WARNER RD STE 109 & STE 110 NA TEMPE AZ 85284,TEMPE,AZ,85284,-111.9006636,33.33472013,99.45,,dialysis
8410 W THOMAS RD STE 100 BLDG 1 NA PHOENIX AZ 85037,PHOENIX,AZ,85037,-112.2412837,33.47993384,99.41,,dialysis
6261 N LA CHOLLA BLVD STE 181 NA TUCSON AZ 85741,TUCSON,AZ,85741,-111.0123175,32.32124402,99.41,,dialysis
1700 W COMMERCE POINTE PL NA SAHUARITA AZ 85629,SAHUARITA,AZ,85629,-111.0022072,31.89705627,96.24,,dialysis
2945 W INA RD STE 105 NA TUCSON AZ 85741,TUCSON,AZ,85741,-111.0302938,32.33730127,99.32,,dialysis
6622 N 91ST AVE SUITE 120 GLENDALE AZ 85305,GLENDALE,AZ,85305,-112.2552575,33.53245799,99.4,,dialysis
3600 W TANGERINE RD SUITE 120 MARANA AZ 85658,MARANA,AZ,85658,-111.042216,32.42394752,97.4,,dialysis
14620 WEST ENCANTO NA GOODYEAR AZ 85395,GOODYEAR,AZ,85395,-112.37676,33.485335,85,,dialysis
6970 EAST CHAUNCEY LANE SUITE 130 PHOENIX AZ 85054,PHOENIX,AZ,85054,-111.930324,33.65160745,99.5,,dialysis
"9721 WEST PECOS RD- RR2, BOX 807 NA LAVEEN AZ 85339",LAVEEN,AZ,85339,-112.16404,33.374455,85,,dialysis
20325 N 51ST AVE STE 186 BLDG 11 NA GLENDALE AZ 85308,GLENDALE,AZ,85308,-112.1692222,33.66941736,99.4,,dialysis
5222 E BASELINE RD STE 104 NA GILBERT AZ 85234,GILBERT,AZ,85234,-111.71882,33.37930746,95.88,,dialysis
10750 W MCDOWELL RD STE E500 NA AVONDALE AZ 85323,AVONDALE,AZ,85323,-112.291124,33.46450749,99.2,,dialysis
13055 W MCDOWELL RD STE F101 NA AVONDALE AZ 85392,AVONDALE,AZ,85392,-112.3372887,33.46418827,99.38,,dialysis
8910 N 43RD AVE STE 107 NA GLENDALE AZ 85302,GLENDALE,AZ,85302,-112.151693,33.56614083,99.32,,dialysis
975 W CHANDLER HEIGHTS STE 101 NA CHANDLER AZ 85248,CHANDLER,AZ,85248,-111.8571414,33.23271156,87.05,,dialysis
7355 S HOUGHTON RD STE 101 NA TUCSON AZ 85747,TUCSON,AZ,85747,-110.7725825,32.118308,99.39,,dialysis
4845 W MCDOWELL RD STE 10A NA PHOENIX AZ 85035,PHOENIX,AZ,85035,-112.1634449,33.46594712,96.86,,dialysis
3511 MERCY RD STE 101 NA GILBERT AZ 85297,GILBERT,AZ,85297,-111.7503907,33.28555241,85.99,,dialysis
811 N TEGNER ST  #101 NA WICKENBURG AZ 85390,WICKENBURG,AZ,85390,-112.735835,33.97588317,96.27,,dialysis
HIGHWAY 264 MP 388 NA POLACCA AZ 86042,POLACCA,AZ,86042,-110.4204495,35.8057856,85,,dialysis
3121 W SECOND CT NA RUSSELLVILLE AR 72801,RUSSELLVILLE,AR,72801,-93.1675464,35.28576241,96.04,,dialysis
108 D ANNA PL NA HELENA AR 72342,HELENA,AR,72342,-90.63338141,34.51763742,96.05,,dialysis
312 PROFESSIONAL PARK DR STE H NA ARKADELPHIA AR 71923,ARKADELPHIA,AR,71923,-93.08923646,34.12119063,99.37,,dialysis
301 S POWER ROAD SUITE 104 NA MESA AZ 85206,MESA,AZ,85206,-111.6845227,33.41043772,99.42,,dialysis
9250 WEST THOMAS ROAD SUITE 120 PHOENIX AZ 85037,PHOENIX,AZ,85037,-112.258701,33.47963779,99.48,,dialysis
7362 W THUNDERBIRD RD SUITE 104 NA PEORIA AZ 85381,PEORIA,AZ,85381,-112.2174753,33.61045153,97.22,,dialysis
"5705 N SCOTTSDALE RD, STE 120 NA SCOTTSDALE AZ 85250",SCOTTSDALE,AZ,85250,-111.9258404,33.51997662,99.36,,dialysis
5115 E THOMAS RD STE 100 NA PHOENIX AZ 85018,PHOENIX,AZ,85018,-111.9705162,33.48000135,96.73,,dialysis
5555 E 5TH ST #155 NA TUCSON AZ 85711,TUCSON,AZ,85711,-110.8741996,32.22894749,96.34,,dialysis
13430 N SAGUARO BLVD BLDG 3 FOUNTAIN HILLS AZ 85268,FOUNTAIN HILLS,AZ,85268,-111.7144197,33.60809792,97.87,,dialysis
16605 NORTH 28TH AVENUE SUITE 100 PHOENIX AZ 85053,PHOENIX,AZ,85053,-112.1188255,33.63615709,99.5,,dialysis
4141 N SCOTTSDALE RD STE 100 SCOTTSDALE AZ 85251,SCOTTSDALE,AZ,85251,-111.9260525,33.495658,99.4,,dialysis
2545 EAST THOMAS ROAD SUITE 100 PHOENIX AZ 85016,PHOENIX,AZ,85016,-112.0264945,33.4802837,97.41,,dialysis
4901 W MCDOWELL ROAD SUITE 120 PHOENIX AZ 85035,PHOENIX,AZ,85035,-112.16578,33.46594247,97.36,,dialysis
540 E WASHINGTON NA JONESBORO AR 72401,JONESBORO,AR,72401,-90.701935,35.83414,85,,dialysis
SPRINGHILL MEDICAL PLAZA 3401 SPRINGHILL DR STE 190 NORTH LITTLE ROCK AR 72117,NORTH LITTLE ROCK,AR,72117,-92.21958609,34.7851757,99,,dialysis
1411 N JACKSON NA MAGNOLIA AR 71754,MAGNOLIA,AR,71754,-93.23587517,33.28035243,95.66,,dialysis
201 SKYLINE DR  STE 32 NA CONWAY AR 72032,CONWAY,AR,72032,-92.42962176,35.11241991,96.67,,dialysis
10310 W MARKHAM STE 100 NA LITTLE ROCK AR 72205,LITTLE ROCK,AR,72205,-92.33069712,34.74730211,90.4,,dialysis
1114 WASHINGTON NW NA CAMDEN AR 71701,CAMDEN,AR,71701,-92.84902474,33.58493131,85.37,,dialysis
505 SAINT MARYS STREET NA LAKE VILLAGE AR 71653,LAKE VILLAGE,AR,71653,-91.28598765,33.32985571,97.42,,dialysis
310 S RHODES NA WEST MEMPHIS AR 72301,WEST MEMPHIS,AR,72301,-90.17114,35.14264,85,,dialysis
210 BARROW HILL RD NA FORREST CITY AR 72335,FORREST CITY,AR,72335,-90.78887862,35.04169949,96.23,,dialysis
805 WEST MADISON NA STUTTGART AR 72160,STUTTGART,AR,72160,-91.5496,34.49482,85,,dialysis
509 E MILLSAP STE 111 NA FAYETTEVILLE AR 72703,FAYETTEVILLE,AR,72703,-94.150161,36.113662,94.56,,dialysis
1900 MALVERN AVE STE 102 NA HOT SPRINGS AR 71901,HOT SPRINGS,AR,71901,-93.03452375,34.48762606,99.32,,dialysis
5320 WEST 12TH ST NA EAST LITTLE ROCK AR 72204,EAST LITTLE ROCK,AR,72204,-92.33295577,34.74110462,95.34,,dialysis
9421 WEST MARKHAM SUITE B LITTLE ROCK AR 72205,LITTLE ROCK,AR,72205,-92.37932999,34.75343314,86.62,,dialysis
500 S MT OLIVE STE 107 NA SILOAM SPRINGS AR 72761,SILOAM SPRINGS,AR,72761,-94.5423725,36.184001,85,,dialysis
1001 E MOULTRIE NA BLYTHEVILLE AR 72315,BLYTHEVILLE,AR,72315,-89.92532,35.922075,85,,dialysis
PRATT SQUARE 1912 MCCLAIN NEWPORT AR 72112,NEWPORT,AR,72112,-91.28297,35.60226,85,,dialysis
GROUND LEVEL-1200 N MAIN STE 2 NA BENTON AR 72015,BENTON,AR,72015,-92.5817551,34.5636433,85,,dialysis
"1301 N HERVEY ST, SUITE B NA HOPE AR 71801",HOPE,AR,71801,-93.60340226,33.6792964,99.4,,dialysis
2800 W 28TH ST NA PINE BLUFF AR 71603,PINE BLUFF,AR,71603,-92.03173213,34.20179671,88.49,,dialysis
200 EAST 8TH ST #101 NA MOUNTAIN HOME AR 72653,MOUNTAIN HOME,AR,72653,-92.38320017,36.33397216,99.24,,dialysis
2070 MCKENZIE ROAD STE B SPRINGDALE AR 72762,SPRINGDALE,AR,72762,-94.18552393,36.16753242,99.37,,dialysis
1590 TANNER RD NA MALVERN AR 72104,MALVERN,AR,72104,-92.812035,34.359355,85,,dialysis
225 N DUDNEY NA MAGNOLIA AR 71753,MAGNOLIA,AR,71753,-93.23297372,33.26824553,95.95,,dialysis
#2 LILE CT STE 102 NA LITTLE ROCK AR 72205,LITTLE ROCK,AR,72205,-92.37788478,34.74567326,99.22,,dialysis
1521 E TANGERINE ROAD SUITE 101 ORO VALLEY AZ 85755,ORO VALLEY,AZ,85755,-110.9486713,32.42734568,97.24,,dialysis
6622 N 91ST AVENUE STE 210 GLENDALE AZ 85305,GLENDALE,AZ,85305,-112.2552575,33.53240899,99.41,,dialysis
5555 MESA VERDE DR SUITE 120 SIERRA VISTA AZ 85635,SIERRA VISTA,AZ,85635,-110.2333245,31.55138685,97.81,,dialysis
926 E MC DOWELL RD SUITE 100 PHOENIX AZ 85006,PHOENIX,AZ,85006,-112.0614071,33.46581871,97.2,,dialysis
2125 E MAIN STE 12 NA SILOAM SPRINGS AR 72761,SILOAM SPRINGS,AR,72761,-94.5423725,36.184001,85,,dialysis
139 W HWY 64 STE 100 NA MCCRORY AR 72101,MCCRORY,AR,72101,-91.20142076,35.26906815,96.44,,dialysis
1501 N WASHINGTON ST NA FORREST CITY AR 72335,FORREST CITY,AR,72335,-90.78814696,35.0243715,96.36,,dialysis
"2628 INTERNATIONAL BLVD, STE 100 NA OAKLAND CA 94601",OAKLAND,CA,94601,-122.2318689,37.78102078,97.19,,dialysis
125 E. ARBOR VITAE NA INGLEWOOD CA 90301,INGLEWOOD,CA,90301,-118.354945,33.958535,85,,dialysis
2521 STOCKTON BLVD DEPARTMENT OF PEDIATRICS SACRAMENTO CA 95817,SACRAMENTO,CA,95817,-121.4553856,38.55204268,96.25,,dialysis
"CHILDRENS HOSPITAL 11234 ANDERSON ST., RM. 4219 NA LOMA LINDA CA 92354",LOMA LINDA,CA,92354,-117.2611746,34.04920048,95.14,,dialysis
3600 E. MARTIN LUTHER KING JR. BLVD. NA LYNWOOD CA 90262,LYNWOOD,CA,90262,-118.204001,33.93216798,87.77,,dialysis
9022 LANDERS RD SUITE E NA NORTH LITTLE ROCK AR 72117,NORTH LITTLE ROCK,AR,72117,-92.16838649,34.83518088,99.26,,dialysis
310 S FALLS BLVD PO BOX 590 WYNNE AR 72396,WYNNE,AR,72396,-90.78740038,35.21985634,95.28,,dialysis
1120 STATE HWY 77  STE 2 NA MARION AR 72364,MARION,AR,72364,-90.18441633,35.18395946,99.35,,dialysis
"PERITONEAL DIALYSIS UNIT, 3460 E. LA PALMA AVENUE NA ANAHEIM CA 92806",ANAHEIM,CA,92806,-117.8430884,33.85464697,94.57,,dialysis
"3020 CHILDRENS WAY, MC 5115 NA SAN DIEGO CA 92123",SAN DIEGO,CA,92123,-117.1508275,32.798322,95.74,,dialysis
27303 SLEEPY HOLLOW NA HAYWARD CA 94545,HAYWARD,CA,94545,-122.1177388,37.64526,85,,dialysis
PERITONEAL DIALYSIS UNIT 1813 N HACIENDA BLVD. NA LA PUENTE CA 91744,LA PUENTE,CA,91744,-117.9437558,34.05069442,94.51,,dialysis
"200 MUIR ROAD, HACIENDA BUILDING, SECOND FLOOR NA MARTINEZ CA 94553",MARTINEZ,CA,94553,-122.1106632,37.99432367,94.71,,dialysis
"1759 W. AVENUE J, SUITE 102 NA LANCASTER CA 93534",LANCASTER,CA,93534,-118.163171,34.6894475,96.67,,dialysis
1020 SECOND STREET NA SANTA ROSA CA 95404,SANTA ROSA,CA,95404,-122.7053596,38.44243689,96.4,,dialysis
"227 W. JANSS ROAD, SUITE 115 NA THOUSAND OAKS CA 91360",THOUSAND OAKS,CA,91360,-118.8839728,34.20607559,99.31,,dialysis
"1045 W. REDONDO BEACH BLVD., SUITE 105 NA GARDENA CA 90247",GARDENA,CA,90247,-118.2929771,33.892479,99.46,,dialysis
2765 TIMBER RIDGE LANE NA EUREKA CA 95503,EUREKA,CA,95503,-124.13675,40.78006746,96.81,,dialysis
9432 VENICE BLVD. NA CULVER CITY CA 90230,CULVER CITY,CA,90230,-118.395507,34.02486601,95.73,,dialysis
"18546 ROSCOE BLVD., SUITE 108 NA NORTHRIDGE CA 91324",NORTHRIDGE,CA,91324,-118.5376183,34.22065441,96.78,,dialysis
"2031 ALAMEDA AVENUE, SUITE 202 NA BURBANK CA 91506",BURBANK,CA,91506,-118.3237141,34.15972626,87.96,,dialysis
"6840 SEPULVEDA BLVD, SUITE 101 NA VAN NUYS CA 91405",VAN NUYS,CA,91405,-118.4661725,34.195225,97.09,,dialysis
"3393 G STREET, SUITE A NA MERCED CA 95340",MERCED,CA,95340,-120.469263,37.32614454,96.67,,dialysis
"14624 SHERMAN WAY, SUITE 106 NA VAN NUYS CA 91405",VAN NUYS,CA,91405,-118.451494,34.20115252,99.4,,dialysis
"7230 MEDICAL CENTER DRIVE, SUITE 101 NA WEST HILLS CA 91307",WEST HILLS,CA,91307,-118.6294338,34.20174533,98.72,,dialysis
SR. ELIZABETH BLDG. 1100 W. STEWART DRIVE NA ORANGE CA 92868,ORANGE,CA,92868,-117.864937,33.7823625,95,,dialysis
"DIVISION OF NEPHROLOGY (DIALYSIS) 4650 SUNSET BLVD., BOX 40 NA LOS ANGELES CA 90027",LOS ANGELES,CA,90027,-118.287425,34.10482,85,,dialysis
"DIALYSIS UNIT 4700 SUNSET BLVD., 2ND FLOOR NA LOS ANGELES CA 90027",LOS ANGELES,CA,90027,-118.287425,34.10482,85,,dialysis
"PERITONEAL DIALYSIS UNIT, 9985 SIERRA AVENUE MOB-3 NA FONTANA CA 92335",FONTANA,CA,92335,-117.4356181,34.07289072,94.17,,dialysis
"5601 DE SOTO AVENUE, AREA 247 PERITONEAL DIALYSIS NA WOODLAND HILLS CA 91365",WOODLAND HILLS,CA,91365,-118.588152,34.17125544,95.14,,dialysis
"PERITONEAL DIALYSIS UNIT, 10800 MAGNOLIA AVENUE, MODULE 1X NA RIVERSIDE CA 92505",RIVERSIDE,CA,92505,-117.469182,33.90494499,94.22,,dialysis
"DIALYSIS UNIT 6041 CADILLAC AVENUE, SUITE 442 NA LOS ANGELES CA 90034",LOS ANGELES,CA,90034,-118.375266,34.03775339,95.81,,dialysis
"CAPD DEPARTMENT-BASEMENT, 9333 E. IMPERIAL HWY NA DOWNEY CA 90242",DOWNEY,CA,90242,-118.149845,33.921475,85,,dialysis
725 WELCH ROAD PEDIATRIC DIALYSIS  RM 1229 NA PALO ALTO CA 94304,PALO ALTO,CA,94304,-122.1730192,37.43688406,94.93,,dialysis
710 LAWRENCE EXPRESSWAY #460 NA SANTA CLARA CA 95051,SANTA CLARA,CA,95051,-121.9958201,37.33543748,96.83,,dialysis
9041 IMPERIAL HWY. NA DOWNEY CA 90242,DOWNEY,CA,90242,-118.1361795,33.91711388,96.51,,dialysis
"7927 OSTROW STREET, SUITE A NA SAN DIEGO CA 92111",SAN DIEGO,CA,92111,-117.1548109,32.81329476,99.37,,dialysis
1729 NORTH OLIVE #9 NA TURLOCK CA 95382,TURLOCK,CA,95382,-120.835135,37.528495,85,,dialysis
"31736 RANCHO VIEJO ROAD, SUITE B NA SAN JUAN CAPISTRANO CA 92675",SAN JUAN CAPISTRANO,CA,92675,-117.6534598,33.50162817,99.32,,dialysis
15625 LAKEWOOD BLVD. NA PARAMOUNT CA 90723,PARAMOUNT,CA,90723,-118.1428346,33.8918271,96.47,,dialysis
"4567 TELEPHONE ROAD, SUITE 101 NA VENTURA CA 93003",VENTURA,CA,93003,-119.235007,34.25596053,99.42,,dialysis
"81715 DOCTOR CARREON BLVD., SUITE B-2 NA INDIO CA 92201",INDIO,CA,92201,-116.238612,33.70738252,97.45,,dialysis
40 PENNY LANE SUITE 1 NA WATSONVILLE CA 95076,WATSONVILLE,CA,95076,-121.7782352,36.92994446,99.27,,dialysis
"14901 RINALDI STREET, SUITE 100 NA MISSION HILLS CA 91345",MISSION HILLS,CA,91345,-118.457859,34.2790375,98.73,,dialysis
1525 PLUMAS COURT SUITE A NA YUBA CITY CA 95991,YUBA CITY,CA,95991,-121.618358,39.15261346,99.36,,dialysis
"1100 TRANCAS, SUITE 267 NA NAPA CA 94558",NAPA,CA,94558,-122.2982615,38.32315247,86.87,,dialysis
5720 STONERIDGE MALL ROAD #160 NA PLEASANTON CA 94588,PLEASANTON,CA,94588,-121.9303157,37.69254745,99.38,,dialysis
7000 FRANKLIN BLVD. #880 NA SACRAMENTO CA 95823,SACRAMENTO,CA,95823,-121.4640853,38.49922881,99.31,,dialysis
32930 ALVARADO-NILES ROAD #300 NA UNION CITY CA 94587,UNION CITY,CA,94587,-122.0460329,37.59413978,96.95,,dialysis
"595 TAMARACK AVENUE, SUITES A & B NA BREA CA 92821",BREA,CA,92821,-117.9001498,33.92798093,95.71,,dialysis
"1700 CESAR E. CHAVEZ AVE., SUITE L-100 NA LOS ANGELES CA 90033",LOS ANGELES,CA,90033,-118.2174545,34.05109864,87.73,,dialysis
"715 SOUTH POINT BLVD., SUITE A NA PETALUMA CA 94954",PETALUMA,CA,94954,-122.6462586,38.25767267,99.38,,dialysis
402 W. EIGHTH STREET NA HANFORD CA 93230,HANFORD,CA,93230,-119.6509644,36.32693727,96.52,,dialysis
"8501 BRIMHALL ROAD, BLDG. 500 NA BAKERSFIELD CA 93312",BAKERSFIELD,CA,93312,-119.0962315,35.36876621,99.34,,dialysis
"16892 BOLSA CHICA AVENUE, SUITE 100 NA HUNTINGTON BEACH CA 92649",HUNTINGTON BEACH,CA,92649,-118.0413187,33.71657286,85.49,,dialysis
"8635 W. THIRD STREET, SUITE 560 NA LOS ANGELES CA 90048",LOS ANGELES,CA,90048,-118.3811541,34.07363267,99.37,,dialysis
"12555 GARDEN GROVE BLVD., SUITE 100 NA GARDEN GROVE CA 92843",GARDEN GROVE,CA,92843,-117.91381,33.77450753,98.73,,dialysis
3115 WEST MARCH LANE SUITE A NA STOCKTON CA 95219,STOCKTON,CA,95219,-121.3504384,37.98422485,99.38,,dialysis
1315 ALHAMBRA BLVD #100 NA SACRAMENTO CA 95816,SACRAMENTO,CA,95816,-121.4665591,38.56843068,96.55,,dialysis
"3300 VISTA WAY, SUITE A NA OCEANSIDE CA 92056",OCEANSIDE,CA,92056,-117.3155974,33.18081012,99.31,,dialysis
"1260 15TH STREET, SUITE 102 NA SANTA MONICA CA 90404",SANTA MONICA,CA,90404,-118.4867947,34.02653413,99.33,,dialysis
"5429 W. CYPRESS AVENUE, SUITE A NA VISALIA CA 93277",VISALIA,CA,93277,-119.3517863,36.32442559,97.04,,dialysis
"1007 W. AVENUE M-14, SUITE B NA PALMDALE CA 93551",PALMDALE,CA,93551,-118.1481405,34.63304831,98.35,,dialysis
"20911 EARL STREET, SUITE 160 NA TORRANCE CA 90503",TORRANCE,CA,90503,-118.3580974,33.84044402,99.38,,dialysis
"11550 INDIAN HILLS ROAD, SUITE 100 NA MISSION HILLS CA 91345",MISSION HILLS,CA,91345,-118.4588739,34.28029407,98.74,,dialysis
"50 N. LA CIENEGA BLVD., SUITE 300 NA BEVERLY HILLS CA 90211",BEVERLY HILLS,CA,90211,-118.3762504,34.06689455,98.72,,dialysis
393 BLOSSOM HILL ROAD SUITE 110 NA SAN JOSE CA 95123,SAN JOSE,CA,95123,-121.8269585,37.25147607,99.43,,dialysis
"4753 WEST SHAW AVENUE, SUITE 101 NA FRESNO CA 93722",FRESNO,CA,93722,-119.878906,36.80812255,97.22,,dialysis
18330 HWY 108 NA JAMESTOWN CA 95327,JAMESTOWN,CA,95327,-120.4236369,37.95537245,96,,dialysis
"17815 VENTURA BLVD., SUITE 100 NA ENCINO CA 91316",ENCINO,CA,91316,-118.5208411,34.16310128,97.12,,dialysis
"332 SANTA FE DRIVE, SUITE 100 NA ENCINITAS CA 92024",ENCINITAS,CA,92024,-117.285016,33.03955699,99.37,,dialysis
365 LENNON LANE #160 NA WALNUT CREEK CA 94598,WALNUT CREEK,CA,94598,-122.0300615,37.92770813,97.33,,dialysis
"1801 W. VALLEY BLVD., SUITE 102 NA ALHAMBRA CA 91803",ALHAMBRA,CA,91803,-118.1432962,34.07741849,99.38,,dialysis
"1801 HOLSER WALK, SUITE 310 NA OXNARD CA 93030",OXNARD,CA,93030,-119.1564068,34.2202154,99.2,,dialysis
"3801 LAS POSAS ROAD, SUITE 103 NA CAMARILLO CA 93010",CAMARILLO,CA,93010,-119.0193455,34.24135305,99.38,,dialysis
405 DOVER PARKWAY NA DELANO CA 93215,DELANO,CA,93215,-119.2496536,35.75559616,96.51,,dialysis
13939 E 14TH STREET STE 110 NA SAN LEANDRO CA 94578,SAN LEANDRO,CA,94578,-122.1407891,37.71381007,99.34,,dialysis
3636 NORTH FIRST #144 NA FRESNO CA 93726,FRESNO,CA,93726,-119.7723907,36.78374769,85.66,,dialysis
"720 GATEWAY CENTER DRIVE, SUITE B NA SAN DIEGO CA 92102",SAN DIEGO,CA,92102,-117.1142166,32.7136693,99.42,,dialysis
"809 S. ATLANTIC BLVD., SUITE 103 NA MONTEREY PARK CA 91754",MONTEREY PARK,CA,91754,-118.1371898,34.05243186,98.72,,dialysis
21615 HESPERIAN BOULEVARD SUITE F NA HAYWARD CA 94541,HAYWARD,CA,94541,-122.1154667,37.66112239,99.46,,dialysis
"20710 S. LEAPWOOD AVENUE, SUITE F NA CARSON CA 90746",CARSON,CA,90746,-118.2583731,33.84261678,87.88,,dialysis
110 S. FIFTH STREET NA EL CENTRO CA 92243,EL CENTRO,CA,92243,-115.5547773,32.7926773,96.38,,dialysis
14651 SOUTH BASCOM SUITE 100 NA LOS GATOS CA 95032,LOS GATOS,CA,95032,-121.9504822,37.25553627,86.84,,dialysis
"1938 TYLER AVENUE, SUITE J-168 NA SOUTH EL MONTE CA 91733",SOUTH EL MONTE,CA,91733,-118.0374545,34.0510874,96.25,,dialysis
"315 N. THIRD AVENUE, SUITE 104 NA COVINA CA 91723",COVINA,CA,91723,-117.8923864,34.08874252,99.41,,dialysis
"630 BAY BLVD., SUITE 101 NA CHULA VISTA CA 91910",CHULA VISTA,CA,91910,-117.0947687,32.62448971,98.67,,dialysis
21602 S. VERMONT AVENUE NA TORRANCE CA 90502,TORRANCE,CA,90502,-118.2902227,33.83276822,96.67,,dialysis
"36O CROWN POINT CIRCLE, SUITE 210 NA GRASS VALLEY CA 95945",GRASS VALLEY,CA,95945,-121.061695,39.21548,85,,dialysis
1620 WEST YOSEMITE AVE NA MANTECA CA 95337,MANTECA,CA,95337,-121.242721,37.79731256,96.73,,dialysis
"10012 NORWALK BLVD., SUITE 190 NA SANTA FE SPRINGS CA 90670",SANTA FE SPRINGS,CA,90670,-118.0726626,33.94709733,96.62,,dialysis
950 S. EASTERN AVENUE NA EAST LOS ANGELES CA 90022,EAST LOS ANGELES,CA,90022,-118.1739025,34.02258998,96.23,,dialysis
"1801 W. VALLEY BLVD., SUITE 204 NA ALHAMBRA CA 91803",ALHAMBRA,CA,91803,-118.1432982,34.07741823,96.91,,dialysis
"56845 TWENTY-NINE PALMS HIGHWAY, NA YUCCA VALLEY CA 92284",YUCCA VALLEY,CA,92284,-116.4242053,34.12055082,96.92,,dialysis
"23861 W. MCBEAN PARKWAY, SUITE E-11 NA VALENCIA CA 91355",VALENCIA,CA,91355,-118.5543692,34.39562252,87.47,,dialysis
"3780 KILROY AIRPORT WAY, SUITE 110 NA LONG BEACH CA 90806",LONG BEACH,CA,90806,-118.1450186,33.80729141,99.42,,dialysis
8095 CAMINO ARROYO #100 NA GILROY CA 95020,GILROY,CA,95020,-121.5606476,37.01955283,96.81,,dialysis
3011 CERES AVENUE #125 NA CHICO CA 95973,CHICO,CA,95973,-121.8384682,39.77591516,99.36,,dialysis
"1610 WEST KETTLEMAN LANE, SUITE D NA LODI CA 95242",LODI,CA,95242,-121.292856,38.11535763,97.45,,dialysis
1715 IRON HORSE DR STE 170 NA LONGMONT CO 80501,LONGMONT,CO,80501,-105.0608096,40.15918251,99.36,,dialysis
1057 S WADSWORTH BLVD STE 100 NA LAKEWOOD CO 80226,LAKEWOOD,CO,80226,-105.0816474,39.697948,99.39,,dialysis
108 WEST LEE AVE NA LAMAR CO 81052,LAMAR,CO,81052,-102.621665,38.08546,85,,dialysis
3426 LAKE AVENUE STE 110 NA PUEBLO CO 81004,PUEBLO,CO,81004,-104.6257429,38.21515266,99.38,,dialysis
"301 N. PRAIRIE AVENUE, SUITE 100 NA INGLEWOOD CA 90301",INGLEWOOD,CA,90301,-118.3439976,33.965715,99.39,,dialysis
"292 EUCLID AVENUE, SUITE 100 NA SAN DIEGO CA 92114",SAN DIEGO,CA,92114,-117.0850866,32.70719851,99.38,,dialysis
5961 UNIVERSITY AVENUE SUITE 317 SAN DIEGO CA 92115,SAN DIEGO,CA,92115,-117.0682874,32.75135309,97.41,,dialysis
322 EAST MAIN STREET SUITE 1A BRANFORD CT 06405,BRANFORD,CT,6405,-72.78747643,41.29255613,97.17,,dialysis
720 N MAIN STREET EXT SUITE 3 WALLINGFORD CT 06492,WALLINGFORD,CT,6492,-72.80945792,41.47286348,96.9,,dialysis
ONE HERALD SQUARE SUITE 100 NEW BRITAIN CT 06051,NEW BRITAIN,CT,6051,-72.77977945,41.66702939,96.96,,dialysis
821 STATE ROAD 44 NA NEW SMYRNA BEACH FL 32168,NEW SMYRNA BEACH,FL,32168,-80.93003398,29.01918291,97.24,,dialysis
14522 LANDSTAR BLVD SUITE 108 ORLANDO FL 32824,ORLANDO,FL,32824,-81.36131584,28.35288083,99.74,,dialysis
925 MAR WALT DR STE 2 NA FORT WALTON BEACH FL 32547,FORT WALTON BEACH,FL,32547,-86.63208379,30.45231271,99.45,,dialysis
5285 MCWHINNEY BLVD #190 NA LOVELAND CO 80538,LOVELAND,CO,80538,-104.9993748,40.41090868,96.73,,dialysis
"1865 W 121ST AVE, STE 300C NA WESTMINSTER CO 80234",WESTMINSTER,CO,80234,-105.0098011,39.91617472,96.55,,dialysis
"11700 W 2ND PL, STE 325 NA LAKEWOOD CO 80228",LAKEWOOD,CO,80228,-105.130086,39.715521,99.31,,dialysis
3410 S GALENA ST SUITE 100 NA DENVER CO 80231,DENVER,CO,80231,-104.8693047,39.65436847,99.39,,dialysis
9143 PHILIPS HWY SUITE 110 NA JACKSONVILLE FL 32256,JACKSONVILLE,FL,32256,-81.57282964,30.20059511,99.55,,dialysis
219 NW 12TH AVE #C4 NA MIAMI FL 33128,MIAMI,FL,33128,-80.21469168,25.7758903,96.5,,dialysis
26338 US HWY 19 N NA CLEARWATER FL 33761,CLEARWATER,FL,33761,-82.73581091,28.01322122,97.55,,dialysis
2514 N STATE ROAD 7 NA MARGATE FL 33063,MARGATE,FL,33063,-80.20147309,26.25940923,98,,dialysis
1625 UNITY WAY NW NA WINTER HAVEN FL 33881,WINTER HAVEN,FL,33881,-81.7309861,28.03813533,97.5,,dialysis
5135 ADANSON ST STE 700 NA ORLANDO FL 32804,ORLANDO,FL,32804,-81.39347418,28.60542044,99.63,,dialysis
6071 E WOODMEN RD STE 100/120 NA COLORADO SPRINGS CO 80923,COLORADO SPRINGS,CO,80923,-104.7167844,38.94022131,99.22,,dialysis
10371 S PARK GLENN WAY STE 180 NA PARKER CO 80138,PARKER,CO,80138,-104.7651185,39.5305654,97.12,,dialysis
2180 HOLLOWBROOK DR NA COLORADO SPRINGS CO 80918,COLORADO SPRINGS,CO,80918,-104.7855705,38.92065896,96.19,,dialysis
CHILDRENS HOSP DIALYSIS UNIT RM 3130 111 MICHIGAN AVE NW WASHINGTON DC 20010,WASHINGTON,DC,20010,-77.01375384,38.92768706,94.81,,dialysis
11 DUPONT CIR NW STE LL100 WASHINGTON DC 20036,WASHINGTON,DC,20036,-77.04258306,38.91010765,96.91,,dialysis
106 IRVING ST NW STE 1400 WASHINGTON DC 20010,WASHINGTON,DC,20010,-77.01439598,38.9293745,96.85,,dialysis
4601 MARTI LUTHER KING JR. AVENUE SOUTHWEST SUITE A WASHINGTON DC 20032,WASHINGTON,DC,20032,-77.01322779,38.82485871,97.5,,dialysis
14965 OLD ST AUGUSTINE RD UNIT 114 NA JACKSONVILLE FL 32258,JACKSONVILLE,FL,32258,-81.52032071,30.14188733,99.59,,dialysis
2424 B WARM SPRINGS ROAD NA COLUMBUS GA 31904,COLUMBUS,GA,31904,-84.95493537,32.50139886,95.57,,dialysis
165 EMERY HIGHWAY SUITE 101 NA MACON GA 31217,MACON,GA,31217,-83.62398403,32.8481825,97.14,,dialysis
419 E FIRST ST NA SANFORD FL 32771,SANFORD,FL,32771,-81.26417503,28.81173253,97.8,,dialysis
6541 ST JOHN AVE NA PALATKA FL 32177,PALATKA,FL,32177,-81.69279412,29.64814274,96.08,,dialysis
4515 GEORGE RD SUITE 300 NA TAMPA FL 33634,TAMPA,FL,33634,-82.55047253,27.98463599,99.7,,dialysis
561 25 ROAD STE D NA GRAND JUNCTION CO 81505,GRAND JUNCTION,CO,81505,-108.5894793,39.08590139,99.2,,dialysis
605 W. NEWPORT PIKE NA WILMINGTON DE 19804,WILMINGTON,DE,19804,-75.61556572,39.71378313,96.27,,dialysis
"97 COMMERCE WAY, SUITE 104 NA DOVER DE 19904",DOVER,DE,19904,-75.54676387,39.15348124,99.4,,dialysis
635 4TH ST NO NA SAINT PETERSBURG FL 33701,SAINT PETERSBURG,FL,33701,-82.63850255,27.779087,96.96,,dialysis
4204 N MACDILL AVE SOUTH BLDG NA TAMPA FL 33607,TAMPA,FL,33607,-82.49375867,27.90391383,95.32,,dialysis
"2200 PLAZA PARKWAY,  SUITE B1-B4 NA MODESTO CA 95350",MODESTO,CA,95350,-121.0339045,37.67159248,97.09,,dialysis
145 W. VICTORIA STREET NA LONG BEACH CA 90805,LONG BEACH,CA,90805,-118.2027551,33.86489344,96.54,,dialysis
2525 SECOND STREET NA MACON GA 31206,MACON,GA,31206,-83.64626161,32.8142946,96.67,,dialysis
2700 HIGHLANDS PARKWAY STE A NA SMYRNA GA 30082,SMYRNA,GA,30082,-84.49331739,33.82837911,88.06,,dialysis
4553 GUNN HWY WESTWOOD PLAZA TAMPA FL 33624,TAMPA,FL,33624,-82.51972143,28.04934034,96.25,,dialysis
8585 SW HIGHWAY 200 SUITE 19 OCALA FL 34481,OCALA,FL,34481,-82.26231033,29.07439849,99.79,,dialysis
4700 E BROMLEY LN STE 103 NA BRIGHTON CO 80601,BRIGHTON,CO,80601,-104.758871,39.97231254,99.35,,dialysis
1510 HIGHWAY 41 NORTH NA INVERNESS FL 34450,INVERNESS,FL,34450,-82.34279596,28.84348799,97.77,,dialysis
"44950 VALLEY CENTRAL WAY, SUITE 108 NA LANCASTER CA 93536",LANCASTER,CA,93536,-118.174083,34.69877365,97.14,,dialysis
1525 MERIDIAN AVENUE SUITE 101 NA SAN JOSE CA 95125,SAN JOSE,CA,95125,-121.9136205,37.29735534,99.43,,dialysis
901 LOS COCHES DRIVE NA SOLEDAD CA 93960,SOLEDAD,CA,93960,-121.3173404,36.41515509,96.6,,dialysis
794 MCDONOUGH ROAD SUITE 103 JACKSON GA 30233,JACKSON,GA,30233,-83.97540982,33.30104173,99.46,,dialysis
100 NW 170TH ST STE 106 NA NORTH MIAMI BEACH FL 33169,NORTH MIAMI BEACH,FL,33169,-80.20307797,25.93080367,99.47,,dialysis
19801 HAMPTON DR NA BOCA RATON FL 33434,BOCA RATON,FL,33434,-80.19477754,26.38222599,97.71,,dialysis
1190 NW 95TH ST STE 208 NA MIAMI FL 33150,MIAMI,FL,33150,-80.21481439,25.86163411,99.68,,dialysis
8661 S US HWY 1 NA PORT SAINT LUCIE FL 34952,PORT SAINT LUCIE,FL,34952,-80.31165974,27.31080168,97.09,,dialysis
745 W SR 434 STE A NA LONGWOOD FL 32750,LONGWOOD,FL,32750,-81.35717065,28.697945,99.56,,dialysis
12674 TELECOM DRIVE NA TAMPA FL 33637,TAMPA,FL,33637,-82.37892716,28.06183428,98.37,,dialysis
100 GRAND STREET NA NEW BRITAIN CT 06050,NEW BRITAIN,CT,6050,-72.78661858,41.66205498,95.65,,dialysis
"HEMODIALYSIS UNIT, CHRISTIANA HOSPITAL 4755 OGLETOWN-STANTON ROAD, P.O. BOX 6001 NEWARK DE 19718",NEWARK,DE,19718,-75.66979,39.68813,94.54,,dialysis
4300 KINGS HWY #406-D17 NA PORT CHARLOTTE FL 33980,PORT CHARLOTTE,FL,33980,-82.07030063,26.96321995,95.83,,dialysis
"375 ROLLING OAKS DRIVE, SUITE 100 NA THOUSAND OAKS CA 91361",THOUSAND OAKS,CA,91361,-118.8705975,34.17433277,99.37,,dialysis
73 N ASPEN SKI WAY NA PUEBLO WEST CO 81007,PUEBLO WEST,CO,81007,-104.7378267,38.33842921,96.2,,dialysis
1725 OAKHURST AVENUE SUITE 100 NA JACKSONVILLE FL 32208,JACKSONVILLE,FL,32208,-81.68504539,30.38599493,99.58,,dialysis
12961 NORTH MAIN ST SUITE 305 NA JACKSONVILLE FL 32218,JACKSONVILLE,FL,32218,-81.63030494,30.47418877,99.56,,dialysis
444 PARK 20 WEST DRIVE NA GROVETOWN GA 30813,GROVETOWN,GA,30813,-82.13473885,33.48008429,95.58,,dialysis
8425 US HIGHWAY 441 SUITE 104 LEESBURG FL 34788,LEESBURG,FL,34788,-81.8170058,28.83247057,99.7,,dialysis
245 S COURTENAY PKWY BLDG A NA MERRITT ISLAND FL 32952,MERRITT ISLAND,FL,32952,-80.7001809,28.35283716,99.53,,dialysis
1500 N FEDERAL HWY #100 NA FORT LAUDERDALE FL 33304,FORT LAUDERDALE,FL,33304,-80.12002253,26.146744,96.29,,dialysis
3421 S RIO GRANDE STE D NA MONTROSE CO 81401,MONTROSE,CO,81401,-107.8694483,38.44613342,85.4,,dialysis
8601 W CROSS DR SUITE C2 NA DENVER CO 80123,DENVER,CO,80123,-105.0935958,39.61451487,96.81,,dialysis
2000 CONTINENTAL DR STE A NA WEST PALM BEACH FL 33407,WEST PALM BEACH,FL,33407,-80.08507351,26.75660671,99.52,,dialysis
3801 WOODLAKE DRIVE NA HEPHZIBAH GA 30815,HEPHZIBAH,GA,30815,-82.08584931,33.37895475,96.47,,dialysis
1250 NORTH MEADOW PKWY SUITE 120 ROSWELL GA 30076,ROSWELL,GA,30076,-84.31508754,34.06146701,99.49,,dialysis
12505 STARKEY RD SUITE B NA LARGO FL 33773,LARGO,FL,33773,-82.7622901,27.88603254,99.7,,dialysis
264 SOUTHPARK CIR E NA SAINT AUGUSTINE FL 32086,SAINT AUGUSTINE,FL,32086,-81.32541799,29.86262101,97.33,,dialysis
"4923 OGLETOWN-STANTON ROAD, SUITE 210 NA NEWARK DE 19713",NEWARK,DE,19713,-75.66310519,39.69711157,97.46,,dialysis
"2520 WRANGLE HILL ROAD, SUITE 100 NA BEAR DE 19701",BEAR,DE,19701,-75.7152895,39.60488461,97.45,,dialysis
"1415 PULASKI HIGHWAY, SUITE B NA NEWARK DE 19702",NEWARK,DE,19702,-75.67975651,39.62443091,97.12,,dialysis
"5936 LIMESTONE ROAD, SUITE 101 NA HOCKESSIN DE 19707",HOCKESSIN,DE,19707,-75.70369322,39.75806209,99.39,,dialysis
850 RIVERSIDE DRIVE NA POMPANO BEACH FL 33071,POMPANO BEACH,FL,33071,-80.24306446,26.24284735,97.44,,dialysis
4970 SOUTH US HWY 17-92 NA CASSELBERRY FL 32707,CASSELBERRY,FL,32707,-81.33976203,28.66771299,97.68,,dialysis
3727 N GOLDENROD RD NA WINTER PARK FL 32792,WINTER PARK,FL,32792,-81.28642253,28.59435,97.69,,dialysis
1150 LAKE HEARN DRIVE SUITE 100 ATLANTA GA 30342,ATLANTA,GA,30342,-84.34930297,33.91252751,99.48,,dialysis
2485 PARK CENTRAL BLVD NA DECATUR GA 30035,DECATUR,GA,30035,-84.17313758,33.71500838,96.73,,dialysis
2545 SULLIVAN ROAD NA COLLEGE PARK GA 30337,COLLEGE PARK,GA,30337,-84.47282699,33.62472749,97.23,,dialysis
612 DEL SOL DR NA ALAMOSA CO 81101,ALAMOSA,CO,81101,-105.9027294,37.47952836,96.1,,dialysis
710 WELLINGTON AVE STE 20 NA GRAND JUNCTION CO 81501,GRAND JUNCTION,CO,81501,-108.560947,39.09002755,99.3,,dialysis
4407 VINELAND RD SUITE D2 ORLANDO FL 32811,ORLANDO,FL,32811,-81.43041298,28.49822701,99.71,,dialysis
160 NW 176TH ST #100 NA MIAMI FL 33169,MIAMI,FL,33169,-80.20331635,25.93608586,99.66,,dialysis
2800 N STATE ROAD 7 NA MARGATE FL 33063,MARGATE,FL,33063,-80.20150142,26.26120258,98,,dialysis
1575 NORTHSIDE DRIVE NE SUITE 365 ATLANTA GA 30318,ATLANTA,GA,30318,-84.41047,33.773075,85,,dialysis
747 SECOND STREET NA MACON GA 31201,MACON,GA,31201,-83.6329065,32.83206171,96.59,,dialysis
1040 EAST NINE MILE RD NA PENSACOLA FL 32514,PENSACOLA,FL,32514,-87.24297539,30.53276994,97.88,,dialysis
1905 CLINT MOORE RD STE 211 NA BOCA RATON FL 33496,BOCA RATON,FL,33496,-80.12529567,26.40770978,99.61,,dialysis
"BLUE HEN CORPORATE CENTER 655 SOUTH BAY ROAD, SUITE 4M DOVER DE 19901",DOVER,DE,19901,-75.50262603,39.15233099,99,,dialysis
2141 LOCH RAND BLVD #113 NA ORANGE PARK FL 32073,ORANGE PARK,FL,32073,-81.74974103,30.1644002,96.92,,dialysis
"9808 VENICE BLVD., SUITE 200 NA CULVER CITY CA 90232",CULVER CITY,CA,90232,-118.3980986,34.02363416,99.34,,dialysis
"636 E. BRIER DRIVE, SUITE 150 NA SAN BERNARDINO CA 92408",SAN BERNARDINO,CA,92408,-117.2716373,34.0702137,99.31,,dialysis
110 LONDONDERRY COURT SUITE 100 WOODSTOCK GA 30188,WOODSTOCK,GA,30188,-84.50543259,34.08572399,99.46,,dialysis
906 E FIRST STREET NA VIDALIA GA 30474,VIDALIA,GA,30474,-82.40126921,32.21247596,96.44,,dialysis
2575 S VOLUSIA AVE #400 NA ORANGE CITY FL 32763,ORANGE CITY,FL,32763,-81.30205209,28.9145444,96.48,,dialysis
1222 WINTER GARDEN VINELAND ROAD BLDG 3 SUITE 100 WINTER GARDEN FL 34787,WINTER GARDEN,FL,34787,-81.58770375,28.54809388,99.52,,dialysis
3227 LEE BOULEVARD UNIT A LEHIGH ACRES FL 33971,LEHIGH ACRES,FL,33971,-81.68298403,26.61707254,99.61,,dialysis
601 N FLAMINGO ROAD STE 109 NA HOLLYWOOD FL 33028,HOLLYWOOD,FL,33028,-80.31189387,26.01228504,96.69,,dialysis
"5397 WEST COLONIAL DRIVE, SUITE #120 NA ORLANDO FL 32808",ORLANDO,FL,32808,-81.45356765,28.55256504,97.29,,dialysis
"RIVERSIDE MEDICAL ARTS COMPLEX, SUITE G2 700 W. LEA BOULEVARD WILMINGTON DE 19802",WILMINGTON,DE,19802,-75.52989571,39.76836743,98.95,,dialysis
1680 OSCEOLA ELEMENTARY ROAD SUITE B NA SAINT AUGUSTINE FL 32084,SAINT AUGUSTINE,FL,32084,-81.33711452,29.87064694,99.57,,dialysis
17801 NW 2ND AVE SUITE 229 MIAMI FL 33169,MIAMI,FL,33169,-80.2046904,25.93887913,97.33,,dialysis
"2020 S. HACIENDA BLVD., SUITE G NA HACIENDA HEIGHTS CA 91745",HACIENDA HEIGHTS,CA,91745,-117.9678238,33.9966692,96.52,,dialysis
4348 WOODLAND BLVD STE 131 NA CASTLE ROCK CO 80104,CASTLE ROCK,CO,80104,-104.8527325,39.40632072,97.23,,dialysis
723 DELAWARE ST #M105 NA DENVER CO 80204,DENVER,CO,80204,-104.9929145,39.72780497,96.67,,dialysis
11306 53RD ST NA TEMPLE TERRACE FL 33617,TEMPLE TERRACE,FL,33617,-82.3955494,28.05137522,87.26,,dialysis
6925 LAKE ELLENOR DR STE 650 NA ORLANDO FL 32809,ORLANDO,FL,32809,-81.40067088,28.4662309,99.66,,dialysis
4204 N. MAC DILL AVE NORTH BLDG. SUITE 1 TAMPA FL 33607,TAMPA,FL,33607,-82.49306748,27.97752998,93.12,,dialysis
1260 UPPER HEMBREE ROAD SUITE A ROSWELL GA 30076,ROSWELL,GA,30076,-84.32299201,34.06734633,99.48,,dialysis
14153 YOSEMITE DR STE 102 NA HUDSON FL 34667,HUDSON,FL,34667,-82.68691751,28.36347002,99.67,,dialysis
5600 W COLONIAL DR STE 101 NA ORLANDO FL 32808,ORLANDO,FL,32808,-81.45806823,28.55220257,99.65,,dialysis
750 WEST HAMPDEN AVE #110 NA ENGLEWOOD CO 80110,ENGLEWOOD,CO,80110,-104.996451,39.65315251,99.33,,dialysis
LANTANA SQUARE SHOPPING CENTER 214 LANTANA DRIVE HOCKESSIN DE 19707,HOCKESSIN,DE,19707,-75.71099293,39.77426498,94.19,,dialysis
"1198 SOUTH GOVERNORS AVENUE BUILDING B, SUITE 201 DOVER DE 19904",DOVER,DE,19904,-75.52664904,39.13855498,98.15,,dialysis
1407 SOUTHEAST GOLDTREE DRIVE STE A NA PORT SAINT LUCIE FL 34952,PORT SAINT LUCIE,FL,34952,-80.29417316,27.28482268,99.57,,dialysis
16201 SUITE 102 PANAMA CITY BEACH PKWY NA PANAMA CITY FL 32413,PANAMA CITY,FL,32413,-85.87950941,30.22727374,99.55,,dialysis
5258-10 NORWOOD AVENUE NA JACKSONVILLE FL 32208,JACKSONVILLE,FL,32208,-81.66379708,30.37112288,96.81,,dialysis
325 CEDAR ROAD NA METTER GA 30439,METTER,GA,30439,-82.10740151,32.34621448,87.45,,dialysis
2096 MCGEE ROAD NA SNELLVILLE GA 30078,SNELLVILLE,GA,30078,-84.03552046,33.85647685,96.12,,dialysis
9332 STATE ROAD 54 SUITE 306 TRINITY FL 34655,TRINITY,FL,34655,-82.65953425,28.20599141,99.63,,dialysis
750 S NORTH LAKE BLVD STE 1024 NA ALTAMONTE SPRINGS FL 32701,ALTAMONTE SPRINGS,FL,32701,-81.38635744,28.64760145,88.98,,dialysis
1299 EAST COMMERCIAL BLVD #100 NA OAKLAND PARK FL 33334,OAKLAND PARK,FL,33334,-80.13054601,26.18906754,99.59,,dialysis
80 SALT CREEK DRIVE NA DOVER DE 19901,DOVER,DE,19901,-75.57063503,39.20915899,96.67,,dialysis
1417 FOULK ROAD NA WILMINGTON DE 19803,WILMINGTON,DE,19803,-75.52463104,39.80197199,96.12,,dialysis
"230 E. MAIN STREET, UNIT 325 NA NEWARK DE 19711",NEWARK,DE,19711,-75.74382636,39.68380572,96.94,,dialysis
36819 EILAND BLVD UNIT 2 ZEPHYRHILLS FL 33542,ZEPHYRHILLS,FL,33542,-82.2073631,28.24468123,96.79,,dialysis
2501 DYKES RD SUITE 200 NA MIRAMAR FL 33027,MIRAMAR,FL,33027,-80.35977692,25.98571283,96.73,,dialysis
515 PALM COAST PARKWAY SW ROMA COURT #2 #3 #4 PALM COAST FL 32137,PALM COAST,FL,32137,-81.2418541,29.55117711,96.77,,dialysis
5825 GLENRIDGE DRIVE BLDG 3 SUITE 150 ATLANTA GA 30328,ATLANTA,GA,30328,-84.36230255,33.91481199,97.63,,dialysis
7815 CORAL WAY STE 115 NA MIAMI FL 33155,MIAMI,FL,33155,-80.32255654,25.74816863,96.82,,dialysis
1750 SW HEALTH PARKWAY NA NAPLES FL 34109,NAPLES,FL,34109,-81.78584239,26.27032209,98.3,,dialysis
7061 CYPRESS RD STE 103 NA PLANTATION FL 33317,PLANTATION,FL,33317,-80.2429677,26.12405968,99.56,,dialysis
8410 DECATUR ST STE 200 NA WESTMINSTER CO 80031,WESTMINSTER,CO,80031,-105.0224554,39.84958086,96.49,,dialysis
12365 HURON ST STE 500 NA WESTMINSTER CO 80234,WESTMINSTER,CO,80234,-104.9967875,39.92139801,99.29,,dialysis
UNIVERSITY PLAZA SHOPPING CENTER 63 UNIVERSITY PLAZA NEWARK DE 19702,NEWARK,DE,19702,-75.66894696,39.66626001,94.17,,dialysis
656D NORTH DUPONT HIGHWAY NA MILFORD DE 19963,MILFORD,DE,19963,-75.44083967,38.91772227,85.99,,dialysis
1921 WALDEMERE ST STE 107 NA SARASOTA FL 34239,SARASOTA,FL,34239,-82.53142868,27.31920303,99.62,,dialysis
1515 INDIAN RIVER BLVD STE A-101 NA VERO BEACH FL 32960,VERO BEACH,FL,32960,-80.37881102,27.62968896,97,,dialysis
"3333 W. COAST HIGHWAY, SUITE 101 NA NEWPORT BEACH CA 92663",NEWPORT BEACH,CA,92663,-117.926773,33.62120252,96.77,,dialysis
595 HURRICANE SHOALS RD NW SUITE 202 LAWRENCEVILLE GA 30046,LAWRENCEVILLE,GA,30046,-84.0102772,33.96312457,99.43,,dialysis
6320 HOLLY ST NA COMMERCE CITY CO 80022,COMMERCE CITY,CO,80022,-104.9221925,39.81128499,95.88,,dialysis
"19339 COASTAL HIGHWAY, SUITE 100 NA REHOBOTH BEACH DE 19971",REHOBOTH BEACH,DE,19971,-75.12258199,38.72309088,96.81,,dialysis
"ST. FRANCIS MEDICAL OFFICE BUILDING, SUITE 404 7TH AND CLAYTON STREET WILMINGTON DE 19805",WILMINGTON,DE,19805,-75.56658992,39.74952005,92.93,,dialysis
"GATEWAY NORTH SHOPPING CENTER 210 STADIUM STREET, RT. 13 SMYRNA DE 19977",SMYRNA,DE,19977,-75.58976575,39.2806714,94.03,,dialysis
401 E NORTH AVE NA LEESBURG FL 34748,LEESBURG,FL,34748,-81.87185999,28.81435099,95.83,,dialysis
731 WEST LUMSDEN NA BRANDON FL 33511,BRANDON,FL,33511,-82.29640246,27.92312837,96.82,,dialysis
720 CLYDE MORRIS BLVD NA DAYTONA BEACH FL 32114,DAYTONA BEACH,FL,32114,-81.06122543,29.21191849,89.94,,dialysis
292 INDUSTRIAL BLVD SUITE 100 HAWKINSVILLE GA 31036,HAWKINSVILLE,GA,31036,-83.48375001,32.30541752,99.4,,dialysis
449 INDUSTRIAL BLVD #240 NA ELLIJAY GA 30540,ELLIJAY,GA,30540,-84.485326,34.68626723,96.8,,dialysis
1989 STAMBUK LANE SUITE A STATESBORO GA 30458,STATESBORO,GA,30458,-81.76366569,32.40531758,96.91,,dialysis
521 NORTH EXPRESSWAY SUITE 1509 GRIFFIN GA 30223,GRIFFIN,GA,30223,-84.28832584,33.2570227,97.45,,dialysis
"3470 LA SIERRA AVENUE, SUITE E NA RIVERSIDE CA 92503",RIVERSIDE,CA,92503,-117.4724839,33.8988363,99.38,,dialysis
9267 GREENBACK LANE #A2 NA ORANGEVALE CA 95662,ORANGEVALE,CA,95662,-121.2085988,38.67873058,99.31,,dialysis
"1149 W. 190TH STREET, SUITE 1004 NA GARDENA CA 90248",GARDENA,CA,90248,-118.2965195,33.85834374,99.42,,dialysis
8470 COOPER CREEK BLVD NA UNIVERSITY PARK FL 34201,UNIVERSITY PARK,FL,34201,-82.45383623,27.39218757,97.47,,dialysis
12703 TAMIAMI TRAIL EAST # 121 NA NAPLES FL 34113,NAPLES,FL,34113,-81.70032702,26.06758401,97.12,,dialysis
4612 ROSEVILLE ROAD SUITE 100 NA NORTH HIGHLANDS CA 95660,NORTH HIGHLANDS,CA,95660,-121.3871716,38.65274026,96.67,,dialysis
105 MELVIN PAGE DR NA VIDALIA GA 30474,VIDALIA,GA,30474,-82.39037944,32.20050254,96.44,,dialysis
105 PROFESSIONAL PLACE NA CALHOUN GA 30701,CALHOUN,GA,30701,-84.92712271,34.49681535,86.81,,dialysis
911 MARKET PLACE BLVD SUITE 3 CUMMING GA 30041,CUMMING,GA,30041,-84.13381145,34.18178374,99.46,,dialysis
D/B/A PERRY DIALYSIS CENTER 1027 KEITH DR PERRY GA 31069,PERRY,GA,31069,-83.70745236,32.45972266,94.04,,dialysis
3850 NW 83RD STREET STE 101 NA GAINESVILLE FL 32606,GAINESVILLE,FL,32606,-82.43028191,29.68842738,96.67,,dialysis
5837 WEST 21ST AVENUE NA BRADENTON FL 34209,BRADENTON,FL,34209,-82.61854616,27.48122631,96.77,,dialysis
2150 45TH STREET SUITE 102 VERO BEACH FL 32967,VERO BEACH,FL,32967,-80.40624766,27.67502124,97.04,,dialysis
"PROBST BUILDING 39000 BOB HOPE DRIVE, SUITE 103 NA RANCHO MIRAGE CA 92270",RANCHO MIRAGE,CA,92270,-116.4080669,33.76462049,95.57,,dialysis
2227 EL CAMINO REAL SUITE B OCEANSIDE CA 92054,OCEANSIDE,CA,92054,-117.3284198,33.1865876,87.74,,dialysis
7720 US HWY 98 W SUITE 150 MIRAMAR BEACH FL 32550,MIRAMAR BEACH,FL,32550,-86.30541487,30.3766187,96.72,,dialysis
1301 S ANDREWS AVE SUITE 101 FORT LAUDERDALE FL 33315,FORT LAUDERDALE,FL,33315,-80.14305332,26.10561124,99.42,,dialysis
1355 PALM BAY RD NA PALM BAY FL 32905,PALM BAY,FL,32905,-80.63324981,28.03529508,97.44,,dialysis
4700 CONGRESS AVE STE 106 NA WEST PALM BEACH FL 33407,WEST PALM BEACH,FL,33407,-80.08634471,26.76244077,90.07,,dialysis
15300 JOG ROAD SUITE 104 DELRAY BEACH FL 33446,DELRAY BEACH,FL,33446,-80.1467926,26.44963849,96.79,,dialysis
4880 LOWER ROSWELL RD SUITE 770 MARIETTA GA 30068,MARIETTA,GA,30068,-84.40809297,33.96377601,99.46,,dialysis
"1181 BROADWAY, SUITE 5 NA CHULA VISTA CA 91911",CHULA VISTA,CA,91911,-117.080116,32.60735043,98.67,,dialysis
44 TU SU LANE NA BISHOP CA 93514,BISHOP,CA,93514,-118.3953143,37.36446,85,,dialysis
"2685 EXECUTIVE PARK DRIVE, SUITE #1 NA WESTON FL 33331",WESTON,FL,33331,-80.37322549,26.08552715,99.71,,dialysis
1905 CLINT MOORE RD STE 306 NA BOCA RATON FL 33496,BOCA RATON,FL,33496,-80.12529567,26.40770978,99.61,,dialysis
6228 BRADLEY PARK DRIVE SUITE B COLUMBUS GA 31904,COLUMBUS,GA,31904,-84.96321837,32.53523258,99.46,,dialysis
806 FORREST DRIVE NA DAWSON GA 39842,DAWSON,GA,39842,-84.444235,31.77409,85,,dialysis
1522 N DIXIE HWY NA WEST PALM BEACH FL 33401,WEST PALM BEACH,FL,33401,-80.05308247,26.72707898,97.27,,dialysis
4895 WINDWARD PASSAGE DR STE 5 NA BOYNTON BEACH FL 33436,BOYNTON BEACH,FL,33436,-80.12152197,26.54943498,96.77,,dialysis
890 SECOND STREET 1ST FLOOR MACON GA 31201,MACON,GA,31201,-83.6343366,32.83020081,97.45,,dialysis
"3268 GREENBRIAR PKWY, SW NA ATLANTA GA 30331",ATLANTA,GA,30331,-84.49678071,33.68606357,96.8,,dialysis
1279 HWY 54 WEST #110 NA FAYETTEVILLE GA 30214,FAYETTEVILLE,GA,30214,-84.50941333,33.45076737,99.25,,dialysis
2070 PALMETTO ST SUITE 9 MIDDLEBURG FL 32068,MIDDLEBURG,FL,32068,-81.86293771,30.07249285,99.63,,dialysis
551858 US HWY 1 #118 NA HILLIARD FL 32046,HILLIARD,FL,32046,-81.91892043,30.6927477,96.38,,dialysis
617 LAKEVIEW RD SUITE C NA CLEARWATER FL 33756,CLEARWATER,FL,33756,-82.79786298,27.94813247,99.56,,dialysis
560 FIRST STREET BLDG D103 NA BENICIA CA 94510,BENICIA,CA,94510,-122.1594173,38.04858354,99.38,,dialysis
737 W. HOBSON WAY NA BLYTHE CA 92225,BLYTHE,CA,92225,-114.6047599,33.61031885,96.34,,dialysis
"1001 POTRERO BLDG. 100, ROOM 342 NA SAN FRANCISCO CA 94110",SAN FRANCISCO,CA,94110,-122.4052299,37.75518006,89.81,,dialysis
"425 BEVERLY PLACE, SUITE A NA TRACY CA 95376",TRACY,CA,95376,-121.4183323,37.74526346,87.69,,dialysis
1250 NW 7TH ST STE 106 NA MIAMI FL 33125,MIAMI,FL,33125,-80.21597202,25.78018251,99.67,,dialysis
27401 CASHFORD CIRCLE #102 NA WESLEY CHAPEL FL 33544,WESLEY CHAPEL,FL,33544,-82.35943999,28.18999249,96.61,,dialysis
5340 USEPPA DRIVE SUITE 101 NA AVE MARIA FL 34142,AVE MARIA,FL,34142,-81.4387575,26.32255317,99.64,,dialysis
"1365 ROCK QUARRY ROAD, ST 100 NA STOCKBRIDGE GA 30281",STOCKBRIDGE,GA,30281,-84.22999756,33.51521398,95.9,,dialysis
2400 BELLEVUE ROAD ERIN OFFICE PARK #8 DUBLIN GA 31021,DUBLIN,GA,31021,-82.94259082,32.52895309,95.09,,dialysis
6955 FOOTHILL BLVD. STE 220 NA OAKLAND CA 94605,OAKLAND,CA,94605,-122.1732935,37.76924262,96.92,,dialysis
655 HELEN RUNYON DR NA BARSTOW CA 92311,BARSTOW,CA,92311,-117.0195587,34.89143692,96.52,,dialysis
"UCSD DIALYSIS CENTER - 200 W. ARBOR DRIVE DIALYSIS PROGRAM, MAIL CODE 8781 SAN DIEGO CA 92103",SAN DIEGO,CA,92103,-117.1661214,32.75373727,93.26,,dialysis
14942 TAMIAMI TRAIL SUITE G NA NORTH PORT FL 34287,NORTH PORT,FL,34287,-82.22234106,27.03890481,99.61,,dialysis
11706 MERCY BLVD BLDG 9 SAVANNAH GA 31419,SAVANNAH,GA,31419,-81.15287065,31.98541699,99.39,,dialysis
301 NORTH BROAD STREE NA WINDER GA 30680,WINDER,GA,30680,-83.7204353,33.9930846,85,,dialysis
7840 ROSWELL RD BLDG 200 STE 210 NA ATLANTA GA 30350,ATLANTA,GA,30350,-84.36036239,33.96966024,99.43,,dialysis
3546 HWY 138 SE NA STOCKBRIDGE GA 30281,STOCKBRIDGE,GA,30281,-84.27521791,33.54953003,96,,dialysis
380 FOREST PARKWAY NA FOREST PARK GA 30297,FOREST PARK,GA,30297,-84.37725335,33.62077429,97.27,,dialysis
4645 TIMBER RIDGE ROAD BLDG 200 SUITE 140 DOUGLASVILLE GA 30135,DOUGLASVILLE,GA,30135,-84.8153165,33.81639419,91.04,,dialysis
1350 MONTREAL ROAD SUITE 200 TUCKER GA 30084,TUCKER,GA,30084,-84.25088241,33.82328325,99.48,,dialysis
"7007 MISSION GORGE ROAD, 1ST FLOOR NA SAN DIEGO CA 92120",SAN DIEGO,CA,92120,-117.091299,32.80032904,97.17,,dialysis
"305 E. GRANGER AVE.., STE. 102 NA MODESTO CA 95350",MODESTO,CA,95350,-120.989162,37.66729751,99.36,,dialysis
1987 CANDLER RD NA DECATUR GA 30032,DECATUR,GA,30032,-84.28429879,33.73306669,96.28,,dialysis
1856 THOMPSON BRIDGE ROAD SUITE 101 GAINESVILLE GA 30501,GAINESVILLE,GA,30501,-83.83826814,34.32928889,99.45,,dialysis
5503 SOUTH CONGRESS AVE SUITE 101 ATLANTIS FL 33462,ATLANTIS,FL,33462,-80.09209034,26.59577739,99.72,,dialysis
2940 N. BLUE ANGEL PARKWAY NA PENSACOLA FL 32506,PENSACOLA,FL,32506,-87.32450057,30.43153389,98,,dialysis
510 N MCARTHUR AVE NA PANAMA CITY FL 32401,PANAMA CITY,FL,32401,-85.64922987,30.15765755,95.6,,dialysis
2525 E. HILLSBOROUGH AVE SUITE 209 TAMPA FL 33610,TAMPA,FL,33610,-82.43065599,27.99606245,99.81,,dialysis
9400 GLADIOLUS DR STE 200 NA FORT MYERS FL 33908,FORT MYERS,FL,33908,-81.90889682,26.52055903,96.73,,dialysis
5934 BERRY HILL ROAD #2 NA MILTON FL 32570,MILTON,FL,32570,-87.0706253,30.6338897,96.74,,dialysis
555 WEST BENJAMIN HOLT DRIVE  #200 NA STOCKTON CA 95207,STOCKTON,CA,95207,-121.3189256,38.01150447,99.42,,dialysis
1721 W. WHITTIER BLVD. NA MONTEBELLO CA 90640,MONTEBELLO,CA,90640,-118.120092,34.01234801,96.42,,dialysis
657 HEMLOCK ST STE 100 NA MACON GA 31201,MACON,GA,31201,-83.63428052,32.83195684,96.82,,dialysis
3431 HWY 81 S NA LOGANVILLE GA 30052,LOGANVILLE,GA,30052,-83.8971152,33.8384678,85,,dialysis
1705 BELLE MEADE CT STE 110 NA LAWRENCEVILLE GA 30043,LAWRENCEVILLE,GA,30043,-84.05612922,33.9630926,99.31,,dialysis
312 MOWHAWK RD NA CLERMONT FL 34715,CLERMONT,FL,34715,-81.73163343,28.56709998,94.76,,dialysis
497 WINN WAY SUITE 160 NA DECATUR GA 30030,DECATUR,GA,30030,-84.28000902,33.79017666,99.33,,dialysis
1747 LANGFORD DRIVE BLDG 500 WATKINSVILLE GA 30677,WATKINSVILLE,GA,30677,-83.47036738,33.91593664,99.39,,dialysis
53 SCRANTON CONNECTOR NA BRUNSWICK GA 31525,BRUNSWICK,GA,31525,-81.48236552,31.2113129,96.6,,dialysis
617 LAKEVIEW ROAD SUITE B NA CLEARWATER FL 33756,CLEARWATER,FL,33756,-82.79786298,27.94813247,99.58,,dialysis
1711 5TH STREET SOUTH NA JACKSONVILLE BEACH FL 32250,JACKSONVILLE BEACH,FL,32250,-81.39079893,30.27205603,97.21,,dialysis
2548 N ORANGE BLOSSOM TRAIL #400 NA ORLANDO FL 32804,ORLANDO,FL,32804,-81.40685958,28.57451352,99.68,,dialysis
1125 INDUSTRIAL RD SUITE G NA SAN CARLOS CA 94070,SAN CARLOS,CA,94070,-122.2475125,37.50293066,96.79,,dialysis
13500 N KENDALL DR #131 NA MIAMI FL 33186,MIAMI,FL,33186,-80.4137777,25.6852915,96.82,,dialysis
118 WEST MAIN NA PERRY FL 32347,PERRY,FL,32347,-83.58263979,30.1179575,91.36,,dialysis
1120 INDIAN HILLS BLVD NA VENICE FL 34293,VENICE,FL,34293,-82.38751752,27.07226009,98.3,,dialysis
3925 W BOYNTON BEACH BLVD #110 NA BOYNTON BEACH FL 33436,BOYNTON BEACH,FL,33436,-80.10466085,26.52733676,99.56,,dialysis
2704 N OAK STREET BUILDING H NA VALDOSTA GA 31602,VALDOSTA,GA,31602,-83.2935394,30.86568743,99.38,,dialysis
1451 A GA HWY 21 SOUTH NA SPRINGFIELD GA 31329,SPRINGFIELD,GA,31329,-81.29112134,32.35094844,96.18,,dialysis
3 MEDICAL CENTER DRIVE NA SWAINSBORO GA 30401,SWAINSBORO,GA,30401,-82.34784746,32.5933052,96.55,,dialysis
1950 LAUREL MANOR DRIVE #190 NA THE VILLAGES FL 32162,THE VILLAGES,FL,32162,-82.00300224,28.92521344,99.57,,dialysis
3363 NW 167TH ST NA OPA LOCKA FL 33056,OPA LOCKA,FL,33056,-80.2564349,25.92623374,97.68,,dialysis
1757 CANDLER ROAD SE NA DECATUR GA 30032,DECATUR,GA,30032,-84.28852562,33.73960972,85.41,,dialysis
11135 COLUMBIA STREET NA BLAKELY GA 39823,BLAKELY,GA,39823,-84.95553337,31.37008358,96.73,,dialysis
"17197 NEWHOPE STREET, SUITE A, B, C & D NA FOUNTAIN VALLEY CA 92708",FOUNTAIN VALLEY,CA,92708,-117.9284045,33.71359326,99.27,,dialysis
"995 GATEWAY CENTER WAY, SUITE 101 NA SAN DIEGO CA 92102",SAN DIEGO,CA,92102,-117.1158468,32.71405399,99.42,,dialysis
1711 35TH STREET #109 NA ORLANDO FL 32839,ORLANDO,FL,32839,-81.40155903,28.50757744,99.62,,dialysis
4270 TAMIAMI TRAIL EAST SUITE 1 NA NAPLES FL 34112,NAPLES,FL,34112,-81.75650983,26.11639992,99.7,,dialysis
6085 HILLANDALE DRIVE NA LITHONIA GA 30058,LITHONIA,GA,30058,-84.14286457,33.70551705,96.67,,dialysis
6851 SHANNON PARKWAY SUITE 200 NA UNION CITY GA 30291,UNION CITY,GA,30291,-84.53987702,33.56719486,97,,dialysis
"2026 S MILLEDGE AVE, STREET A2 NA ATHENS GA 30605",ATHENS,GA,30605,-83.37854942,33.9241579,95.58,,dialysis
522 EG MILES PARKWAY NA HINESVILLE GA 31313,HINESVILLE,GA,31313,-81.60526399,31.83791442,96.42,,dialysis
1065 HWY 19 NORTH NA THOMASTON GA 30286,THOMASTON,GA,30286,-84.33357903,32.923568,96.25,,dialysis
2714 OSBORNE RD NA SAINT MARYS GA 31558,SAINT MARYS,GA,31558,-81.57920886,30.75317572,96.12,,dialysis
2001 PROFESSIONAL PARKWAY SUITE 100 WOODSTOCK GA 30188,WOODSTOCK,GA,30188,-84.52232287,34.08308311,97.46,,dialysis
"1045 ATLANTIC AVENUE, SUITE 108 NA LONG BEACH CA 90813",LONG BEACH,CA,90813,-118.1850775,33.78025999,99.4,,dialysis
4358 KINGS WAY NA VALDOSTA GA 31602,VALDOSTA,GA,31602,-83.3306683,30.89930557,96.14,,dialysis
3614 W KENNEDY BLVD SUITE A NA TAMPA FL 33609,TAMPA,FL,33609,-82.50241397,27.94471253,99.71,,dialysis
11011 SHERIDAN ST SUITE 308 COOPER CITY FL 33026,COOPER CITY,FL,33026,-80.29369473,26.02973771,99.65,,dialysis
1354 CLEVELAND AVENUE NA EAST POINT GA 30344,EAST POINT,GA,30344,-84.43321001,33.67944618,97.2,,dialysis
5723 MEMORIAL DR NA STONE MOUNTAIN GA 30083,STONE MOUNTAIN,GA,30083,-84.20414098,33.80090218,96.07,,dialysis
5819 HIGHWAY 90 NA MILTON FL 32583,MILTON,FL,32583,-87.08082415,30.6024274,98.05,,dialysis
"433 N. 4TH. ST., SUITE 102 NA MONTEBELLO CA 90640",MONTEBELLO,CA,90640,-118.1019941,34.0155908,99.28,,dialysis
1405 WEST F STREET SUITE B NA OAKDALE CA 95361,OAKDALE,CA,95361,-120.8628288,37.75992772,96.86,,dialysis
15757 E. VALLEY BLVD. NA CITY OF INDUSTRY CA 91744,CITY OF INDUSTRY,CA,91744,-117.9556464,34.01774151,96.17,,dialysis
"10532 ACACIA STREET, SUITE B2-B3 NA RANCHO CUCAMONGA CA 91730",RANCHO CUCAMONGA,CA,91730,-117.5750101,34.09001946,99.39,,dialysis
5105 JEFFERSON RD SUITE B NA ATHENS GA 30607,ATHENS,GA,30607,-83.43563755,33.99292932,99.39,,dialysis
2701 EVANS MILL ROAD NA LITHONIA GA 30058,LITHONIA,GA,30058,-84.11440877,33.70575379,96.53,,dialysis
1550 BUFORD HWY STE 1E NA BUFORD GA 30518,BUFORD,GA,30518,-84.01182793,34.09749851,96.74,,dialysis
1115 HERRINGTON ROAD NA LAWRENCEVILLE GA 30044,LAWRENCEVILLE,GA,30044,-84.08251579,33.94750008,96.33,,dialysis
4245 SUN N LAKE BLVD NA SEBRING FL 33872,SEBRING,FL,33872,-81.50794122,27.5373084,98.04,,dialysis
45597 US HWY 27 NA DAVENPORT FL 33897,DAVENPORT,FL,33897,-81.65861245,28.25540825,97.61,,dialysis
5730 BOWDEN ROAD SUITE 110 NA JACKSONVILLE FL 32216,JACKSONVILLE,FL,32216,-81.60617612,30.26462803,99.55,,dialysis
1424 US HWY 1 SUITE C NA SEBASTIAN FL 32958,SEBASTIAN,FL,32958,-80.47053922,27.81940458,99.56,,dialysis
13940 US HWY 441 BLDG 400 NA LADY LAKE FL 32159,LADY LAKE,FL,32159,-81.96442898,28.957554,97.27,,dialysis
14 SUNTREE PLACE SUITE 102 NA MELBOURNE FL 32940,MELBOURNE,FL,32940,-80.67985403,28.22760343,99.61,,dialysis
5300 W FLAGLER STREET NA CORAL GABLES FL 33134,CORAL GABLES,FL,33134,-80.28203358,25.77098642,97.58,,dialysis
"2679 S. SAVIERS ROAD, SUITE B NA OXNARD CA 93033",OXNARD,CA,93033,-119.180023,34.17546802,87,,dialysis
2620 WEST HWY 316 NA CITRA FL 32113,CITRA,FL,32113,-82.17164002,29.36693253,98.25,,dialysis
425 N LEE STREET SUITE 103 NA JACKSONVILLE FL 32204,JACKSONVILLE,FL,32204,-81.6690373,30.33212494,99.54,,dialysis
4965 LECHALET BLVD NA BOYNTON BEACH FL 33436,BOYNTON BEACH,FL,33436,-80.12174551,26.55482874,97.5,,dialysis
18004 NW 6TH STREET NA HOLLYWOOD FL 33029,HOLLYWOOD,FL,33029,-80.38596196,26.00944298,97.8,,dialysis
5130 LINTON BLVD SUITE G4 NA DELRAY BEACH FL 33484,DELRAY BEACH,FL,33484,-80.12412036,26.43922247,99.56,,dialysis
4529 EXECUTIVE DRIVE NA NAPLES FL 34119,NAPLES,FL,34119,-81.73100798,26.27401746,98.26,,dialysis
598 FAIRFIELD DRIVE NA PENSACOLA FL 32506,PENSACOLA,FL,32506,-87.31737352,30.41718851,97.4,,dialysis
3046 DEL PRADO BLVD SOUTH  SUITE 4A NA CAPE CORAL FL 33904,CAPE CORAL,FL,33904,-81.94181159,26.59553329,87.39,,dialysis
"2020 E. FIRST STREET, SUITE 100 NA SANTA ANA CA 92705",SANTA ANA,CA,92705,-117.8371176,33.74515498,99.39,,dialysis
"511 N. BROOKHURST STREET, SUITE 100 NA ANAHEIM CA 92801",ANAHEIM,CA,92801,-117.9590675,33.83922102,99.45,,dialysis
"1850 N. RIVERSIDE AVENUE, SUITE 150 NA RIALTO CA 92376",RIALTO,CA,92376,-117.3704675,34.132903,99.46,,dialysis
9999 NE 2ND AVE SUITE 119 MIAMI SHORES FL 33138,MIAMI SHORES,FL,33138,-80.19353132,25.86660169,99.61,,dialysis
11570 W STATE ROAD 84 NA DAVIE FL 33325,DAVIE,FL,33325,-80.30303694,26.11141336,98.37,,dialysis
6901  OKEECHOBEE BLVD #D19 NA WEST PALM BEACH FL 33411,WEST PALM BEACH,FL,33411,-80.15007844,26.70813743,99.52,,dialysis
2409 SW ARCHER RD NA GAINESVILLE FL 32608,GAINESVILLE,FL,32608,-82.36053534,29.632398,97.5,,dialysis
506 ROSWELL STREET SUITE 100 MARIETTA GA 30060,MARIETTA,GA,30060,-84.53766872,33.9504425,88.49,,dialysis
120 PIEDMONT AVENUE STE 300 NA ATLANTA GA 30303,ATLANTA,GA,30303,-84.3822384,33.75766996,87.53,,dialysis
7444 HANNOVER PARKWAY SUITE 150 STOCKBRIDGE GA 30281,STOCKBRIDGE,GA,30281,-84.27076102,33.55125994,88.17,,dialysis
557 BLUEBIRD BLVD NA FORT VALLEY GA 31030,FORT VALLEY,GA,31030,-83.87756988,32.56522767,96.27,,dialysis
567 NORTH AVE NE STE 200 NA ATLANTA GA 30308,ATLANTA,GA,30308,-84.36855695,33.77113737,99.35,,dialysis
567 NORTH AVE NE SUITE 100 NA ATLANTA GA 30308,ATLANTA,GA,30308,-84.36855695,33.77113737,99.37,,dialysis
2685 METROPOLITAN PARKWAY SW SUITE F ATLANTA GA 30315,ATLANTA,GA,30315,-84.410299,33.682392,99.53,,dialysis
"1445 30TH STREET, SUITE A AND B NA SAN DIEGO CA 92154",SAN DIEGO,CA,92154,-117.067127,32.57106103,96.25,,dialysis
"1135 S. SUNSET AVENUE, SUITE 103 NA WEST COVINA CA 91790",WEST COVINA,CA,91790,-117.945537,34.06201196,99.38,,dialysis
1540 W. COVINA PARKWAY NA WEST COVINA CA 91790,WEST COVINA,CA,91790,-117.9402985,34.07036654,91.85,,dialysis
1302 N 5TH STREET EXT NA CORDELE GA 31015,CORDELE,GA,31015,-83.7796524,31.97236938,96.6,,dialysis
5235 MEMORIAL DRIVE NA STONE MOUNTAIN GA 30083,STONE MOUNTAIN,GA,30083,-84.22173183,33.79826218,96.27,,dialysis
10680 MEDLOCK BRIDGE RD  STE 103 NA DULUTH GA 30097,DULUTH,GA,30097,-84.18393254,34.04108532,99.44,,dialysis
"12400 NORTH MERIDIAN ST., STE 200 NA CARMEL IN 46032",CARMEL,IN,46032,-86.1592002,39.971004,99.44,,dialysis
604 MT. TALBOT RD NA NEW ALBANY IN 47150,NEW ALBANY,IN,47150,-85.831435,38.298795,85,,dialysis
705 RILEY HOSPITAL DRIVE ROC DIALYSIS RM 1240 INDIANAPOLIS IN 46202,INDIANAPOLIS,IN,46202,-86.18137905,39.77743946,96.05,,dialysis
5823 US HWY 6 NA PORTAGE IN 46368,PORTAGE,IN,46368,-87.18892773,41.55039654,96,,dialysis
"4529 S. COTTAGE GROVE AVENUE, STE 100 NA CHICAGO IL 60653",CHICAGO,IL,60653,-87.60658311,41.81241728,97.29,,dialysis
7000-C S. PULASKI NA CHICAGO IL 60629,CHICAGO,IL,60629,-87.698675,41.782685,85,,dialysis
4259 COTTAGE GROVE AVE SUITE 200 CHICAGO IL 60653,CHICAGO,IL,60653,-87.60671255,41.81704299,89.41,,dialysis
6225 ATLANTA HIGHWAY SUITE 117 ALPHARETTA GA 30004,ALPHARETTA,GA,30004,-84.25094821,34.13126148,97.17,,dialysis
4585 NELSON BROGDON BLVD NA BUFORD GA 30518,BUFORD,GA,30518,-84.01872691,34.10009007,96.94,,dialysis
311 S CLARK ST DIALYSIS UNIT CARROLL IA 51401,CARROLL,IA,51401,-94.86779824,42.0572797,94.9,,dialysis
417 S. EAST ST. NA CORYDON IA 50060,CORYDON,IA,50060,-93.31227928,40.75466312,96,,dialysis
"2410 ALFT LANE, STE 101 NA ELGIN IL 60124",ELGIN,IL,60124,-88.33771709,42.07540723,96.82,,dialysis
209 S FIFTH ST NA WATSEKA IL 60970,WATSEKA,IL,60970,-87.73109144,40.77472643,96.1,,dialysis
442 N IL RTE 31 NA CRYSTAL LAKE IL 60012,CRYSTAL LAKE,IL,60012,-88.28676724,42.25397094,97.16,,dialysis
"2150 GETTLER STREET, SUITE 105 NA DYER IN 46311",DYER,IN,46311,-87.52295958,41.49261794,97.35,,dialysis
1300 LAFAYETTE PKWY SUITE E LAGRANGE GA 30241,LAGRANGE,GA,30241,-84.99660759,33.04119565,99.43,,dialysis
2516 TOBACCO RD NA HEPHZIBAH GA 30815,HEPHZIBAH,GA,30815,-82.07471454,33.37704233,96.17,,dialysis
5615 OLD NATIONAL HWY NA ATLANTA GA 30349,ATLANTA,GA,30349,-84.4721675,33.60289799,96.67,,dialysis
557 W. POLK STREET STE 100 NA CHICAGO IL 60607,CHICAGO,IL,60607,-87.64191855,41.87196826,99.36,,dialysis
177 B WEST JOE ORR RD NA SOUTH CHICAGO HEIGHT IL 60411,SOUTH CHICAGO HEIGHT,IL,60411,-87.64867201,41.5206583,94.82,,dialysis
7831 W 95TH ST STE CNE NA HICKORY HILLS IL 60457,HICKORY HILLS,IL,60457,-87.81473412,41.71856104,96.37,,dialysis
4480 UTICA RIDGE ROAD SUITE 1130 NA BETTENDORF IA 52722,BETTENDORF,IA,52722,-90.51736899,41.56517225,99.4,,dialysis
95 UNIVERSITY STE. 11 NA DES MOINES IA 50314,DES MOINES,IA,50314,-93.629385,41.60494,85,,dialysis
1301 PENNSYLVANIA AVE STE 208 NA DES MOINES IA 50316,DES MOINES,IA,50316,-93.6084278,41.60188134,96.95,,dialysis
1657 OLD SKOKIE ROAD NA HIGHLAND PARK IL 60035,HIGHLAND PARK,IL,60035,-87.82184281,42.18291985,97.42,,dialysis
1600 W 13TH STREET UNIT 3 NA CHICAGO IL 60608,CHICAGO,IL,60608,-87.66689746,41.86510256,99.36,,dialysis
3825 HIGHLAND SUITE 102 NA DOWNERS GROVE IL 60515,DOWNERS GROVE,IL,60515,-88.01018325,41.81826218,92.06,,dialysis
1806 W HUBBARD NA CHICAGO IL 60622,CHICAGO,IL,60622,-87.67294,41.90555,85,,dialysis
901 BIESTERFIELD ROAD  STE 400 NA ELK GROVE VILLAGE IL 60007,ELK GROVE VILLAGE,IL,60007,-88.01920997,42.00338246,99.32,,dialysis
917 SOUTH STATE NA JERSEYVILLE IL 62052,JERSEYVILLE,IL,62052,-90.3235678,39.1179873,85,,dialysis
14 CHEROKEE RD SUITE A CEDARTOWN GA 30125,CEDARTOWN,GA,30125,-85.2357593,34.05048751,96.8,,dialysis
"2855 MILLER DRIVE,  STE 209 NA PLYMOUTH IN 46563",PLYMOUTH,IN,46563,-86.34431956,41.35963252,99.36,,dialysis
"250 E. DAY ROAD, SUITE 300 NA MISHAWAKA IN 46545",MISHAWAKA,IN,46545,-86.17912054,41.69860569,99.32,,dialysis
1890 SILVER CROSS BLVD  STE 465 NA NEW LENOX IL 60451,NEW LENOX,IL,60451,-87.98600322,41.54416435,99.4,,dialysis
4802 BROADWAY NA GARY IN 46408,GARY,IN,46408,-87.33624719,41.53112765,96.39,,dialysis
401 W. NIPPERSINK NA ROUND LAKE IL 60073,ROUND LAKE,IL,60073,-88.09277157,42.35252159,92.24,,dialysis
2450 MT. ZION PARKWAY NA JONESBORO GA 30236,JONESBORO,GA,30236,-84.30971599,33.55765298,96.47,,dialysis
8060 SUMMIT BUSINESS PARKWAY NA JONESBORO GA 30236,JONESBORO,GA,30236,-84.305374,33.53592881,96.95,,dialysis
2101-2121 EISENHOWER PARKWAY SUITE 2117 MACON GA 31206,MACON,GA,31206,-83.68488757,32.81535916,97.24,,dialysis
518 N AUSTIN SUITE 5000 NA OAK PARK IL 60302,OAK PARK,IL,60302,-87.77504102,41.89019961,90.74,,dialysis
"972 EMERSON PARKWAY, SUITE E NA GREENWOOD IN 46143",GREENWOOD,IN,46143,-86.08388058,39.63008882,99.37,,dialysis
502 NORTH 9TH AVENUE DIALYSIS UNIT VINTON IA 52349,VINTON,IA,52349,-92.01329116,42.17444651,95.45,,dialysis
671 3 RD AVE SUITE A NA JASPER IN 47546,JASPER,IN,47546,-86.917874,38.37940443,99.3,,dialysis
"2350 S DIXON ROAD,  STE 450 NA KOKOMO IN 46902",KOKOMO,IN,46902,-86.16505743,40.45904022,96.88,,dialysis
"2340 NORTH STATE HWY 7., STE A NA NORTH VERNON IN 47265",NORTH VERNON,IN,47265,-85.64477023,39.01896552,96.67,,dialysis
309 HOMER ADAMS PARKWAY NA ALTON IL 62002,ALTON,IL,62002,-90.17038687,38.91967308,96.96,,dialysis
"2845 N. SHERIDAN ROAD, SUITE 703 NA CHICAGO IL 60657",CHICAGO,IL,60657,-87.63923261,41.93348914,97.09,,dialysis
# 7 PROFESSIONAL DRIVE NA ALTON IL 62002,ALTON,IL,62002,-90.13249367,38.90684413,96.82,,dialysis
6800 LAKE DR #185 NA WEST DES MOINES IA 50266,WEST DES MOINES,IA,50266,-93.80281109,41.59408181,99.2,,dialysis
507 S WHITE ST SAUNDERS PARK MOUNT PLEASANT IA 52641,MOUNT PLEASANT,IA,52641,-91.55825561,40.9619157,94.92,,dialysis
8110 NETWORK DRIVE NA PLAINFIELD IN 46168,PLAINFIELD,IN,46168,-86.37825981,39.65167566,96.35,,dialysis
2130 POINT BLVD. SUITE 800 NA ELGIN IL 60123,ELGIN,IL,60123,-88.32809409,42.07995073,99.4,,dialysis
2540 FLAT SHOALS ROAD NA ATLANTA GA 30349,ATLANTA,GA,30349,-84.47249138,33.58912095,96.67,,dialysis
3492 WASHINGTON ROAD NA ATLANTA GA 30344,ATLANTA,GA,30344,-84.47712741,33.65983559,96.67,,dialysis
12541 HIGHWAY 27 NA SUMMERVILLE GA 30747,SUMMERVILLE,GA,30747,-85.3233631,34.50990985,96.15,,dialysis
2721 N SPAULDING NA CHICAGO IL 60647,CHICAGO,IL,60647,-87.691375,41.921025,85,,dialysis
18325 PULASKI ROAD UNIT A-B NA HAZEL CREST IL 60429,HAZEL CREST,IL,60429,-87.71350577,41.55645036,97.45,,dialysis
2491 INDUSTRIAL DR. SUITE 200 NA HIGHLAND IL 62249,HIGHLAND,IL,62249,-89.68526476,38.74654396,86.13,,dialysis
300 W BROADWAY SUITE 150 NA COUNCIL BLUFFS IA 51503,COUNCIL BLUFFS,IA,51503,-95.84747637,41.26148215,99.29,,dialysis
1275 CLEVELAND AVE 1ST FL NA ATLANTA GA 30344,ATLANTA,GA,30344,-84.43032379,33.6799838,96.86,,dialysis
"700 WILLOW STREET, STE 101 NA VINCENNES IN 47591",VINCENNES,IN,47591,-87.5356579,38.67183122,99.35,,dialysis
"1420 N. SENATE AVE., SUITE B NA INDIANAPOLIS IN 46202",INDIANAPOLIS,IN,46202,-86.16304204,39.78676956,96.5,,dialysis
"3100 VILLAGE POINT, SUITE 101 NA CHESTERTON IN 46304",CHESTERTON,IN,46304,-87.04269718,41.57365734,96.83,,dialysis
112 SULLIVAN DR NA RUSHVILLE IL 62681,RUSHVILLE,IL,62681,-90.57744586,40.11895855,96.17,,dialysis
2953 CENTRAL ST 1ST FLOOR NA EVANSTON IL 60201,EVANSTON,IL,60201,-87.71725552,42.0645261,96.79,,dialysis
5526 E. HIGHWAY 62 NA JEFFERSONVILLE IN 47130,JEFFERSONVILLE,IN,47130,-85.70123138,38.35852645,96.03,,dialysis
"1705 W. 25TH AVE, SUITE 101 NA GARY IN 46404",GARY,IN,46404,-87.35781009,41.57331246,97.05,,dialysis
"1937 B  OLD STATE ROAD, 135 NORTH NA CORYDON IN 47112",CORYDON,IN,47112,-86.1234792,38.2074259,85,,dialysis
"1159 WEST JEFFERSON ST., SUITE 201 NA FRANKLIN IN 46131",FRANKLIN,IN,46131,-86.07820997,39.48107439,97.12,,dialysis
805 BEACHWAY DRIVE  SUITE 100 NA INDIANAPOLIS IN 46224,INDIANAPOLIS,IN,46224,-86.26865109,39.7779896,99.34,,dialysis
4001 EAST WABASH AVENUE NA TERRE HAUTE IN 47803,TERRE HAUTE,IN,47803,-87.35871609,39.47416267,85.45,,dialysis
1350 E COUNTY LINE RD SUITE L NA INDIANAPOLIS IN 46227,INDIANAPOLIS,IN,46227,-86.13527527,39.63559445,96.67,,dialysis
3470 W 183RD ST NA HAZEL CREST IL 60429,HAZEL CREST,IL,60429,-87.70049825,41.55719502,97.13,,dialysis
110 N. WEST STREET NA WAUKEGAN IL 60085,WAUKEGAN,IL,60085,-87.83585249,42.36146344,96.3,,dialysis
1808 S WEST AVE NA FREEPORT IL 61032,FREEPORT,IL,61032,-89.63156712,42.27543,96.14,,dialysis
2540 HAUSER ROSS DRIVE NA SYCAMORE IL 60178,SYCAMORE,IL,60178,-88.71582078,41.96101701,96.67,,dialysis
"396 REMINGTON BLVD., SUITE 100 NA BOLINGBROOK IL 60440",BOLINGBROOK,IL,60440,-88.08347268,41.67971578,99.35,,dialysis
107 S 11TH ST SUITE 2 NA MANCHESTER IA 52057,MANCHESTER,IA,52057,-91.47489451,42.48374558,96.35,,dialysis
1213 S. GEAR NA WEST BURLINGTON IA 52655,WEST BURLINGTON,IA,52655,-91.15783,40.821245,85,,dialysis
1700 W TOWNLINE ST #2B NA CRESTON IA 50801,CRESTON,IA,50801,-94.38511087,41.07115247,96.6,,dialysis
1661 W. RIDGEWAY NA WATERLOO IA 50701,WATERLOO,IA,50701,-92.36092,42.4839,85,,dialysis
"2257 KARISA DRIVE, SUITE 1 NA GOSHEN IN 46526",GOSHEN,IN,46526,-85.80513955,41.55831682,96.94,,dialysis
"4311 HWY 261, SUITE A NA NEWBURGH IN 47630",NEWBURGH,IN,47630,-87.39432669,37.97193774,99.29,,dialysis
13155 S. LAGRANGE ROAD NA ORLAND PARK IL 60462,ORLAND PARK,IL,60462,-87.85383754,41.65158489,93.74,,dialysis
"3901 GENERAL ELECTRIC ROAD, SUITE 1 NA BLOOMINGTON IL 61704",BLOOMINGTON,IL,61704,-88.90569045,40.50268032,99.4,,dialysis
"10801 S WESTERN AVENUE, SUITE 100 NA CHICAGO IL 60643",CHICAGO,IL,60643,-87.68130428,41.69734128,97.19,,dialysis
"3050 FINLEY ROAD, SUITE 300A NA DOWNERS GROVE IL 60515",DOWNERS GROVE,IL,60515,-88.02565254,41.83236702,97.57,,dialysis
455 W COURT STREET SUITE 100 NA KANKAKEE IL 60901,KANKAKEE,IL,60901,-87.87130056,41.12114776,99.38,,dialysis
7435 W TALCOTT AVE - OUTPATIENT DIALYSIS NA CHICAGO IL 60631,CHICAGO,IL,60631,-87.8126088,41.98849465,94.6,,dialysis
676 N. ST. CLAIR ARKES PAVILLION SUITE 2020 CHICAGO IL 60611,CHICAGO,IL,60611,-87.622775,41.89535,85,,dialysis
1500 E MARKET ST LOT 4 NA RED BUD IL 62278,RED BUD,IL,62278,-89.98158898,38.21164526,96.9,,dialysis
"4916 ILLINOIS ROAD, SUITE 118 NA FORT WAYNE IN 46804",FORT WAYNE,IN,46804,-85.20556559,41.07455649,99.38,,dialysis
911 W. NORTH AVENUE NA MELROSE PARK IL 60160,MELROSE PARK,IL,60160,-87.84655811,41.9082062,97.3,,dialysis
"329 REMINGTON BLVD, STE 110 NA BOLINGBROOK IL 60440",BOLINGBROOK,IL,60440,-88.07669214,41.68365728,99.33,,dialysis
5673 PEACHTREE DUNWOODY ROAD SUITE 501 ATLANTA GA 30342,ATLANTA,GA,30342,-84.35239732,33.90997551,99.54,,dialysis
2047 PRINCE AVENUE SUITE A ATHENS GA 30606,ATHENS,GA,30606,-83.40950001,33.96967289,99.46,,dialysis
"315 W. 10TH STREET, NE SUITE 105 ROME GA 30165",ROME,GA,30165,-85.1785648,34.26295723,99.52,,dialysis
1710 LAFAYETTE ROAD NA CRAWFORDSVILLE IN 47933,CRAWFORDSVILLE,IN,47933,-86.9081245,40.06534601,96.23,,dialysis
"1140 W JEFFERSON STREET, SUITE A NA FRANKLIN IN 46131",FRANKLIN,IN,46131,-86.07721462,39.48084313,97.07,,dialysis
232 STATE ROAD 129 SO. NA BATESVILLE IN 47006,BATESVILLE,IN,47006,-85.2033686,39.2832533,96.42,,dialysis
"501 W. LAKE STREET, SUITE 201 NA ELMHURST IL 60126",ELMHURST,IL,60126,-87.95527122,41.91923604,99.37,,dialysis
17524 CARRIAGE WAY NA HAZEL CREST IL 60429,HAZEL CREST,IL,60429,-87.69042747,41.57038902,92.32,,dialysis
405 LAKE COOK RD. SUITE A13 NA DEERFIELD IL 60015,DEERFIELD,IL,60015,-87.83781151,42.1527261,95.82,,dialysis
"2400 WOLF ROAD, SUITE 101 A NA WESTCHESTER IL 60154",WESTCHESTER,IL,60154,-87.9012322,41.84416292,96.44,,dialysis
"4701 NORTH CUMBERLAND AVENUE,  STE 15/18A NA NORRIDGE IL 60706",NORRIDGE,IL,60706,-87.83656252,41.96485098,99.38,,dialysis
"2460 INTELLIPLEX DRIVE, SUITE 120 NA SHELBYVILLE IN 46176",SHELBYVILLE,IN,46176,-85.78373435,39.56171999,96.97,,dialysis
999 N. MICHIGAN AVE. NA GREENSBURG IN 47240,GREENSBURG,IN,47240,-85.49551557,39.34641687,96.27,,dialysis
1925 VAUGHN ROAD SUITE 150 KENNESAW GA 30144,KENNESAW,GA,30144,-84.59063749,34.00361499,88.06,,dialysis
"900 SKYLINE DR, SUITE 200 NA MARION IL 62959",MARION,IL,62959,-88.98448461,37.74223948,99.38,,dialysis
12250 S CICERO STE 105 NA ALSIP IL 60803,ALSIP,IL,60803,-87.73891963,41.66934338,86.26,,dialysis
6300 S KINGERY HWY STE 408 NA WILLOWBROOK IL 60527,WILLOWBROOK,IL,60527,-87.9464776,41.77299458,85.46,,dialysis
800 ROOSEVELT RD STE C-16 NA GLEN ELLYN IL 60137,GLEN ELLYN,IL,60137,-88.05444297,41.85943753,96.67,,dialysis
"711 PLAZA DRIVE, SUITE 6 NA PORTER IN 46304",PORTER,IN,46304,-87.04410325,41.6180167,96.81,,dialysis
204 N 4TH AVE E  SUITE 134 NA NEWTON IA 50208,NEWTON,IA,50208,-93.0515795,41.70240752,96.81,,dialysis
1200 BROOKSTONE CENTRE PARKWAY SUITE 111 COLUMBUS GA 31904,COLUMBUS,GA,31904,-84.97711062,32.53698155,99.54,,dialysis
DIALYSIS UNIT-CLINIC J 1969 W OGDEN AV CHICAGO IL 60612,CHICAGO,IL,60612,-87.67593284,41.87307775,94.41,,dialysis
"28160 W. NORTHWEST HWY, SUITE 104 NA LAKE BARRINGTON IL 60010",LAKE BARRINGTON,IL,60010,-88.18262649,42.18065812,96.71,,dialysis
405 HIGHWAY 150 N P O BOX 516 WEST UNION IA 52175,WEST UNION,IA,52175,-91.81453732,42.96743707,95.1,,dialysis
368 SOUTH WEBER NA ROMEOVILLE IL 60446,ROMEOVILLE,IL,60446,-88.081565,41.6596792,85,,dialysis
1600 W 16TH ST  STE 13 NA OAK BROOK IL 60523,OAK BROOK,IL,60523,-87.95925665,41.85375263,89.61,,dialysis
"1859 W TAYLOR , UIMCC MC 794, ROOM 1003 NA CHICAGO IL 60612",CHICAGO,IL,60612,-87.685595,41.879875,85,,dialysis
"5401 N KNOXVILLE AVENUE, SUITE 300 NA PEORIA IL 61614",PEORIA,IL,61614,-89.5933166,40.75220795,97.32,,dialysis
4800 NORTH KILPATRICK NA CHICAGO IL 60630,CHICAGO,IL,60630,-87.74576958,41.96819016,85.93,,dialysis
1231 STATE ROUTE 161 EAST NA CENTRALIA IL 62801,CENTRALIA,IL,62801,-89.13097311,38.52835508,86,,dialysis
"4209 W. SHAMROCK LANE, UNIT A NA MCHENRY IL 60050",MCHENRY,IL,60050,-88.27998314,42.31488236,99.38,,dialysis
149 IRVING PARK NA STREAMWOOD IL 60107,STREAMWOOD,IL,60107,-88.17357,42.00764,85,,dialysis
3753 MARIETTA HIGHWAY SUITE 100 CANTON GA 30114,CANTON,GA,30114,-84.50925776,34.19476785,97.55,,dialysis
521 STANLEY K. TANGER BLVD. NA LOCUST GROVE GA 30248,LOCUST GROVE,GA,30248,-84.12128263,33.34574588,97.47,,dialysis
2640 N. NARRAGANSETT AVE. SUITE D8 NA CHICAGO IL 60639,CHICAGO,IL,60639,-87.78566752,41.92871601,96.32,,dialysis
"409 GREENVILLE AVENUE,  STE 500 NA WINCHESTER IN 47394",WINCHESTER,IN,47394,-84.97196002,40.16913283,87.14,,dialysis
901 W. UNIVERSITY AVE  SUITE 302 NA URBANA IL 61801,URBANA,IL,61801,-88.21976997,40.11641246,99.43,,dialysis
"7836 W. JEFFERSON BLVD.,  SUITE LL10 NA FORT WAYNE IN 46804",FORT WAYNE,IN,46804,-85.246708,41.04003801,97.05,,dialysis
133 E. BRUSH HILL RD. NA ELMHURST IL 60126,ELMHURST,IL,60126,-87.93684311,41.861627,96.38,,dialysis
2500 PARKWAY DR. NA SHELBYVILLE IN 46176,SHELBYVILLE,IN,46176,-85.74208929,39.5170975,96.08,,dialysis
165 SHERIDAN ROAD NA NOBLESVILLE IN 46060,NOBLESVILLE,IN,46060,-86.0251993,40.04818427,96.23,,dialysis
"2325 18TH STREET, SUITE 120 NA COLUMBUS IN 47201",COLUMBUS,IN,47201,-85.89850608,39.21679025,99.37,,dialysis
"2859 NORTH PARK AVENUE, STE. 111 & 112 NA HUNTINGTON IN 46750",HUNTINGTON,IN,46750,-85.50979129,40.90260363,96.56,,dialysis
3300 TAMIAMI TRAIL SUITE 101A NA PORT CHARLOTTE FL 33952,PORT CHARLOTTE,FL,33952,-82.09944526,26.98266392,96.72,,dialysis
"240 INDIAN RIVER RD, SUITE D NA ORANGE CT 06477",ORANGE,CT,6477,-73.00055266,41.26302325,96.94,,dialysis
4220 EXECUTIVE CIRCLE #38 NA FORT MYERS FL 33916,FORT MYERS,FL,33916,-81.84528735,26.60152323,99.6,,dialysis
700 WILLOW ST  SUITE 102 NA VINCENNES IN 47591,VINCENNES,IN,47591,-87.5356579,38.67183122,99.32,,dialysis
820 E MCGALLIARD NA MUNCIE IN 47303,MUNCIE,IN,47303,-85.410275,40.19526,85,,dialysis
1740 INDUSTRY DRIVE SUITE A INDIANAPOLIS IN 46219,INDIANAPOLIS,IN,46219,-86.04875582,39.7900473,96.89,,dialysis
"2669 CHARLESTOWN RD., SUITE F NA NEW ALBANY IN 47150",NEW ALBANY,IN,47150,-85.80315551,38.31952565,96.84,,dialysis
215 NORTH FRESNO STREET SUITE 150 FRESNO CA 93701,FRESNO,CA,93701,-119.7815751,36.74524671,99.52,,dialysis
7783 SOUTH FREEDOM ROAD NA FRENCH CAMP CA 95231,FRENCH CAMP,CA,95231,-121.2819857,37.88257425,87.06,,dialysis
13123 E 16TH AVE #328 NA AURORA CO 80045,AURORA,CO,80045,-104.8350374,39.74216145,96.59,,dialysis
7910 US HWY 19N NA PINELLAS PARK FL 33781,PINELLAS PARK,FL,33781,-82.68759326,27.84443538,97.06,,dialysis
2900 N MILITARY TRAIL SUITE 195 NA BOCA RATON FL 33431,BOCA RATON,FL,33431,-80.12101252,26.37875198,99.63,,dialysis
1705 E INDUSTRIAL DRIVE NA TERRE HAUTE IN 47802,TERRE HAUTE,IN,47802,-87.39041443,39.3454,96.61,,dialysis
"1002 4TH AVENUE SE, SUITE A NA CEDAR RAPIDS IA 52403",CEDAR RAPIDS,IA,52403,-91.65694874,41.98183058,96.61,,dialysis
800 N. MAIN ST. NA EVANSVILLE IN 47711,EVANSVILLE,IN,47711,-87.563878,37.98520575,95.87,,dialysis
"10120 CALUMET AVENUE, SUITE 102 NA MUNSTER IN 46321",MUNSTER,IN,46321,-87.50913718,41.52866055,97.14,,dialysis
DIALYSIS UNIT 137 WATER STREET NEW HAVEN CT 06511,NEW HAVEN,CT,6511,-72.9203246,41.30126296,95.55,,dialysis
5 SHAW'S COVE SUITE 100 NEW LONDON CT 06320,NEW LONDON,CT,6320,-72.10078176,41.34614352,99.34,,dialysis
11616 LAKE UNDERHILL ROAD BLDG 2 STE 206 ORLANDO FL 32825,ORLANDO,FL,32825,-81.21515171,28.54657043,99.54,,dialysis
1107 MYRA ST STE 101 NA JACKSONVILLE FL 32204,JACKSONVILLE,FL,32204,-81.68209546,30.31731508,99.5,,dialysis
7150 W 20TH AVE STE 109 NA HIALEAH FL 33016,HIALEAH,FL,33016,-80.32442513,25.88684168,99.63,,dialysis
1228 E RUSHOLME ST #1000 NA DAVENPORT IA 52803,DAVENPORT,IA,52803,-90.55703568,41.54286298,99.32,,dialysis
"1941 FRANK SCOTT PARKWAY EAST, SUITE B NA SHILOH IL 62269",SHILOH,IL,62269,-89.92076071,38.57034188,99.49,,dialysis
1890 SILVER CROSS BLVD SUITE 150 NEW LENOX IL 60451,NEW LENOX,IL,60451,-87.98600322,41.54416435,99.47,,dialysis
1051 ESSINGTON ROAD SUITE 160 NA JOLIET IL 60435,JOLIET,IL,60435,-88.16082516,41.54118798,99.43,,dialysis
1634 S ARDMORE AVE  SUITE 200 NA VILLA PARK IL 60181,VILLA PARK,IL,60181,-87.97787529,41.8590841,97.42,,dialysis
1600 SW ARCHER ROAD NA GAINESVILLE FL 32610,GAINESVILLE,FL,32610,-82.34320617,29.63929354,97.59,,dialysis
PEDIATRIC DIALYSIS 1 TAMPA GENERAL CIRCLE TAMPA FL 33601,TAMPA,FL,33601,-82.45928497,27.93752999,95.86,,dialysis
610 E MAIN STE C NA CORTEZ CO 81321,CORTEZ,CO,81321,-108.585745,37.34863,85,,dialysis
4320 FIR STREET SUITE 404 NA EAST CHICAGO IN 46312,EAST CHICAGO,IN,46312,-87.44853319,41.63612617,96.61,,dialysis
27025 W. EAMES STREET UNIT G CHANNAHON IL 60410,CHANNAHON,IL,60410,-88.26572786,41.41870595,97.04,,dialysis
501 6TH AVE S 6500000410 SAINT PETERSBURG FL 33701,SAINT PETERSBURG,FL,33701,-82.64100304,27.76427748,96.09,,dialysis
2735 W OLD HWY 441 NA MOUNT DORA FL 32757,MOUNT DORA,FL,32757,-81.67277898,28.80995099,97.71,,dialysis
10770 N 46TH STREET #A100 NA TAMPA FL 33617,TAMPA,FL,33617,-82.40992034,28.04692611,99.7,,dialysis
2459 S CONGRESS AVE #100 NA WEST PALM BEACH FL 33406,WEST PALM BEACH,FL,33406,-80.08834681,26.64026548,96.39,,dialysis
3000 DIXWELL AVENUE SUITE 100 NA HAMDEN CT 06518,HAMDEN,CT,6518,-72.9000658,41.38324929,97.12,,dialysis
111 OSBORNE STREET SUITE 211 DANBURY CT 06810,DANBURY,CT,6810,-73.44168024,41.40411863,99.45,,dialysis
"11 SOUTH RD, SUITE 110 NA FARMINGTON CT 06032",FARMINGTON,CT,6032,-72.79846699,41.72792999,96.35,,dialysis
5950 US HIGHWAY 6 NA PORTAGE IN 46368,PORTAGE,IN,46368,-87.18522322,41.55064661,96.36,,dialysis
1534 US HIGHWAY 41 NA SCHERERVILLE IN 46375,SCHERERVILLE,IN,46375,-87.47097723,41.49383732,96.18,,dialysis
1601 PROSPECT PARKWAY SUITE 180 FORT COLLINS CO 80525,FORT COLLINS,CO,80525,-105.0336472,40.56728274,97.14,,dialysis
50 BUCK CREEK ROAD SUITE 110 AVON CO 81620,AVON,CO,81620,-106.5228747,39.63994066,97.56,,dialysis
5992 IRIS PARKWAY NA LONGMONT CO 80504,LONGMONT,CO,80504,-104.943086,40.1113425,96.38,,dialysis
1321 S 4TH AVE SUITE 100 BRIGHTON CO 80601,BRIGHTON,CO,80601,-104.8182875,39.96690898,96.94,,dialysis
420 S NOVA RD SUITE 7 NA ORMOND BEACH FL 32174,ORMOND BEACH,FL,32174,-81.08118601,29.27083841,99.52,,dialysis
1000 RUSH DRIVE NA SALIDA CO 81201,SALIDA,CO,81201,-106.0081612,38.54296747,96.34,,dialysis
4600 HALE PKWY STE 120 NA DENVER CO 80220,DENVER,CO,80220,-104.9342965,39.73337671,99.35,,dialysis
9193 SW 72ND ST # 100-B NA MIAMI FL 33173,MIAMI,FL,33173,-80.34132087,25.70208446,99.67,,dialysis
1701 MILITARY TRAIL #140 NA JUPITER FL 33458,JUPITER,FL,33458,-80.10222247,26.91731927,99.64,,dialysis
3727 N FRONTAGE ROAD NA MICHIGAN CITY IN 46360,MICHIGAN CITY,IN,46360,-86.89025303,41.66158547,96.32,,dialysis
1005 PENNSYLVANIA AVE #101 NA OTTUMWA IA 52501,OTTUMWA,IA,52501,-92.38981014,41.02752748,99.38,,dialysis
2233 WISCONSIN AVE SUITE 214 WASHINGTON DC 20007,WASHINGTON,DC,20007,-77.07074223,38.91994976,87.86,,dialysis
RENAL DIALYSIS UNIT 3857 A PENNSYLVANIA AVE SE WASHINGTON DC 20020,WASHINGTON,DC,20020,-76.9507008,38.86481717,95.33,,dialysis
2131 K STREET NW STE 300 WASHINGTON DC 20037,WASHINGTON,DC,20037,-77.04766786,38.90289955,96.79,,dialysis
2002 LELARAY ST STE 130 NA COLORADO SPRINGS CO 80909,COLORADO SPRINGS,CO,80909,-104.790779,38.85688562,99.26,,dialysis
2343 W 27TH ST STE 503 NA GREELEY CO 80634,GREELEY,CO,80634,-104.7169511,40.39358339,99.32,,dialysis
270 FARMINGTON AVE STE160 FARMINGTON CT 06032,FARMINGTON,CT,6032,-72.79583188,41.73510674,99.38,,dialysis
7777 W LINCOLN HIGHWAY SUITE E FRANKFORT IL 60423,FRANKFORT,IL,60423,-87.80371921,41.50621939,97.19,,dialysis
5 LIONS DRIVE N LIBERTY OUTREACH DIALYSIS UNIT NORTH LIBERTY IA 52317,NORTH LIBERTY,IA,52317,-91.6111289,41.7441082,85,,dialysis
8901 S. KEDZIE NA EVERGREEN PARK IL 60805,EVERGREEN PARK,IL,60805,-87.70212735,41.73134323,92.78,,dialysis
1801 S NOVA RD #306 NA DAYTONA BEACH FL 32119,DAYTONA BEACH,FL,32119,-81.02525584,29.16978794,99.48,,dialysis
600 SW 3RD ST #1100 NA POMPANO BEACH FL 33060,POMPANO BEACH,FL,33060,-80.13515958,26.22656252,99.48,,dialysis
34 EAST INDUSTRIAL ROAD NA BRANFORD CT 06405,BRANFORD,CT,6405,-72.75753353,41.29790431,96.67,,dialysis
"C/O JOSEPH MARCANTONIO KIDNEY CENTER 780 LITCHFIELD STREET, SUITE 100 TORRINGTON CT 06790",TORRINGTON,CT,6790,-73.13647578,41.79048879,98.99,,dialysis
"100 MAIN STREET, SUITE A NA MIDDLETOWN CT 06457",MIDDLETOWN,CT,6457,-72.64788492,41.55774144,99.3,,dialysis
851 W. BURRELL ST. NA CROWN POINT IN 46307,CROWN POINT,IN,46307,-87.37738535,41.39061702,90.13,,dialysis
"1670 CAPITAL STREET, SUITE 900 NA ELGIN IL 60124",ELGIN,IL,60124,-88.33723899,42.07754877,99.45,,dialysis
"9115 S CICERO AVE, SUITE 300 NA OAK LAWN IL 60453",OAK LAWN,IL,60453,-87.74098871,41.72689483,99.38,,dialysis
200 EAST THIRD STREET NA SEYMOUR IN 47274,SEYMOUR,IN,47274,-85.88771412,38.96070291,96.67,,dialysis
"46-767 MONROE STREET, SUITE 101 NA INDIO CA 92201",INDIO,CA,92201,-116.219435,33.720145,85,,dialysis
"19222 PIONEER BLVD., SUITE 101 NA CERRITOS CA 90703",CERRITOS,CA,90703,-118.0819913,33.85560776,99.39,,dialysis
"2090 N. TUSTIN AVENUE, SUITE 100 NA SANTA ANA CA 92705",SANTA ANA,CA,92705,-117.8358045,33.76442209,99.4,,dialysis
92 W MILLER STREET NA ORLANDO FL 32806,ORLANDO,FL,32806,-81.37912001,28.5238525,98,,dialysis
1494 NW 7 ST NA MIAMI FL 33125,MIAMI,FL,33125,-80.21975772,25.7800364,98,,dialysis
365 QUARTER MASTER COURT NA JEFFERSONVILLE IN 47130,JEFFERSONVILLE,IN,47130,-85.73959735,38.28357065,95.46,,dialysis
973 EMERSON PARKWAY SUITE C GREENWOOD IN 46143,GREENWOOD,IN,46143,-86.08344682,39.63015258,97.09,,dialysis
300 NORTH 1ST NA VINCENNES IN 47591,VINCENNES,IN,47591,-87.5299836,38.68224532,95.5,,dialysis
136 SHERMAN AVENUE SUITE 206 NEW HAVEN CT 06511,NEW HAVEN,CT,6511,-72.94492851,41.31053091,98.74,,dialysis
11705 SAN JOSE BLVD SUITE 100 JACKSONVILLE FL 32223,JACKSONVILLE,FL,32223,-81.6326025,30.15878802,99.61,,dialysis
200 EAST 80TH PLACE SUITE 2 NA MERRILLVILLE IN 46410,MERRILLVILLE,IN,46410,-87.33410799,41.4733275,96.61,,dialysis
"2302 CHESTER BLVD, SUITE B NA RICHMOND IN 47374",RICHMOND,IN,47374,-84.88858615,39.86618742,96.79,,dialysis
810 1ST ST NE STE 100 WASHINGTON DC 20002,WASHINGTON,DC,20002,-77.00702795,38.90061292,96.6,,dialysis
1411 S POTOMAC ST STE 100 NA AURORA CO 80012,AURORA,CO,80012,-104.8326829,39.6910471,99.38,,dialysis
2880 FOLSOM ST STE 110 NA BOULDER CO 80304,BOULDER,CO,80304,-105.2630641,40.02839925,99.33,,dialysis
5264 COUNCIL ST NE SUITE 200 NA CEDAR RAPIDS IA 52402,CEDAR RAPIDS,IA,52402,-91.65679837,42.03114861,96.72,,dialysis
550 N HILLSIDE NA WICHITA KS 67214,WICHITA,KS,67214,-97.311565,37.69279,85,,dialysis
10370 HALIGUS ROAD SUITE 100 HUNTLEY IL 60142,HUNTLEY,IL,60142,-88.4030026,42.1767348,97.31,,dialysis
3322 VOLLMER RD. SUITE C OLYMPIA FIELDS IL 60461,OLYMPIA FIELDS,IL,60461,-87.69694298,41.52784252,97.81,,dialysis
9640 S. ROBERTS ROAD SUITE B-3A HICKORY HILLS IL 60457,HICKORY HILLS,IL,60457,-87.81777163,41.71530819,97.55,,dialysis
1200 DELTONA BLVD STE 26 NA DELTONA FL 32725,DELTONA,FL,32725,-81.2716086,28.89573961,99.64,,dialysis
2814 LEE BOULEVARD SUITE 16 LEHIGH ACRES FL 33971,LEHIGH ACRES,FL,33971,-81.6721189,26.6173675,99.63,,dialysis
2200 NORTH ALAFAYA TRAIL SUITE 600 ORLANDO FL 32826,ORLANDO,FL,32826,-81.20789566,28.57393437,99.75,,dialysis
460 HARTFORD TURNPIKE NA VERNON ROCKVILLE CT 06066,VERNON ROCKVILLE,CT,6066,-72.47844408,41.82990159,96.25,,dialysis
5454 HOHMAN AVENUE DIALYSIS UNIT ON CAMPUS HAMMOND IN 46320,HAMMOND,IN,46320,-87.52204753,41.61499701,95.63,,dialysis
2309 S MILLER STREET   STE 100 NA SHELBYVILLE IN 46176,SHELBYVILLE,IN,46176,-85.7873845,39.50251676,96.72,,dialysis
9836 W. 400 N. NA MICHIGAN CITY IN 46360,MICHIGAN CITY,IN,46360,-86.89055679,41.66581942,95.71,,dialysis
15 E INDEPENDENCE DRIVE NA CHICAGO HEIGHTS IL 60411,CHICAGO HEIGHTS,IL,60411,-87.639945,41.49752,85,,dialysis
1602 MAIN ST NA TELL CITY IN 47586,TELL CITY,IN,47586,-86.76969519,37.96465001,95.95,,dialysis
"1125 W. 6TH STREET, SUITE 101 NA LOS ANGELES CA 90017",LOS ANGELES,CA,90017,-118.2628068,34.0543851,99.34,,dialysis
"1825 4TH STREET, ROOM M5209 BOX SAN FRANCISCO CA 94143",SAN FRANCISCO,CA,94143,-122.390429,37.7653478,96.03,,dialysis
775 GATEWAY DRIVE SUITE 1010 ALTAMONTE SPRINGS FL 32714,ALTAMONTE SPRINGS,FL,32714,-81.41335413,28.64462256,99.54,,dialysis
1775 NW 80TH BLVD NA GAINESVILLE FL 32606,GAINESVILLE,FL,32606,-82.42934683,29.6693984,97.5,,dialysis
124 EAST NORTHFIELD DRIVE NA BROWNSBURG IN 46112,BROWNSBURG,IN,46112,-86.39055296,39.85801498,96.72,,dialysis
1406 EAST LINCOLNWAY SUITE A LA PORTE IN 46350,LA PORTE,IN,46350,-86.69264567,41.62403471,97.65,,dialysis
809 BROADWAY SUITE A NA KING CITY CA 93930,KING CITY,CA,93930,-121.1338217,36.20818628,85.11,,dialysis
"501 MEDICAL CENTER DR EAST, SUITE 1100 NA CLOVIS CA 93611",CLOVIS,CA,93611,-119.6602769,36.83761988,97.46,,dialysis
10543 SUWANNEE PLAZA BLVD NA LIVE OAK FL 32060,LIVE OAK,FL,32060,-82.96461816,30.32592633,98.27,,dialysis
250 HARRISON STREET SUITE 110 TITUSVILLE FL 32780,TITUSVILLE,FL,32780,-80.80537281,28.58430529,97.12,,dialysis
801 GARDEN ST SUITE B TITUSVILLE FL 32796,TITUSVILLE,FL,32796,-80.81427001,28.61534248,96.67,,dialysis
320 SOUTH STREET NA SOUTH BEND IN 46601,SOUTH BEND,IN,46601,-86.255745,41.67501,85,,dialysis
700 SECOND ST NE 6TH FLOOR - NEPHROLOGY WASHINGTON DC 20002,WASHINGTON,DC,20002,-77.00394056,38.89949025,95.85,,dialysis
1951 N.W. 7TH. AVE. SUITE 500 NA MIAMI FL 33136,MIAMI,FL,33136,-80.20697254,25.79462201,99.7,,dialysis
41 MONTEBELLO RD STE 102 NA PUEBLO CO 81001,PUEBLO,CO,81001,-104.59764,38.30571749,99.38,,dialysis
3120 2ND ST. NA MARSHALLTOWN IA 50158,MARSHALLTOWN,IA,50158,-92.905515,42.0516,85,,dialysis
112 W. 87TH STREET SUITE N NA CHICAGO IL 60620,CHICAGO,IL,60620,-87.62815656,41.73628918,96.8,,dialysis
2041 GEORGIA AVE NW TOWER BUILDING SUITE 1119B WASHINGTON DC 20060,WASHINGTON,DC,20060,-77.02092263,38.91781028,95.89,,dialysis
"2601 18TH STREET NE, A WING BASEMENT NA WASHINGTON DC 20018",WASHINGTON,DC,20018,-76.97814827,38.92344661,97.38,,dialysis
266 STATE STREET SUITE 2 NA NORTH HAVEN CT 06473,NORTH HAVEN,CT,6473,-72.88335175,41.37608801,96.55,,dialysis
"2550 W. ADDISON, SUITE A4 NA CHICAGO IL 60618",CHICAGO,IL,60618,-87.69253301,41.94673748,85.93,,dialysis
"22151 MOROSS RD PB1, SUITE G-05 DETROIT MI 48236",DETROIT,MI,48236,-82.91389392,42.41857316,96.73,,dialysis
"2050 LIVERNOIS, SUITE A NA TROY MI 48083",TROY,MI,48083,-83.14719271,42.55291144,86.87,,dialysis
15204 OMEGA DRIVE SUITE 110 ROCKVILLE MD 20850,ROCKVILLE,MD,20850,-77.19597381,39.10651375,99.42,,dialysis
6495 NEW HAMPSHIRE AVE STE LL 100 HYATTSVILLE MD 20783,HYATTSVILLE,MD,20783,-77.00001204,38.96798146,96.67,,dialysis
207 HIGHLAND AVE SUITE 2 SALEM MA 01970,SALEM,MA,1970,-70.91901899,42.50528014,97.21,,dialysis
17123 COMMERCE CENTER DR NA PRAIRIEVILLE LA 70769,PRAIRIEVILLE,LA,70769,-90.97932711,30.32045741,96.56,,dialysis
360 E CHICAGO ST STE 112 NA COLDWATER MI 49036,COLDWATER,MI,49036,-84.98676846,41.93829845,96.6,,dialysis
4 EDWARD AVENUE NA DAMARISCOTTA ME 04543,DAMARISCOTTA,ME,4543,-69.50570438,44.03612001,95.96,,dialysis
246 EASTERN BLVD. STE. 104 HAGERSTOWN MD 21740,HAGERSTOWN,MD,21740,-77.69467099,39.63979402,87.01,,dialysis
2220 COMMERCE AVE   STE 1 NA FOREST HILL MD 21050,FOREST HILL,MD,21050,-76.36827714,39.57875453,90.9,,dialysis
330 LIBBEY INDUSTRIAL PARKWAY SUITE 900 WEYMOUTH MA 02189,WEYMOUTH,MA,2189,-70.93557769,42.19085379,99.52,,dialysis
UNIT 1 STETSON WEST 2 WEST STREET UNIT 1 WEYMOUTH MA 02190,WEYMOUTH,MA,2190,-70.95647847,42.18831378,99.15,,dialysis
35351A S GRATIOT AVE NA CLINTON TOWNSHIP MI 48035,CLINTON TOWNSHIP,MI,48035,-82.89866366,42.5570069,96.19,,dialysis
11200 METRO AIRPORT CENTER DR STE 120 NA ROMULUS MI 48174,ROMULUS,MI,48174,-83.38033476,42.22080886,99.48,,dialysis
61 DEWEY STREET NA PRESTONSBURG KY 41653,PRESTONSBURG,KY,41653,-82.78002556,37.68301401,96.04,,dialysis
132 FUTURE DRIVE NA CORBIN KY 40701,CORBIN,KY,40701,-84.11208925,36.92021805,96.43,,dialysis
DIALYSIS SERVICES 73 ALLEN STREET WILTON ME 04294,WILTON,ME,4294,-70.22515758,44.58234559,94.63,,dialysis
"DIALYSIS CLINIC INC. SKOWHEGAN, ME 27 RESEARCH DRIVE/PO BOX  2231 SKOWHEGAN ME 04976",SKOWHEGAN,ME,4976,-69.70684802,44.75302309,92.8,,dialysis
MED. OFFICE BLDG SUITE M107 907 SUMNER STREET STOUGHTON MA 02072,STOUGHTON,MA,2072,-71.0829691,42.10019701,95.74,,dialysis
7700 2ND AVE STE 130 NA DETROIT MI 48202,DETROIT,MI,48202,-83.07846203,42.37242815,96.52,,dialysis
1200 MERCANTILE LN   STE 105 NA LARGO MD 20774,LARGO,MD,20774,-76.8388552,38.90686532,96.98,,dialysis
2600 WEST BROADWAY SUITE 112 NA LOUISVILLE KY 40211,LOUISVILLE,KY,40211,-85.79516534,38.24946398,99.37,,dialysis
306 SOUTH PLAZA NA LONDON KY 40741,LONDON,KY,40741,-84.08002291,37.10648838,96.34,,dialysis
210 THOMAS MORE PARKWAY SUITE 1 CRESTVIEW HILLS KY 41017,CRESTVIEW HILLS,KY,41017,-84.57014122,39.02301012,97.87,,dialysis
205 STEEPLE CHASE DR   STE 201 NA PRINCE FREDERICK MD 20678,PRINCE FREDERICK,MD,20678,-76.59166189,38.55092696,96.52,,dialysis
DIALYSIS UNIT 57 PROSPECT STREET NANTUCKET MA 02554,NANTUCKET,MA,2554,-70.1014536,41.27517831,95.25,,dialysis
DIALYSIS UNIT 55 LAKE AVENUE NORTH RM H7-331 WORCESTER MA 01655,WORCESTER,MA,1655,-71.76167233,42.27757354,95.37,,dialysis
3170 PROFESSIONAL CT NA BAY CITY MI 48706,BAY CITY,MI,48706,-83.92652673,43.60020279,96.67,,dialysis
1536 W. CENTER RD. NA ESSEXVILLE MI 48732,ESSEXVILLE,MI,48732,-83.83844776,43.59427565,96.12,,dialysis
"500 CADMUS LN, SUITE 201 NA EASTON MD 21601",EASTON,MD,21601,-76.07039603,38.76310344,99.36,,dialysis
1531 S EDGEWOOD ST SUITE 302 HALETHORPE MD 21227,HALETHORPE,MD,21227,-76.66744022,39.26074831,97.02,,dialysis
1046 OLD NORTHPOINT RD NA BALTIMORE MD 21224,BALTIMORE,MD,21224,-76.50802702,39.288638,95.08,,dialysis
2077 CATON STREET SUITE A NEW ORLEANS LA 70128,NEW ORLEANS,LA,70128,-90.06252602,29.99877681,99.2,,dialysis
2908 GENERAL DEGUALLE DR NA NEW ORLEANS LA 70114,NEW ORLEANS,LA,70114,-90.02795654,29.92812697,95.67,,dialysis
DIALYSIS UNIT - 1 HOSPITAL ROAD P.O. BOX 1477 OAK BLUFFS MA 02557,OAK BLUFFS,MA,2557,-70.57979901,41.46061123,93.78,,dialysis
"HEMODIALYSIS UNIT 123 SUMMER ST, SUITE 380 WORCESTER MA 01608",WORCESTER,MA,1608,-71.79700055,42.26465833,95.15,,dialysis
"10 MAPLE AVENUE, SUITE 200 NA GREAT BARRINGTON MA 01230",GREAT BARRINGTON,MA,1230,-73.36576786,42.18926357,96.36,,dialysis
5999 HARPERS FARM RD STE E-110 COLUMBIA MD 21044,COLUMBIA,MD,21044,-76.88000255,39.21689176,97.22,,dialysis
821 N EUTAW ST STE 401 BALTIMORE MD 21201,BALTIMORE,MD,21201,-76.6214946,39.29953154,96.73,,dialysis
246 EASTERN BLVD N STE 105 NA HAGERSTOWN MD 21740,HAGERSTOWN,MD,21740,-77.69467099,39.63979402,99.33,,dialysis
2 HAMILL RD SUITE 200 QUADRANGLE BUILDING EAST BALTIMORE MD 21210,BALTIMORE,MD,21210,-76.64543759,39.35203884,98.93,,dialysis
"DCI BRIGHAM/FAULKNER 1153 CENTRE STREET, BELKIN HOUSE JAMAICA PLAIN MA 02130",JAMAICA PLAIN,MA,2130,-71.12817522,42.30145262,94.15,,dialysis
143 WAR HORSE PLACE NA HOUMA LA 70360,HOUMA,LA,70360,-90.75243067,29.60608746,96.67,,dialysis
450 N TELEGRAPH RD STE 600 NA PONTIAC MI 48341,PONTIAC,MI,48341,-83.32609875,42.64464103,96.86,,dialysis
30300 HOOVER RD STE 100 NA WARREN MI 48093,WARREN,MI,48093,-83.00732867,42.51593287,99.36,,dialysis
"125 NORTHPORT AVE, SUITE 101 NA BELFAST ME 04915",BELFAST,ME,4915,-68.99482009,44.41226281,99.38,,dialysis
4700 HARTFORD ROAD NA BALTIMORE MD 21214,BALTIMORE,MD,21214,-76.56858233,39.3433396,93.84,,dialysis
4475 REGENCY PLACE UNIT 102 & 103 WHITE PLAINS MD 20695,WHITE PLAINS,MD,20695,-76.94224522,38.592718,99.32,,dialysis
34 BATES ROAD SUITE 201 MASHPEE MA 02649,MASHPEE,MA,2649,-70.49057524,41.61929893,99.39,,dialysis
31 MALL ROAD-DIALYSIS SUITE 1B NA BURLINGTON MA 01803,BURLINGTON,MA,1803,-71.20305566,42.48735965,95.5,,dialysis
1250 MERCY DR STE 201 NA MUSKEGON HEIGHTS MI 49444,MUSKEGON HEIGHTS,MI,49444,-86.21282309,43.20744734,99.14,,dialysis
"1935 BLUEGRASS AVE., SUITE 100 NA LOUISVILLE KY 40215",LOUISVILLE,KY,40215,-85.79804612,38.17900964,99.37,,dialysis
3250 KIDRON VALLEY WAY NA OWENSBORO KY 42303,OWENSBORO,KY,42303,-87.05833357,37.75561146,96.6,,dialysis
616 JACK MILLER RD NA VILLE PLATTE LA 70586,VILLE PLATTE,LA,70586,-92.26521801,30.67892019,96.23,,dialysis
7720 HWY 165 STE 3 NA COLUMBIA LA 71418,COLUMBIA,LA,71418,-92.09198749,32.08397118,96.3,,dialysis
DIALYSIS UNIT 925 UNION STREET SUITE 1 BANGOR ME 04401,BANGOR,ME,4401,-68.804268,44.81414699,95.61,,dialysis
250 ENFIELD RD / PO BOX 367 NA LINCOLN ME 04457,LINCOLN,ME,4457,-68.5184881,45.34794095,94.8,,dialysis
EASTERN MAINE DIALYSIS 11 SHORT STREET ELLSWORTH ME 04605,ELLSWORTH,ME,4605,-68.40365603,44.53047439,94.38,,dialysis
205 RIDGE RD NA FAIRFIELD ME 04937,FAIRFIELD,ME,4937,-69.62547866,44.59318112,95.81,,dialysis
6934 AVIATION BLVD SUITE H GLEN BURNIE MD 21061,GLEN BURNIE,MD,21061,-76.64764354,39.17387231,99.39,,dialysis
2 MAIN STREET SUITE 100 NA STONEHAM MA 02180,STONEHAM,MA,2180,-71.10048082,42.50176867,99.32,,dialysis
DIALYSIS UNIT 660 HARRISON AVENUE BOSTON MA 02118,BOSTON,MA,2118,-71.06986911,42.33886026,95.37,,dialysis
"4451 PARLIAMENT PLACE STE ""R"" LANHAM MD 20706",LANHAM,MD,20706,-76.83555751,38.95063897,97.35,,dialysis
